step,time_s,torso_x,torso_y,torso_z,quat_w,quat_x,quat_y,quat_z,roll_rad,pitch_rad,yaw_rad,body_vx,body_vy,body_vz,body_wx,body_wy,body_wz,l_hip_roll_pos,l_hip_yaw_pos,l_hip_pitch_pos,l_knee_pos,l_wheel_pos,r_hip_roll_pos,r_hip_yaw_pos,r_hip_pitch_pos,r_knee_pos,r_wheel_pos,l_hip_roll_vel,l_hip_yaw_vel,l_hip_pitch_vel,l_knee_vel,l_wheel_vel,r_hip_roll_vel,r_hip_yaw_vel,r_hip_pitch_vel,r_knee_vel,r_wheel_vel,l_hip_roll_torque,l_hip_yaw_torque,l_hip_pitch_torque,l_knee_torque,l_wheel_torque,r_hip_roll_torque,r_hip_yaw_torque,r_hip_pitch_torque,r_knee_torque,r_wheel_torque,l_hip_roll_ctrl,l_hip_yaw_ctrl,l_hip_pitch_ctrl,l_knee_ctrl,l_wheel_ctrl,r_hip_roll_ctrl,r_hip_yaw_ctrl,r_hip_pitch_ctrl,r_knee_ctrl,r_wheel_ctrl
0,0.0,0.000938209795020783,0.0016086065822904108,0.7025858501585126,0.9999804007494544,0.0023935035928709645,0.005677612886572081,0.00111084176290722,0.004799854809601282,0.01134992929483338,0.0022489655071855057,0.07240801518687026,-0.12271418670866525,-0.1636567789227004,3.3289047289975797,0.8432451090911026,0.2491439223686238,-0.00994702850183663,-0.013187784546212895,0.4029817199941048,0.6782276888291319,-0.3234945547175334,0.019520806458942542,-0.009472753425860948,0.3584529732153612,0.6128028105212127,-0.14309031046685458,-0.17187158100883776,-0.8492688339203571,6.872119175258944,5.663139450224684,-26.66872609045289,1.0968471636774464,-0.7743194228896251,3.036838953495579,0.48768443857911326,-10.16518446406715,-1.107353925704956,-1.0652638673782349,16.846677780151367,10.923050880432129,-11.2575101852417,3.6802797317504883,0.7967544198036194,11.333181381225586,-7.83330774307251,-5.807405471801758,-1.107353925704956,-1.0652638673782349,16.846677780151367,10.923050880432129,-11.2575101852417,3.6802797317504883,0.7967544198036194,11.333181381225586,-7.83330774307251,-5.807405471801758
1,0.02,-0.0001081007357157376,0.0011887733609460816,0.703112099395156,0.9999026740480831,0.012151226070535736,-0.001387985334934839,-0.0067129451946605165,0.024321202493471618,-0.002612562438561718,-0.013458767391773973,-0.19551674951901646,0.07754730595092212,0.2842606917939479,-0.8602715446594662,-2.4034748961824457,-1.4250443531104664,0.014616259981281177,0.0015974065754985611,0.39789347364671007,0.6166914512244082,-0.44485827642555725,0.010660769779490093,0.0034448352836866786,0.3954540835667732,0.6742860289031578,0.04264231061065015,1.7774495885316748,2.4772693152043663,-3.8656075174517612,-6.279718451935756,9.766770316098517,-1.4782532893625282,2.12462784665734,0.640477022634395,4.709088995230732,25.40145733038654,7.089705467224121,-1.2825684547424316,-18.567176818847656,-30.0,15.0,-5.419619083404541,2.779001235961914,1.011529564857483,11.168850898742676,15.0,7.089705467224121,-1.2825684547424316,-18.567176818847656,-30.0,15.0,-5.419619083404541,2.779001235961914,1.011529564857483,11.168850898742676,15.0
2,0.04,-0.002672196501424548,0.0014874275479848063,0.7067070815549708,0.999778233952135,0.013225454946507493,-0.009474033454314938,-0.013372095838527276,0.0267062084106076,-0.018591231710079478,-0.026996801547177308,-0.012576896315421304,-0.020060307489577073,0.25491920074896446,0.5330706964388283,0.9347021150646073,-0.3304710063317479,-0.02276625744037001,0.006357999515205203,0.43655887456241343,0.7011431607444807,-0.6525056655465302,0.0175740091075486,0.01477570150741735,0.3562722254981858,0.6035413396087372,0.1508156374164926,-3.877116600428244,-1.834522461502597,4.903304401907675,9.885241200971782,-26.566975066386583,1.2355802557138258,-1.0390950163478465,-2.8461699221404757,-4.442746766838736,-9.373271773866502,-11.040430068969727,-3.787743091583252,14.511979103088379,25.664793014526367,-15.0,6.092486381530762,-3.1166129112243652,-4.749972343444824,-26.16997528076172,-15.0,-11.040430068969727,-3.787743091583252,14.511979103088379,25.664793014526367,-15.0,6.092486381530762,-3.1166129112243652,-4.749972343444824,-26.16997528076172,-15.0
3,0.06,-0.003616724823480196,0.0025549994319547633,0.7114938162211808,0.9995088021818137,0.008074191811454733,-0.00899480967825935,-0.028914618906711077,0.016663941562669943,-0.01751475401286988,-0.0579874650774645,-0.07174267513122247,0.09190371707494734,0.18896448996761475,-1.1261327137456503,-0.5116988229716697,-2.2537408241310914,0.006203448474106598,0.00045465178453618074,0.39411575015669087,0.6366896927519566,-0.7713533733312381,0.022638438712316612,0.012062595389342654,0.3517631508060627,0.6484420692481178,0.3341219488270297,4.570707683378174,0.5449054329410068,-6.05055275053322,-10.581602688859668,10.618384222389606,-0.5899241153636884,0.3542321980542482,0.9452517322783021,6.212552887699346,25.18476267911207,14.63092041015625,0.8343157172203064,-16.86042022705078,-30.0,15.0,-3.7131597995758057,1.0177801847457886,1.9434905052185059,18.32369613647461,15.0,14.63092041015625,0.8343157172203064,-16.86042022705078,-30.0,15.0,-3.7131597995758057,1.0177801847457886,1.9434905052185059,18.32369613647461,15.0
4,0.08,-0.004592258830410176,0.0028747781174075066,0.7119220604603299,0.9990464907301748,0.011739823562269647,-0.007405594729634928,-0.04139375640299731,0.024074976097361128,-0.01382559650893536,-0.08298559232149617,-0.03966738619913921,-0.03131489800751066,-0.10037231012081388,1.2890214410685146,0.4566341774150383,-0.7484912652014333,-0.014439944151774428,-0.013205452883420624,0.40327734891174216,0.647837699752142,-0.9625863177773013,0.011759045038421241,0.00861887977043461,0.3453911269367907,0.6222374522064863,0.43143710865438156,-4.318324655831325,-1.2960056780700768,4.105019985762674,6.714615761091019,-25.770483016435627,-0.43368704844154704,-0.37527265402113996,-0.8474144730541852,-5.625107104054617,-11.514918449763456,-15.0,-0.2046915590763092,11.955970764160156,22.116220474243164,-15.0,0.4897587299346924,0.3363378345966339,2.687926769256592,-19.8551025390625,-15.0,-15.0,-0.2046915590763092,11.955970764160156,22.116220474243164,-15.0,0.4897587299346924,0.3363378345966339,2.687926769256592,-19.8551025390625,-15.0
5,0.1,-0.005204085928462323,0.0032751206257771595,0.7089384591423432,0.9984496004706284,0.013230822339850882,-0.009386837876064907,-0.05324685845139657,0.027427817731657676,-0.017336438009469945,-0.10679591024950069,-0.018314883804539977,0.05063809165827261,-0.20829385433198333,-0.5347813525241649,-0.4970301863279969,-1.2467829887486717,0.012055376104261002,-0.00818659121586146,0.37499021310726416,0.559507252652932,-1.0661384936384644,0.032524986820029286,0.014534701102872092,0.33946375577328053,0.6294161889862809,0.6005430868573889,4.641803320993932,1.1056119170613607,-4.419945571344446,-10.68239793457145,11.363906654557361,1.818039763916222,0.5529556656846941,-0.19202580508349143,3.8010141272760136,24.550705726622702,15.0,2.498741388320923,-7.147167682647705,-30.0,15.0,3.8385796546936035,-1.3947694301605225,-7.534313678741455,16.292997360229492,15.0,15.0,2.498741388320923,-7.147167682647705,-30.0,15.0,3.8385796546936035,-1.3947694301605225,-7.534313678741455,16.292997360229492,15.0
6,0.12,-0.005835543247758839,0.003964721252635923,0.7042510216214152,0.9977239090358224,0.01319709102798563,-0.005944756699070546,-0.06585968413579361,0.027121860926532675,-0.0101243122498788,-0.13196591140282563,0.039864295880760424,0.01672085812220073,-0.08241206260458678,0.009989814739164118,1.5943132557813255,-1.259528176939926,-0.01137863519041921,-0.02070498358010771,0.3843459609334102,0.6065989523145074,-1.2396131600217606,0.021385620871677117,0.005022558300050328,0.3321606147060039,0.6234432113305458,0.6870137156288991,-4.514376223444008,-2.2469763032530228,2.5940944402464683,9.400332676717058,-24.772307193728686,-1.589380403204296,-1.7396099645346461,0.036388265267214726,0.7552198715545891,-11.129036643271736,-15.0,-1.522688865661621,-1.2278552055358887,30.0,-15.0,-5.5925822257995605,-1.0349539518356323,10.811959266662598,-19.600440979003906,-15.0,-15.0,-1.522688865661621,-1.2278552055358887,30.0,-15.0,-5.5925822257995605,-1.0349539518356323,10.811959266662598,-19.600440979003906,-15.0
7,0.14,-0.005165007381744915,0.004601385023029333,0.7039269186696752,0.9966801443882827,0.015520560275218299,-0.004013309452148895,-0.07982289983543041,0.03158450909920304,-0.005522207498378557,-0.15992362262386325,-0.05091464645868113,0.08617527250287442,0.1790373093735185,-0.04195958267993159,-1.6119199437239868,-1.39249618110636,0.014842512268017267,-0.019204980726291395,0.37791905791928065,0.593084340165282,-1.325370395967295,0.027192958434169197,0.005817626445813056,0.3489128889104717,0.6576915484459022,0.8482321947541261,4.378111814696844,1.9970315973158115,-1.0456282124895173,-3.932630670581968,11.694838152597612,1.1692946118082677,1.9353563936063254,0.6795527739069609,2.36736985796107,24.166381891918622,15.0,4.528731346130371,1.7855507135391235,-30.0,15.0,3.6118481159210205,1.6986315250396729,-1.2568423748016357,6.5400590896606445,15.0,15.0,4.528731346130371,1.7855507135391235,-30.0,15.0,3.6118481159210205,1.6986315250396729,-1.2568423748016357,6.5400590896606445,15.0
8,0.16,-0.005984302515334758,0.006245410925898222,0.7060636504335499,0.9959303528025037,0.006820586376406026,-0.0078101868621639195,-0.08952772168072236,0.014986215321150015,-0.014336032252760032,-0.1794125956667307,0.03938775590580075,0.06969146981043055,0.2001144761135093,-1.6017255116285443,1.0305642478888326,-0.6661505048777054,-0.014629501746232294,-0.01948803727029531,0.39846593602865027,0.7037009791455796,-1.4958212865523106,0.03211146886636935,0.014715770848919684,0.29878157313750636,0.6004558879699544,0.9285921863878321,-4.797794257930657,-1.8108676250117104,1.6676902706281649,10.765633233819711,-24.76268030290588,-0.1845117694329414,-1.1779878572035392,-3.893552800328983,-2.181318846750967,-11.362632405935734,-15.0,-1.16142737865448,-1.8735969066619873,30.0,-15.0,-1.278218388557434,-3.0157692432403564,-5.1729841232299805,-19.398719787597656,-15.0,-15.0,-1.16142737865448,-1.8735969066619873,30.0,-15.0,-1.278218388557434,-3.0157692432403564,-5.1729841232299805,-19.398719787597656,-15.0
9,0.18,-0.005815358301411677,0.007405769141890997,0.70853576921323,0.9940210742670997,0.0081934524176147,-0.006080365106996506,-0.10871062694385973,0.017612775391474687,-0.010306773892633483,-0.21795394903040544,-0.015004828784404204,0.04480391609790161,0.043533190717920583,1.2656508412752556,-0.3252061867640658,-2.6521533727870925,0.012179126145025782,-0.02585516705886404,0.3787155877100154,0.6691860178422414,-1.579138366092562,0.017034010917247707,0.01022287982612202,0.3312503928826219,0.6588802632906838,1.0865191592655483,4.875744597130496,0.5023152831618913,-2.2202353440285654,-8.90226736805503,12.371892614148651,-1.2095576961818193,0.2803791438406133,4.769506851772396,5.693761065724205,24.008247307072857,15.0,1.3652398586273193,-2.251990556716919,-30.0,15.0,-2.7774698734283447,0.17308688163757324,15.36982536315918,12.60373592376709,15.0,15.0,1.3652398586273193,-2.251990556716919,-30.0,15.0,-2.7774698734283447,0.17308688163757324,15.36982536315918,12.60373592376709,15.0
10,0.2,-0.005254750067187247,0.00800493652378426,0.7069961200020131,0.992793434939033,0.010208196148100106,-0.006199959473151855,-0.11924155641339586,0.021750621515392428,-0.009876236283890243,-0.23917645277390565,0.05417698069260138,0.02310993674400228,-0.16970606260223656,-0.5018916098463958,0.10077684982906707,-0.0841667472470394,-0.00865506926033798,-0.02533534935076584,0.3859213601049578,0.6784509966959126,-1.7360067723741073,0.026854388924236715,0.012848024260783658,0.3375794730879936,0.677359872708332,1.1594053237816608,-4.476473052251448,-0.10180321813191892,1.7414934458018339,5.775327066519824,-24.084329299347115,1.4865513993651038,0.16345869044605715,-2.3364082232099324,-1.6157615914869743,-12.760945365527501,-15.0,3.485138177871704,5.548005104064941,19.53578758239746,-15.0,4.406622409820557,0.9817185997962952,-11.886046409606934,-5.985532760620117,-15.0,-15.0,3.485138177871704,5.548005104064941,19.53578758239746,-15.0,4.406622409820557,0.9817185997962952,-11.886046409606934,-5.985532760620117,-15.0
11,0.22,-0.005174090696037507,0.008538547529804643,0.7024647013833308,0.9910789201421769,0.018755477864998264,-0.009035988261218481,-0.13164025606179633,0.03956897072662813,-0.012973167060169927,-0.264361187997506,-0.10285882842073954,0.09103004336609444,-0.07211875272198395,1.1977892488455775,-1.3740575383549534,-1.949999345329773,0.018121190520710588,-0.015816838578423895,0.3782780208776974,0.5921085205580925,-1.8071475568596012,0.01466232515769884,0.014285507654143768,0.36431852180880675,0.6911339998012652,1.306152729416233,4.369478134525363,1.560143835935075,-0.5321277282556938,-6.053681568463423,12.741231814219734,-1.8425879831770828,0.8469934307227516,2.959859514583233,1.8500905994403694,23.520326547124224,15.0,-0.7771744728088379,-2.1885616779327393,-30.0,15.0,-5.188460826873779,-4.374941349029541,12.667903900146484,3.7693941593170166,15.0,15.0,-0.7771744728088379,-2.1885616779327393,-30.0,15.0,-5.188460826873779,-4.374941349029541,12.667903900146484,3.7693941593170166,15.0
12,0.24,-0.005494812519577084,0.010384859934961797,0.7038838018930167,0.9898010545375693,0.010157673621154462,-0.011437715893038073,-0.1416328802152673,0.023354750243955415,-0.01976609243403048,-0.2844857782499149,0.10143419166737996,0.05875610981517712,0.19776225587833368,-2.0550871313805392,0.9674642288552299,-0.5368439815985732,-0.011408531177125203,-0.01294368885056177,0.407533127777991,0.7026748189830679,-1.9641101175280755,0.04117839938827112,0.01635157797500684,0.31628980658150796,0.6407957390491645,1.3679949226545634,-4.698404502390241,-1.2709541629841237,1.9374000673768577,11.097037072123152,-24.1043837677008,2.7784428287854315,-1.0888015611647734,-5.424478826174786,-2.9163258715319933,-12.331389532276475,-15.0,1.3784548044204712,2.020047903060913,30.0,-15.0,9.472745895385742,-0.27765414118766785,-15.342750549316406,-20.832916259765625,-15.0,-15.0,1.3784548044204712,2.020047903060913,30.0,-15.0,9.472745895385742,-0.27765414118766785,-15.342750549316406,-20.832916259765625,-15.0
13,0.26,-0.005108784347509973,0.011717032394519072,0.7057707353309209,0.9864133955206689,0.013053599487453089,-0.009945950550398808,-0.1634603766833255,0.02901151739348119,-0.015354748482995416,-0.3286617746983805,-0.03182711519272286,0.06760101654304017,0.0025276890005337047,1.757152398750746,-0.2699971896979677,-3.27071787480346,0.0157216947614193,-0.015338490065979192,0.39762970390488656,0.6663551881316813,-2.034567591159963,0.008777288091373606,0.00794301378836062,0.3520953399425708,0.7045057137188682,1.5165920092955674,4.846176830469175,0.469019584874923,-1.679744854368858,-9.24040518708652,13.00028723558253,-4.188319690866144,-0.12136054265079353,6.0558600066149255,6.401993870440262,23.596910273043868,15.0,-0.3273743987083435,-4.312352180480957,-30.0,15.0,-11.99096965789795,-0.3525523841381073,23.19197654724121,12.865950584411621,15.0,15.0,-0.3273743987083435,-4.312352180480957,-30.0,15.0,-11.99096965789795,-0.3525523841381073,23.19197654724121,12.865950584411621,15.0
14,0.28,-0.004126476021654648,0.012015343554571525,0.7040732603285723,0.9838823150239044,0.016201768071714997,-0.009197802532777006,-0.1778440140210541,0.03516273509972375,-0.012336648484600565,-0.3578698730214187,0.09793037496838612,-0.015689158948158144,-0.16068154417449612,-0.6244320155247758,0.2036154103310386,-0.3022015366712744,-0.0050847214599917595,-0.015200197320314501,0.4127854649468059,0.6759825202364413,-2.1792668491234255,0.03600837581112845,0.007859009742614513,0.3387327794469621,0.6779596264168439,1.581971787988518,-4.449414174329271,-0.08508883372104742,2.1309498205023285,5.9944578894780705,-23.489631988594592,4.586673032002777,0.23891697892213135,-4.628307208343,-5.541290823650481,-13.114712677483835,-15.0,3.6747801303863525,8.222840309143066,19.582992553710938,-15.0,14.130989074707031,2.4242329597473145,-19.627662658691406,-14.489764213562012,-15.0,-15.0,3.6747801303863525,8.222840309143066,19.582992553710938,-15.0,14.130989074707031,2.4242329597473145,-19.627662658691406,-14.489764213562012,-15.0
15,0.3,-0.004174927990091885,0.013259184448631393,0.7002293834104845,0.9805665616103063,0.021130312406277767,-0.01521348052534377,-0.19445122308604815,0.047384715122013525,-0.021619714574395363,-0.392042725421673,-0.16233385842980397,0.230004649371487,0.1193437963568561,0.38862847885031204,-2.63233126252445,-2.441980856117654,0.018798744006643685,0.0013682051893019976,0.40874427098957405,0.6055138718066709,-2.2397448091664813,0.01468484731817314,0.014870357153395344,0.3600192511812522,0.6998126335616703,1.7208649462962802,3.962156570049971,2.7776442037063864,-0.003241184237209649,-2.9553247840548025,12.988835146918076,-4.3831465761002075,1.8518082721764662,3.424412792655017,4.695951465444797,23.10912670851937,15.0,-1.124645471572876,-5.943482875823975,-30.0,15.0,-13.938016891479492,-4.327708721160889,17.30597496032715,12.622889518737793,15.0,15.0,-1.124645471572876,-5.943482875823975,-30.0,15.0,-13.938016891479492,-4.327708721160889,17.30597496032715,12.622889518737793,15.0
16,0.32,-0.004352498459207939,0.01612438143753778,0.7053011859548015,0.9780770538829088,0.004883140976510925,-0.01570485226693621,-0.2075928448121633,0.01607991974319712,-0.028697639869666097,-0.418515266861042,0.11188448316771117,0.06372122327649946,0.3854788521876195,-2.806260052135588,1.2599291700742372,-0.6183884975825972,-0.016156546225086978,-0.0019660947616700996,0.4351872830761495,0.7378743651066197,-2.384906013678189,0.0423209453125091,0.015100416571688684,0.2863818731401376,0.6404807204635223,1.7694734708288153,-4.965605622430949,-2.0317926584414328,1.8763012389727154,11.935038156134747,-23.520523787084016,4.25815046843152,-1.5622059630479785,-8.198509322002094,-5.839869869383133,-12.609677104677417,-15.0,-2.6904258728027344,3.9046003818511963,30.0,-15.0,15.0,-2.497469663619995,-21.868192672729492,-30.0,-15.0,-15.0,-2.6904258728027344,3.9046003818511963,30.0,-15.0,15.0,-2.497469663619995,-21.868192672729492,-30.0,-15.0
17,0.34,-0.004170349192002326,0.01835351648695009,0.7105463269644376,0.971725031740654,0.002548067717379338,-0.014407992384403745,-0.2356615789537693,0.011747352473444933,-0.026803459656966164,-0.47600789618938766,-0.053895131679777414,0.13682971667881874,0.16105912257269675,1.32219643532313,-0.6148671080954238,-4.343714204310278,0.008718313907743795,-0.011581372202348929,0.41487603591256506,0.7053007948508648,-2.4439785135673677,0.01199585181874558,0.01005082879798112,0.31589976130055,0.7249960962973216,1.9118917533353559,4.80782465995224,0.32112055563423103,-2.541086250084496,-9.41823413707009,13.555811585611558,-4.863217872543216,0.5259655648744603,7.140773995185328,9.591852069158293,23.274945846527018,15.0,0.32473224401474,-9.226283073425293,-30.0,15.0,-15.0,1.9395685195922852,29.825008392333984,20.799890518188477,15.0,15.0,0.32473224401474,-9.226283073425293,-30.0,15.0,-15.0,1.9395685195922852,29.825008392333984,20.799890518188477,15.0
18,0.36,-0.0036825825435475206,0.019045993069774853,0.7123286406848476,0.9665158134132424,0.005936320637382861,-0.014853788556765038,-0.2561079996504192,0.019090894996420735,-0.02567498540392466,-0.5183004219275871,0.06949474820347665,-0.02739414697402124,0.01944319100895638,-0.26116464784911814,0.2718822321714166,-0.6786192157329359,-0.011875406970963329,-0.018190354971491678,0.4323007026102391,0.7150964576360743,-2.5777141299105604,0.031964170214460984,0.011546376693645376,0.29561509849704715,0.6729575373705433,1.9721640651035064,-4.399372904102162,-0.5246182933451162,2.9083909764354403,6.0792711457031645,-22.9476035023964,4.419367000497298,0.015116433672512114,-5.732082066689293,-9.396100218646593,-13.330331188435487,-15.0,3.3322532176971436,12.739116668701172,18.96399688720703,-15.0,14.66029167175293,1.2483344078063965,-22.2646541595459,-25.84661102294922,-15.0,-15.0,3.3322532176971436,12.739116668701172,18.96399688720703,-15.0,14.66029167175293,1.2483344078063965,-22.2646541595459,-25.84661102294922,-15.0
19,0.38,-0.0034736535772512144,0.020348333686135766,0.7102379031615078,0.9604812160094495,0.010605661336481612,-0.01952036067264976,-0.2774568599977911,0.031225871498242148,-0.03161792029805244,-0.5629283608729332,-0.02029621627049226,0.11765752983338819,-0.20636514256925698,1.0310705416348895,-0.5811210957600724,-3.1243487445739726,0.014953021252030192,-0.009754047629699131,0.4174995802120113,0.6140256658580584,-2.6263352226915955,0.020260265134426324,0.01725767735837314,0.31521386583770633,0.7005976384874903,2.1056202469398655,4.685847750534505,0.8591337356435468,-2.8384718194616987,-11.44340546543054,14.047459875981167,-3.5194643581771157,0.23774812662852396,4.80822294755896,7.3378244661990255,22.806058375642642,15.0,0.47654885053634644,-8.903565406799316,-30.0,15.0,-12.319106101989746,-3.675549030303955,15.737884521484375,22.461883544921875,15.0,15.0,0.47654885053634644,-8.903565406799316,-30.0,15.0,-12.319106101989746,-3.675549030303955,15.737884521484375,22.461883544921875,15.0
20,0.4,-0.0029872692487275107,0.021324898054437956,0.7042547504469026,0.9538172629748095,0.011056499968386606,-0.018236073353652956,-0.29962948501162545,0.03203807725038195,-0.02816578025439656,-0.609202686524544,0.04744526098754551,0.010596757156562017,-0.3793749517782814,-0.677482904049619,0.3677166671793934,-1.946907281722675,-0.00788018933619169,-0.01730283074419673,0.427399018144671,0.6417913848974448,-2.751826724062766,0.0396888269864904,0.011563562143931299,0.2872517290860633,0.6390492060420534,2.1568664295980375,-4.510841223541702,-0.9216876309350004,2.183435862958889,8.651000498948253,-22.58831096656913,3.6030578745030275,-0.43049899585482204,-4.853385330027152,-8.9358834271187,-13.762922328203501,-15.0,1.511195421218872,1.2592235803604126,30.0,-15.0,11.607011795043945,0.5863674879074097,-10.311630249023438,-26.71852684020996,-15.0,-15.0,1.511195421218872,1.2592235803604126,30.0,-15.0,11.607011795043945,0.5863674879074097,-10.311630249023438,-26.71852684020996,-15.0
21,0.42,0.00010960833476687373,0.021185913481461652,0.7011088338347756,0.9481197820529101,0.014584699956725733,-0.008010244090515328,-0.3174775604617183,0.03274865941825153,-0.005928746570473265,-0.6463262925938124,0.09199780168542351,0.11799530196920202,0.007391076421529058,0.23030709307281072,-0.5079346800032931,-1.818736224733442,0.021586797013275923,-0.025969997951166043,0.42248644687477566,0.5980337102352475,-2.7916951077708876,0.04098354363685762,-0.009454160802651492,0.3276574549717377,0.7125470590443386,2.220085453138664,4.361094598023086,1.016730761746957,-0.024410649460595124,-4.022834444999945,15.01191423649012,-2.247747003991586,0.3015794671960039,4.184484938798621,7.283341272710271,18.747024360066447,15.0,2.569279193878174,3.6016581058502197,-30.0,15.0,-9.149724006652832,-3.159435987472534,9.130575180053711,19.280017852783203,15.0,15.0,2.569279193878174,3.6016581058502197,-30.0,15.0,-9.149724006652832,-3.159435987472534,9.130575180053711,19.280017852783203,15.0
22,0.44,0.002176323747374979,0.023242472754363405,0.7021879456719975,0.9432941747912869,-0.0016040145298662253,-0.005019855069707145,-0.33191614603283776,0.0003062437724674348,-0.010535391626935451,-0.676679693262661,0.15512572535610164,0.03577222732861018,0.1469254503273062,-2.8096690937023734,0.6635211644182943,-1.5439389588038204,-0.009917516471910465,-0.028875792006500648,0.4235065546980976,0.689855194040064,-2.897019744819244,0.04895021751856694,-0.00584827087819154,0.27331640122659384,0.6464514039305794,2.197878757432612,-4.861187926261025,-1.351323559349545,-0.6015257407147256,8.76388390614016,-21.572336164418054,1.2182223781876353,-0.6043539301094554,-6.371282538011153,-4.854280078942017,-14.960166869998696,-15.0,0.23056530952453613,-8.57876205444336,25.823898315429688,-15.0,6.605752944946289,2.5285537242889404,-11.050495147705078,-30.0,-15.0,-15.0,0.23056530952453613,-8.57876205444336,25.823898315429688,-15.0,6.605752944946289,2.5285537242889404,-11.050495147705078,-30.0,-15.0
23,0.46,0.004623389286398514,0.023705837862014724,0.7031775838118584,0.9349261375420853,0.001311594155150544,-0.005007001670376852,-0.35480463215082575,0.006005751674555093,-0.008431734008661283,-0.7254456788883548,0.08498853778638513,0.016704594611365926,-0.06803588223319829,2.3086752071201464,-0.3309365282006395,-2.916348170462001,0.019683362212832532,-0.027465027414210436,0.4159429570469512,0.6434957952824553,-2.9181886054356285,0.023386249448103573,-0.003277682190026795,0.32031785813946506,0.7207991759403728,2.280446178491167,5.091397625982043,0.9735017963526632,0.1302839636918185,-8.80282614031091,15.414836726624618,-2.819715411872974,0.5675992241838359,7.212307312256136,7.789229657272634,20.2417706071932,15.0,2.2240850925445557,7.065896034240723,-30.0,15.0,-7.475634574890137,-0.386227548122406,22.149362564086914,18.17768096923828,15.0,15.0,2.2240850925445557,7.065896034240723,-30.0,15.0,-7.475634574890137,-0.386227548122406,22.149362564086914,18.17768096923828,15.0
24,0.48,0.007114583861599628,0.023071560862738313,0.701378697134045,0.9283285902101499,0.0028203640499515938,-0.00287926091360554,-0.3717388653364789,0.007377221385067557,-0.003248928301712745,-0.7617813216126721,0.14646288463828996,-0.05674316173234437,-0.13066458826955202,-1.2964610685208495,0.44457092641133494,-1.240785047955215,-0.0016022871112346786,-0.030256949077753875,0.41445923495360276,0.627276199703665,-3.0158956355387847,0.03785134352787697,-0.002126980045614646,0.2915792419173823,0.634933916731297,2.28189645819132,-4.59649046606681,-0.6150525977010992,-0.3132319165154203,3.8417020512839235,-21.196978312669792,2.7741735717234652,-0.05563661265082139,-6.368670908103333,-11.037962285701859,-16.196996920341263,-15.0,2.037527084350586,-4.923232078552246,17.53582763671875,-15.0,8.6225004196167,0.9393065571784973,-18.20429229736328,-30.0,-15.0,-15.0,2.037527084350586,-4.923232078552246,17.53582763671875,-15.0,8.6225004196167,0.9393065571784973,-18.20429229736328,-30.0,-15.0
25,0.5,0.010707110696843476,0.02297647574121501,0.7032718187528275,0.9208070796379438,0.002389641816341971,-0.0009639948683527167,-0.3900098491250246,0.00515275601283578,8.866108959726323e-05,-0.8012871614725136,0.13042312666264505,0.11712203755853454,0.1908865325721232,0.6558218220628644,-1.2675113366365385,-2.365908955834756,0.024095080381999236,-0.02646346519267928,0.4001143924479732,0.585183147348069,-3.0104494620607483,0.03332139631306367,-0.003948085372738354,0.34332139133747136,0.7496264266517598,2.3415467541595887,4.481019965305452,1.6903722857872545,-0.1423437032341041,-4.614551447192563,17.05201333208286,-1.9869723556680112,1.063456109423697,6.590234318232794,11.763846510857958,18.96544776914335,15.0,1.776405692100525,3.5436971187591553,-27.441726684570312,15.0,-7.101918697357178,-3.1820924282073975,18.335906982421875,30.0,15.0,15.0,1.776405692100525,3.5436971187591553,-27.441726684570312,15.0,-7.101918697357178,-3.1820924282073975,18.335906982421875,30.0,15.0
26,0.52,0.014050880925544101,0.024337359268243174,0.7071742652498262,0.9164706268628733,-0.01362278655465027,0.001771580329106548,-0.3998660666863289,-0.026390391961303588,-0.007647452025759838,-0.8227228622328007,0.189448256656856,0.04094784155058126,0.1657968562375017,-2.9066216498347868,0.06212987514201743,-0.3624580945481691,-0.006730587768251688,-0.024098985547098082,0.3926252467207977,0.6391039891851721,-3.075997962559451,0.04333630592614186,-3.7197089929494505e-05,0.2867188843091449,0.7089477151691702,2.3185513977612366,-4.9726779078826615,-0.588069339891405,-0.6095055080020388,6.868963123484377,-19.614567618522642,1.9388097262116033,-0.26006150527267335,-8.179103279009516,-9.726663749157346,-17.381226447111523,-15.0,0.069380983710289,-3.9955854415893555,20.427623748779297,-15.0,6.098343372344971,0.10810359567403793,-22.54624366760254,-30.0,-15.0,-15.0,0.069380983710289,-3.9955854415893555,20.427623748779297,-15.0,6.098343372344971,0.10810359567403793,-22.54624366760254,-30.0,-15.0
27,0.54,0.016530553204404115,0.025706712480123142,0.7064608047971818,0.9087997753774866,-0.012299625724396832,-0.004943496129548758,-0.41702188111283417,-0.018237089893396282,-0.019244910380630854,-0.8602375708109892,0.0829548246468305,0.08129779662244858,-0.18025744945710637,2.4282992417380234,-0.7876275465955248,-2.762227474082696,0.02002453952873126,-0.015013243480249933,0.39785874717411934,0.5959360297245967,-3.0597619799211846,0.0214843702135993,0.006584830916542814,0.3241205798110703,0.7333626136673259,2.373469636934168,4.918009070017673,0.9483659131807741,0.9254498582848201,-7.4356788635912245,17.22148752101622,-2.8329754337856556,0.45607671136628697,7.744136750662257,7.131454485890247,18.97786553664628,15.0,-0.42877092957496643,5.719533920288086,-24.10132598876953,15.0,-7.804026126861572,-1.5250450372695923,26.428661346435547,20.39198112487793,15.0,15.0,-0.42877092957496643,5.719533920288086,-24.10132598876953,15.0,-7.804026126861572,-1.5250450372695923,26.428661346435547,20.39198112487793,15.0
28,0.56,0.01885121416642305,0.026167349631597024,0.7034035921300725,0.9024087547263351,-0.010262481686090005,-0.006439070537372199,-0.4307106444395381,-0.012978235594514704,-0.020463095535247246,-0.89049737561794,0.21714255731942522,-0.08982468170222693,0.08155710506728062,-1.5092453945132784,1.518661156419332,-0.6822147966782401,-0.004326395314986667,-0.024513088479269297,0.39811030446435797,0.554080613647547,-3.1214627926672542,0.03340840787724007,0.0016974828700491254,0.3062161631772942,0.6505371235783977,2.3536016090824377,-4.630338162289348,-2.272081855143437,-1.0638505348378384,0.983628165954755,-19.411280248918526,2.184615743256772,-1.4768540367434415,-5.023846182335826,-4.189875800361804,-15.71304466123303,-15.0,-0.20806077122688293,-2.999423027038574,8.842126846313477,-15.0,8.370753288269043,0.7075352668762207,-19.299476623535156,-30.0,-15.0,-15.0,-0.20806077122688293,-2.999423027038574,8.842126846313477,-15.0,8.370753288269043,0.7075352668762207,-19.299476623535156,-30.0,-15.0
29,0.58,0.023780271596735438,0.024253076934939867,0.7024415573365063,0.8940171633655125,-0.002151930096489217,0.0005993135411884303,-0.4480271438518218,-0.004384758008678992,-0.0008566531104544972,-0.9291154040877494,0.2402167842486363,-0.08494747335655806,-0.1945192965238326,1.6550537996826953,0.3820287693255913,-2.8361253538514286,0.016177917206767582,-0.03592480314669316,0.42872819365828885,0.591430274929434,-3.104323123307997,0.019105502052990095,-0.010871628967635655,0.3556723371918795,0.7219218297572331,2.422036169506751,4.221121665826245,0.7174485253742025,3.030221034042005,2.302931780564538,17.17195882228366,-2.48962526184552,0.16206559319860372,6.460375521855587,6.900886616058178,19.59643341644596,12.826459884643555,5.343748569488525,2.097283363342285,6.37553071975708,15.0,-8.03834342956543,3.691462993621826,24.44188117980957,13.107908248901367,15.0,12.826459884643555,5.343748569488525,2.097283363342285,6.37553071975708,15.0,-8.03834342956543,3.691462993621826,24.44188117980957,13.107908248901367,15.0
30,0.6,0.02746011202310945,0.02254535181574932,0.7018724804880316,0.8858873091027872,0.004029366955570094,-0.0038808531924427033,-0.4638667683193716,0.01073978708601928,-0.003137823476378135,-0.9647432425644298,0.12883493694538944,-0.06115175134227489,0.11363931471865907,0.3662873514486142,-0.8193793087928913,-1.134326646347955,-0.0018992059534266095,-0.0299835695690716,0.42811237841314126,0.5780677975098102,-3.1216516313526896,0.025047445125957503,0.005263269332981345,0.35321176053130626,0.6317262158173609,2.410939831347782,-3.8141419851352167,0.491830974860774,-1.9115005519244308,-0.9202856529347895,-13.591061851613262,1.8951638139120488,1.6035579517270149,-3.7829296585827157,-10.987571449674995,-16.809281574628184,-12.557611465454102,0.12933330237865448,0.028381140902638435,-17.832965850830078,-15.0,6.787557601928711,1.589787483215332,-12.282161712646484,-28.98963737487793,-15.0,-12.557611465454102,0.12933330237865448,0.028381140902638435,-17.832965850830078,-15.0,6.787557601928711,1.589787483215332,-12.282161712646484,-28.98963737487793,-15.0
31,0.62,0.03254823448086541,0.021417727419515697,0.7050285980259351,0.8814121303570999,0.0024473793002191347,0.00039634223815199855,-0.47234151808490143,0.0039399098658606385,0.003010683969197472,-0.9838882339008083,0.3091828834773324,-0.0026936505844136495,0.0749601509922587,-0.8483786994588921,0.30664760875002034,-0.5891367376324508,0.008685684126977018,-0.028988629329467046,0.404651808499998,0.5530053539760336,-3.0159842482917307,0.0416918249098306,0.0027990747716870683,0.3666541692949305,0.7082752615676459,2.478569034157658,2.894428734676352,0.2463321783942976,-0.027246990921005382,-1.7759058235325915,19.21544900385313,0.2684680502314347,-0.47769521902810075,2.046608135069316,9.408782017610704,19.24588360664996,11.105141639709473,-0.02233654260635376,4.115423202514648,-3.805837631225586,15.0,-0.8785704970359802,-6.830890655517578,-2.59525990486145,29.72542381286621,15.0,11.105141639709473,-0.02233654260635376,4.115423202514648,-3.805837631225586,15.0,-0.8785704970359802,-6.830890655517578,-2.59525990486145,29.72542381286621,15.0
32,0.64,0.03796097358226113,0.02096044281455974,0.7062122492574923,0.8778937502761717,-0.0040312567883295895,0.008921063048548438,-0.47875539352453056,-0.01562176799200353,0.011803793233017319,-0.9986175316157031,0.2433951934826489,-0.03205409472987737,0.021906982402750547,-0.9388477331790421,0.4265147342446551,-1.024533477130993,-0.01086395166929586,-0.03990790092090426,0.3884640033708169,0.5372710126527859,-3.03775003296128,0.031154746311607275,-0.00477145680911872,0.3248563521826197,0.6712528576439986,2.461347350312137,-3.2214895609125325,-0.8913406134051708,-1.3197865284729917,-0.16659356875215828,-17.428258862978513,-0.9845695852764973,-0.1667328161644245,-4.1159379973364665,-8.290952509407358,-17.08198185801973,-10.160889625549316,0.3518099784851074,-9.265865325927734,3.8691132068634033,-15.0,-2.463132858276367,3.107668161392212,-0.77952641248703,-30.0,-15.0,-10.160889625549316,0.3518099784851074,-9.265865325927734,3.8691132068634033,-15.0,-2.463132858276367,3.107668161392212,-0.77952641248703,-30.0,-15.0
33,0.66,0.04315207809019801,0.020984534479688812,0.7037549055039821,0.8685449484794339,-0.005640763387636665,0.005677161079177263,-0.49554578406171756,-0.01542585204716739,0.004271239109815725,-1.0369956502052047,0.2773232104616598,0.031223055834948336,-0.21977169440243272,0.477681084939945,-0.8072640352997194,-2.4354293783517384,0.013534932529832979,-0.02927477157761815,0.4055196460149184,0.5518954924868706,-2.9923221639917847,0.030705400277733077,0.007250841146438048,0.3452272551075593,0.6649689636058524,2.5222639351524334,3.698828049340675,1.3095209239886256,2.267446963678548,0.5943494634815313,17.121099709066378,0.5378242398778221,1.010567497625371,3.841138652358015,4.1073994881367515,19.272518260615918,11.488908767700195,3.273933172225952,3.2807483673095703,1.698136568069458,15.0,2.2169086933135986,0.05100178346037865,12.66623592376709,14.198863983154297,15.0,11.488908767700195,3.273933172225952,3.2807483673095703,1.698136568069458,15.0,2.2169086933135986,0.05100178346037865,12.66623592376709,14.198863983154297,15.0
34,0.68,0.04817979700744219,0.021633929674942307,0.704778794537159,0.8594955398016575,-0.009756887879548324,0.0037589749302651063,-0.5110362905972883,-0.020615535704186207,-0.0035106104169127313,-1.0728087482513657,0.2626680810125507,-0.04174616468675931,0.3395875676627631,-0.5845207368156748,0.9124354590097992,-1.2479661399913635,-0.0008320328501070966,-0.024231343102126428,0.38581437601839863,0.5192749161494676,-2.9932653774186764,0.020190497608184074,0.0158180429665913,0.3280756632423178,0.601535203712899,2.530613790559299,-3.19569305028925,-1.2880153413650124,-3.0733530536609583,-4.099164318153475,-14.754181066335136,-1.1886895183683366,-0.7724452281492865,-3.308541480738404,-3.8169878362600147,-12.586364743358427,-10.864606857299805,-1.088266134262085,-5.291650772094727,-16.044872283935547,-15.0,-3.0192928314208984,-1.3625282049179077,-6.393239498138428,-30.0,-15.0,-10.864606857299805,-1.088266134262085,-5.291650772094727,-16.044872283935547,-15.0,-3.0192928314208984,-1.3625282049179077,-6.393239498138428,-30.0,-15.0
35,0.7,0.05371795416719036,0.02027061185065759,0.7074393797571792,0.8482567120569182,-0.0024818914071211974,0.005776724149317178,-0.5295479394007033,-0.010329116128924168,0.0071717905853193875,-1.1161968422454505,0.2831821490869703,-0.08238072524175875,-0.012169337387703132,1.1263189440444434,0.3159515147215095,-2.8320805155182196,-0.009895812297355503,-0.028353955073140747,0.40762577031133607,0.5913368202873351,-2.887409060514424,0.027561990549763368,0.012913215377603357,0.33715196126530583,0.5953032376786467,2.6212021951839004,1.0927843947035434,0.48059163544917616,3.2340102215044144,7.833274683820598,21.45528079535344,1.314896667651165,0.28414465130650324,2.626628588879895,1.5328341944618948,18.38921269665803,4.428337097167969,4.436591625213623,2.9880762100219727,22.63102912902832,15.0,4.279623985290527,1.8148976564407349,13.68177318572998,2.916051149368286,12.81966495513916,4.428337097167969,4.436591625213623,2.9880762100219727,22.63102912902832,15.0,4.279623985290527,1.8148976564407349,13.68177318572998,2.916051149368286,12.81966495513916
36,0.72,0.0584800858023599,0.019173747396647144,0.7077346399538305,0.8358550228917577,0.006077409557510963,0.0005751232259509195,-0.5489163096802303,0.009528699380236278,0.007633491861798518,-1.1621225330585114,0.20643261046115655,0.042606929982785466,0.177671520056667,0.6816003086243374,-1.072750287651484,-1.8218880027523912,-0.014861588792033375,-0.019078049354794697,0.38526732022709964,0.5308256034083134,-2.8556785070672026,0.01459093193446041,0.02141206347033308,0.3360709242018848,0.5176285648045347,2.585306663266674,-1.019871438834663,1.0518536941449905,-2.99430273004713,-4.963652020110802,-11.977916898388616,-1.8659505235092044,1.331175388993372,-1.8983953603524761,-6.912324549621802,-18.060809114189414,-3.2816824913024902,-0.07141242176294327,-3.489997148513794,-30.0,-15.0,-5.377671718597412,0.2777825593948364,-5.962300777435303,-15.589882850646973,-15.0,-3.2816824913024902,-0.07141242176294327,-3.489997148513794,-30.0,-15.0,-5.377671718597412,0.2777825593948364,-5.962300777435303,-15.589882850646973,-15.0
37,0.74,0.06446878663249385,0.0199563715544196,0.7117228744675276,0.8257225995503621,0.002102217470982882,-0.002174592426031767,-0.5640682941109858,0.0059249733031521,-0.0012196320789232948,-1.1986188095555952,0.33321996743124016,0.0335790608449483,0.08883062653568483,-0.5816335916670259,-0.08459386601368418,-1.7733567775711958,-0.01558202209773579,-0.008611123457210282,0.35681402170509097,0.5007674641002826,-2.719280429381201,0.04737227183368913,0.034816884495497254,0.3502053367459935,0.570936202915907,2.6204894271091557,0.5845551272087425,0.21726620949193692,-0.8695652730235288,0.04911509017740456,22.732512536140277,3.646474530406758,0.16477061803995266,1.728343638403698,7.0214690507880295,17.670852078757814,2.613088846206665,-0.9978700876235962,1.7286251783370972,2.34438419342041,15.0,10.174692153930664,-5.910356044769287,-1.19370698928833,22.110713958740234,15.0,2.613088846206665,-0.9978700876235962,1.7286251783370972,2.34438419342041,15.0,10.174692153930664,-5.910356044769287,-1.19370698928833,22.110713958740234,15.0
38,0.76,0.06988159559994558,0.0215761119369772,0.7152021502296402,0.8189075816175154,0.0021656946304447447,-0.007530433099853685,-0.5738719152506492,0.012190908730207548,-0.009847954044425638,-1.2225550492138129,0.21795961743441886,0.1507256232248743,0.29730225890772244,0.9174338500011802,-1.204576729153561,-0.918105931866977,-0.004995266270219784,0.0013735861376458483,0.3125860944607848,0.3957477567585025,-2.635531820575731,0.014102521229698541,0.03772369303339853,0.32207791620086895,0.48605005114810224,2.5725256523407336,0.5291370841112972,1.2249725547901904,-3.1232833596564835,-6.455841012264885,-8.67294996546837,-4.756640460856184,0.61283585831884,-2.996845043725346,-10.663318774866616,-18.59160421890814,0.6753580570220947,0.4041924476623535,-1.2548415660858154,-26.777332305908203,-15.0,-13.554784774780273,-0.5444755554199219,-3.1776463985443115,-30.0,-15.0,0.6753580570220947,0.4041924476623535,-1.2548415660858154,-26.777332305908203,-15.0,-13.554784774780273,-0.5444755554199219,-3.1776463985443115,-30.0,-15.0
39,0.78,0.07554326735522557,0.024554726140371273,0.7170700551824194,0.8113442819885986,-0.0019701626202784372,-0.013773456961553092,-0.5844030000153859,0.012905819348889229,-0.02465526682987618,-1.2485868623899128,0.3215630796739883,0.1453560553021908,-0.05198349545579808,-0.670884238864389,-0.3623657046080538,-1.520164728141738,-0.020007897683769878,0.011628177432995204,0.31166304792950017,0.46241912241608,-2.424761558069211,0.03805158939847515,0.04162464170712118,0.33421469461066455,0.5291406394850245,2.6020937782080518,-1.4787166156088318,-0.07546029905553678,1.2780559526653799,8.908972196180905,26.56689974580419,4.6682134350855415,-0.26461480872127746,2.3086821592806155,9.308385378751716,17.680314052388255,-3.4800798892974854,-2.83339786529541,2.2527835369110107,24.95770263671875,15.0,15.0,-5.095731258392334,2.314467430114746,30.0,15.0,-3.4800798892974854,-2.83339786529541,2.2527835369110107,24.95770263671875,15.0,15.0,-5.095731258392334,2.314467430114746,30.0,15.0
40,0.8,0.08092128366200176,0.02706579801057694,0.7163930228129907,0.8069725100363623,0.0010760817562719123,-0.017717061295760936,-0.5903222135687501,0.022664688384309167,-0.02732729404359363,-1.2634561382913991,0.2756944789226557,0.024037231974225845,0.13491114760758244,1.11927310350287,0.9922175193100171,-0.07637541925466257,0.003592401250443378,0.012100469156418115,0.29143787510859914,0.422540414003136,-2.299298925919163,0.01960706100370119,0.028828196961334585,0.3080752152630741,0.4694188626303359,2.5576927317827933,2.8304346026009943,-0.8002711137091228,-2.118502728537526,-8.19706865328477,-10.101090799824075,-3.8253055990476827,-1.260393310691175,-2.6138483009835234,-6.32643713501845,-17.010771231877936,7.811934471130371,-0.39774662256240845,2.6781351566314697,-27.44419288635254,-15.0,-13.580320358276367,0.3124259114265442,-7.65438175201416,-30.0,-15.0,7.811934471130371,-0.39774662256240845,2.6781351566314697,-27.44419288635254,-15.0,-13.580320358276367,0.3124259114265442,-7.65438175201416,-30.0,-15.0
41,0.82,0.08732496050856373,0.027149588764382976,0.7162859216600538,0.8011717030936352,0.013107221117169733,-0.013190940915012255,-0.5981455525157796,0.036791321737606734,-0.005456392237198426,-1.2827286836108924,0.33364610698658265,0.012291174668192234,-0.148971751073241,0.38988740514143944,0.8753416865944895,-1.728528622426799,-0.018831331253357675,-0.014101093403950245,0.3097220480828809,0.4817298617784934,-2.1042175986966534,0.05290136898284359,0.012898635056170107,0.3457827424059861,0.5302516499986796,2.592638021222621,-3.487185771928015,-1.4000093050895643,2.217312108270676,9.206242445980363,25.77689380551348,4.559534375595807,-0.3136972102058389,4.082161589898366,7.967231375489173,17.85733606462518,-10.992254257202148,-1.1621087789535522,-3.435418128967285,30.0,15.0,13.317285537719727,1.8980625867843628,15.072599411010742,19.303497314453125,15.0,-10.992254257202148,-1.1621087789535522,-3.435418128967285,30.0,15.0,13.317285537719727,1.8980625867843628,15.072599411010742,19.303497314453125,15.0
42,0.84,0.09392290493609515,0.027687412475186916,0.7148635639458966,0.7964255346425313,0.017019633866574874,-0.013495919434190963,-0.6043463907321964,0.04343583790669659,-0.0009254812361550022,-1.2982686164871977,0.3281104559240088,0.1590849974280957,0.2207834803897727,-0.2247638894671286,-1.6546794310491393,-0.32503890255053236,0.016260343694349595,-0.011272331422157621,0.2848816344514231,0.44905756068393154,-1.9929055611562714,0.02960045661709405,0.017048935564410003,0.33238340714312475,0.48446312529852265,2.547600209409605,4.189872247315147,2.077022849778255,-2.4767046639996186,-3.6453919949021345,-10.26625868335739,-4.570199845400193,1.8178705085025824,-3.9105786134934504,-7.929405584316655,-18.474344205194342,14.915457725524902,3.3667588233947754,0.46707212924957275,-30.0,-15.0,-15.0,2.115886926651001,-13.718413352966309,-21.062301635742188,-15.0,14.915457725524902,3.3667588233947754,0.46707212924957275,-30.0,-15.0,-15.0,2.115886926651001,-13.718413352966309,-21.062301635742188,-15.0
43,0.86,0.10087726283618868,0.03134646947470048,0.7158646751959213,0.7910032897652151,0.004218099980119124,-0.015755133650823944,-0.611594456299932,0.025952549220042084,-0.019766479116274015,-1.316610875822439,0.35567861373838805,0.19290846049474483,-0.08559779765067843,-1.3225226508462002,-0.38367270817086546,-1.3271982752046254,-0.008272936350476986,-0.0015428754894874423,0.2787045956651667,0.5222143643399197,-1.8268156603140142,0.05174736855707679,0.036809473024201365,0.3171282140011622,0.5200278840528401,2.5804746594476895,-4.305662985623629,-0.640839230513021,0.49797200727581964,7.972233774439816,24.327992430974682,4.460823109942155,0.15152897403407248,0.8669196853365366,7.174786123581693,17.87365611244072,-13.316393852233887,-5.326504707336426,-1.4688292741775513,21.981637954711914,15.0,15.0,-5.739763259887695,4.543974876403809,21.49131202697754,15.0,-13.316393852233887,-5.326504707336426,-1.4688292741775513,21.981637954711914,15.0,15.0,-5.739763259887695,4.543974876403809,21.49131202697754,15.0
44,0.88,0.10753775529869762,0.03403287272444857,0.7159712349251031,0.7871750436314938,0.004068715661326295,-0.014303777407191057,-0.6165503208891462,0.024049581567369038,-0.01750291097730211,-1.3290908538014812,0.3528298266793563,-0.0021143601540833945,0.27847650546422675,0.5007505096312428,1.5947672340733903,0.10185746669205184,0.017825486627563964,-0.011660266188456806,0.2593145071162026,0.4863603832565326,-1.7451530766689387,0.02777986487862924,0.028765976259257198,0.28088502211291533,0.4613652990531419,2.5433032586650595,4.628872359037688,-1.4989330656341466,-1.647910680638216,-7.435135141900335,-12.247250552138883,-4.135000119036638,-1.7245015992070096,-2.74629795600705,-4.8395866377015775,-16.557952191158613,14.272007942199707,1.7228026390075684,4.361506462097168,-25.331951141357422,-15.0,-14.592535018920898,0.1915787309408188,-7.696500778198242,-30.0,-15.0,14.272007942199707,1.7228026390075684,4.361506462097168,-25.331951141357422,-15.0,-14.592535018920898,0.1915787309408188,-7.696500778198242,-30.0,-15.0
45,0.9,0.11475855134468564,0.03450699102566815,0.7170274588186529,0.779141402059709,0.013733489618898647,-0.00897344911707681,-0.6266335005968504,0.03265276062999633,0.0032285635067054075,-1.354615433427702,0.3631849674161834,0.045773244079429364,-0.11146622982069726,0.3000840204913684,0.5369093593457839,-2.311187267680825,-0.004249571574644367,-0.035450758188132446,0.275759846972069,0.5424798196755019,-1.5918005941984545,0.04092518340075518,0.01590498521886083,0.33767699510062843,0.590310977998139,2.6067156333077426,-4.513315408887468,-0.8730896044481434,1.7447544728908904,8.600322366264082,23.73607647561226,3.4358593070796086,0.09120689982661254,5.916848256379675,12.56348240906676,19.375816027850522,-15.0,1.0409119129180908,-6.906215667724609,29.476099014282227,15.0,11.46754264831543,3.8192148208618164,22.162033081054688,27.313425064086914,15.0,-15.0,1.0409119129180908,-6.906215667724609,29.476099014282227,15.0,11.46754264831543,3.8192148208618164,22.162033081054688,27.313425064086914,15.0
46,0.92,0.12173837872590404,0.03429696323171418,0.7157679014358593,0.774241232414685,0.01974991660257302,-0.008620068415305507,-0.6325236353241652,0.04150191557804384,0.011636815939288284,-1.369752123613624,0.33792157889285407,-0.047486884344685655,-0.06902869115959909,0.6966864825207363,0.25725814810768766,0.35598917214949005,0.023170189446450433,-0.03196690022110166,0.2629126757498047,0.5037448792419178,-1.521354116866411,0.018531849030153525,0.022610402259058946,0.31902398019676664,0.5428403865451569,2.5923118170288504,4.841160777217071,0.8982010768968947,-1.5500273238096356,-7.930409589794811,-12.787589026505696,-3.8170603737046784,0.5462831623483824,-4.70713155564691,-10.688308478054271,-16.947101703328283,15.0,5.247025012969971,6.458657741546631,-28.31521987915039,-15.0,-12.17827320098877,0.9665305018424988,-19.727840423583984,-30.0,-15.0,15.0,5.247025012969971,6.458657741546631,-28.31521987915039,-15.0,-12.17827320098877,0.9665305018424988,-19.727840423583984,-30.0,-15.0
47,0.94,0.12933207871913227,0.035873944859293634,0.7127821938178799,0.7671063801551814,0.01534911215800231,-0.00972431588973225,-0.6412625390287924,0.03602868600801341,0.004766469793643994,-1.392475170232742,0.4160987022437955,0.16158812202542205,-0.2082177424272736,-1.0634751743424813,-0.6869901575901437,-2.2407443124930135,-0.003032330869812413,-0.021021564293802805,0.2717391677794082,0.5130137730432441,-1.4435062557365435,0.03979513647196405,0.03955720160305193,0.3326938649079285,0.6081131373727886,2.654181113009112,-4.853195191331971,0.24315190342330784,1.2840308965486702,4.6564106075984855,17.266083838044317,3.917672818490603,0.8116063099524952,3.548563956092956,10.994090981228709,19.274814294651264,-14.632081031799316,-1.988688588142395,-9.052047729492188,20.143707275390625,15.0,12.996854782104492,-3.8023786544799805,17.084497451782227,29.430639266967773,15.0,-14.632081031799316,-1.988688588142395,-9.052047729492188,20.143707275390625,15.0,12.996854782104492,-3.8023786544799805,17.084497451782227,29.430639266967773,15.0
48,0.96,0.13796667254666173,0.038251891639652646,0.709085577654733,0.7588177669046698,0.00262390799017246,-0.0029695132568406182,-0.6512909439933033,0.007850255471219723,-0.001088784028073848,-1.4185866135548677,0.41600827159834103,0.12787274579658647,-0.14462502913104497,-1.5639198398370353,-0.48710300699542974,-0.9419897588611654,0.016371296873169554,-0.011728114976438983,0.2738141560493813,0.5401844238471154,-1.486768199616418,0.021519211831823728,0.04452982400659538,0.2759476647823676,0.5512020047828834,2.63769316848935,4.411689565761563,0.5540872897820874,-1.1472574625024459,2.107110346747785,-14.859517366237249,-3.723305773942299,0.30406714276759383,-6.379680888094094,-10.589980116029846,-17.049265418891814,15.0,3.5865957736968994,2.777505397796631,-8.31266975402832,-15.0,-12.440530776977539,-2.5582611560821533,-18.40773582458496,-30.0,-15.0,15.0,3.5865957736968994,2.777505397796631,-8.31266975402832,-15.0,-12.440530776977539,-2.5582611560821533,-18.40773582458496,-30.0,-15.0
49,0.98,0.14632979881711997,0.040336087567279154,0.7073639811564119,0.7477797125181072,-0.0015661108294562358,0.0029661000246882967,-0.663938439235033,-0.006280886187163935,0.0023563786686057286,-1.4521640272767016,0.4253749537030283,0.12973374824291786,-0.07414104306954744,-0.3022206087923709,0.10624411551275742,-2.0157605976207487,0.006167849510638461,-0.01855000344207665,0.28056364180702903,0.5688236318657337,-1.420628030538673,0.04503032026196221,0.03829200642918968,0.30229342774393725,0.6016225531487631,2.652557656418766,-3.5201364685805254,-0.2942200468916575,1.8218982549234017,1.0828488979825692,16.842919604456355,3.971233047705184,-0.35990032418580825,4.974700833663407,8.54289717197206,16.025279609951397,-12.883026123046875,-2.3814432621002197,3.921470880508423,-0.7019698619842529,15.0,13.034392356872559,-4.90579891204834,17.237268447875977,22.100759506225586,15.0,-12.883026123046875,-2.3814432621002197,3.921470880508423,-0.7019698619842529,15.0,13.034392356872559,-4.90579891204834,17.237268447875977,22.100759506225586,15.0
50,1.0,0.1549894497590766,0.04276257926444671,0.7075475547221912,0.7394348081131291,-0.008994343560730199,0.01030573504101552,-0.6730891903454383,-0.02717829827326028,0.00313285269977513,-1.4769687901584998,0.44553002849179785,0.029461731023510643,0.23838917340659777,-1.6068455404385884,1.0237726506252112,-0.5487972546914514,0.019021665830466567,-0.021043248074057982,0.26950950065005036,0.5663589107268885,-1.4269988196510408,0.01517293013419479,0.03209020396612028,0.27584265814252446,0.5288756725466291,2.579015767125857,3.1501335703790088,-0.9270476580963826,-2.282374178085932,-1.0239823282403728,-14.283221179051148,-4.747971752371348,-1.1021139671143487,-4.5202115390870174,-5.26758762343869,-16.91477775438273,10.946138381958008,2.950512170791626,-0.8430219888687134,-9.99512767791748,-15.0,-15.0,0.7424986362457275,-15.739889144897461,-30.0,-15.0,10.946138381958008,2.950512170791626,-0.8430219888687134,-9.99512767791748,-15.0,-15.0,0.7424986362457275,-15.739889144897461,-30.0,-15.0
51,1.02,0.16241950164365943,0.04313202319109051,0.7087674805702842,0.7288462862016912,-0.0005645133815941582,0.011644557518571696,-0.6845781012381591,-0.016769091850942667,0.016201986845397497,-1.5083130265085702,0.3166902723803996,0.025343081141721933,-0.09887139307507728,1.9345105918395291,0.313804507466926,-2.179420081611513,-0.007264164877451546,-0.03389593871959193,0.29412204311287216,0.6198247057420625,-1.310861170053924,0.030929452904341098,0.021835343853251386,0.3332042751096157,0.6081040533216044,2.6337717210012754,-4.024768105469955,-0.29923259523507617,3.2649923948412436,4.655966670343488,21.992395301226136,4.05091859409327,0.07043812745846828,7.0236691759492675,8.436836512311997,18.90620644251401,-13.780471801757812,2.120805501937866,6.76800537109375,11.38663101196289,15.0,14.494108200073242,0.9581893682479858,25.256988525390625,17.773195266723633,15.0,-13.780471801757812,2.120805501937866,6.76800537109375,11.38663101196289,15.0,14.494108200073242,0.9581893682479858,25.256988525390625,17.773195266723633,15.0
52,1.04,0.16918403801040433,0.04379155462493579,0.7093546922074118,0.7216358786156533,0.0065307404668973655,0.0033575489378228577,-0.6922338730434234,0.00477769397242104,0.013887901521070103,-1.5291783176544502,0.35286560331153743,0.12224310292919235,0.24870154905393577,0.3424523839360068,-1.329989901090161,-0.5922474067962495,0.015478572597871519,-0.025096429311104326,0.293889127380044,0.559922955178006,-1.2610550332612729,0.004428807714843946,0.02941800225786083,0.33033180474618123,0.5119113205875817,2.6097450696114066,3.9628950296137386,1.450705802947717,-1.873847132654827,-3.5467437165642752,-11.32857944822052,-4.50295096428167,1.3185532768775163,-4.485714037237246,-12.182830486874842,-17.430032052743158,14.319446563720703,3.248100996017456,2.386007785797119,-28.540735244750977,-15.0,-14.680224418640137,0.5598472356796265,-18.882953643798828,-30.0,-15.0,14.319446563720703,3.248100996017456,2.386007785797119,-28.540735244750977,-15.0,-14.680224418640137,0.5598472356796265,-18.882953643798828,-30.0,-15.0
53,1.06,0.17649791268774576,0.04663039616952967,0.7105954343789657,0.7151373367446172,0.0017758938561381595,-0.004847972028262053,-0.6989649010944977,0.009317367704077923,-0.004451371363209577,-1.5479449832929373,0.3716674733280797,0.15008784103551345,-0.07543097456772363,0.08877476174059631,-0.5326296478505983,-1.0878272272431593,-0.015615181239291044,-0.01739465948920092,0.2909431609642437,0.5760717984821578,-1.1052597622808853,0.02849416815449686,0.04570934601975553,0.3534457123655256,0.5386496307407989,2.6397645669724596,-4.791573094430705,-0.3842473258396859,0.6074609303770856,3.379659644448786,23.871208543773694,4.530452205264202,0.3101355699262613,4.071303335967943,8.917775591953166,17.101012955530297,-15.0,-2.3398489952087402,2.988546848297119,9.756654739379883,15.0,15.0,-6.0736002922058105,8.179548263549805,30.0,15.0,-15.0,-2.3398489952087402,2.988546848297119,9.756654739379883,15.0,15.0,-6.0736002922058105,8.179548263549805,30.0,15.0
54,1.08,0.18403795310039892,0.04823201918788579,0.7110597749195281,0.7151601170300766,0.0033586962598913667,-0.006297159565487121,-0.6989242247557081,0.013607032342169369,-0.0043120197469404455,-1.5478635559011287,0.40107584365840826,-0.0650585097908897,0.2876913357824326,0.15087551628549847,1.5174010275568082,0.777761354692363,0.006202704737900596,-0.02231725314520395,0.2720052189870785,0.49740940870250044,-1.0331938698781105,0.014477361176965435,0.03823283587785817,0.3298535811173981,0.4841843846222969,2.594485769614227,4.654553836803885,-1.1652240253311563,-1.8120568254959393,-8.20182343616281,-12.737641042411378,-3.6674359156722645,-1.7648464579480518,-3.540300995441136,-5.184160771575294,-16.093767313646108,15.0,2.4401957988739014,4.095541000366211,-23.652225494384766,-15.0,-13.166001319885254,-0.48147064447402954,-15.730368614196777,-30.0,-15.0,15.0,2.4401957988739014,4.095541000366211,-23.652225494384766,-15.0,-13.166001319885254,-0.48147064447402954,-15.730368614196777,-30.0,-15.0
55,1.1,0.19250213564700566,0.04841660522265703,0.7142004942352156,0.7092429119346355,0.007371543022919339,-0.003992432877698187,-0.704914330045614,0.01608594918342068,0.0047294208138476046,-1.5646365234002029,0.4267681891646215,0.037709780929297464,-0.0030985232498301485,0.16670206709601923,-0.03259327165713696,-1.980846457941739,-0.016847624040503918,-0.03587236525038923,0.29741488943914535,0.5634304552070044,-0.8990797112989923,0.03328240520503985,0.033336621571387774,0.37762703848836504,0.5935262920622743,2.6578731763551793,-4.505954470106733,-0.4151720590153278,2.4821487325687106,8.857694261372398,22.319926650487613,3.6133910635127235,0.47663814733518983,5.757617320130614,11.332198328848364,19.344070069085095,-14.904010772705078,2.0600643157958984,-6.198523044586182,30.0,15.0,11.867252349853516,3.269416570663452,24.212003707885742,24.15266990661621,15.0,-14.904010772705078,2.0600643157958984,-6.198523044586182,30.0,15.0,11.867252349853516,3.269416570663452,24.212003707885742,24.15266990661621,15.0
56,1.12,0.2007953542894472,0.04835102144737657,0.715333001981205,0.703985716341831,0.008255227924407974,-0.00407193128709356,-0.7101544774020565,0.017407717188918342,0.005991847070289293,-1.5794685159660913,0.40410823493122827,-0.030086424549055198,0.055827607690643134,0.1721509151954773,0.08236360368007792,0.18266655813417182,0.008953368925922441,-0.030614292862725913,0.28303675941396617,0.514930092066324,-0.8561297807858644,0.013083209261095095,0.03680481976658536,0.35815408290862344,0.5324576193326497,2.6427357147168986,4.722618903005235,0.7283801769101754,-2.132523569519618,-8.826164477656004,-14.130918990027606,-3.757487519888478,0.012506328858306034,-4.692180097837287,-11.0642719652316,-16.9861736500177,15.0,3.3274500370025635,3.572633743286133,-30.0,-15.0,-12.25229549407959,-1.1757235527038574,-19.101444244384766,-30.0,-15.0,15.0,3.3274500370025635,3.572633743286133,-30.0,-15.0,-12.25229549407959,-1.1757235527038574,-19.101444244384766,-30.0,-15.0
57,1.14,0.20926606110780488,0.04845696739817106,0.7112635525032651,0.6969123085168265,0.009386202719085978,-0.0019464802667837928,-0.7170922846125419,0.015875916333080116,0.01074870196420861,-1.5992520773306582,0.43811907679011675,0.02866364423338818,-0.37600060044985933,-0.3627267657554028,0.34509537904620174,-1.8575570783312036,-0.013072504454767295,-0.03198751156566291,0.2977589149646657,0.5653155561329223,-0.7396532540453543,0.03690048105993706,0.033734586889936496,0.3814420957612687,0.584282255301908,2.703882600087067,-4.520863181648598,-0.5831723144343939,1.9402488260659674,8.901063849134957,21.928568172548786,4.112318379086962,-0.3588358289351955,4.346789095382133,10.105759000995283,19.23993922351783,-14.781993865966797,-1.1400866508483887,-3.836050033569336,29.882572174072266,15.0,13.542278289794922,-3.7311837673187256,16.74555778503418,28.034208297729492,15.0,-14.781993865966797,-1.1400866508483887,-3.836050033569336,29.882572174072266,15.0,13.542278289794922,-3.7311837673187256,16.74555778503418,28.034208297729492,15.0
