step,time_s,torso_x,torso_y,torso_z,quat_w,quat_x,quat_y,quat_z,roll_rad,pitch_rad,yaw_rad,body_vx,body_vy,body_vz,body_wx,body_wy,body_wz,l_hip_roll_pos,l_hip_yaw_pos,l_hip_pitch_pos,l_knee_pos,l_wheel_pos,r_hip_roll_pos,r_hip_yaw_pos,r_hip_pitch_pos,r_knee_pos,r_wheel_pos,l_hip_roll_vel,l_hip_yaw_vel,l_hip_pitch_vel,l_knee_vel,l_wheel_vel,r_hip_roll_vel,r_hip_yaw_vel,r_hip_pitch_vel,r_knee_vel,r_wheel_vel,l_hip_roll_torque,l_hip_yaw_torque,l_hip_pitch_torque,l_knee_torque,l_wheel_torque,r_hip_roll_torque,r_hip_yaw_torque,r_hip_pitch_torque,r_knee_torque,r_wheel_torque,l_hip_roll_ctrl,l_hip_yaw_ctrl,l_hip_pitch_ctrl,l_knee_ctrl,l_wheel_ctrl,r_hip_roll_ctrl,r_hip_yaw_ctrl,r_hip_pitch_ctrl,r_knee_ctrl,r_wheel_ctrl
0,0.0,-0.00036500012521732645,-0.0003519088261411032,0.7079073498617233,0.9996719172938189,0.024730023330775907,-0.0032139740256104843,0.0058441501625387735,0.04942749107949892,-0.0067149415555299696,0.011526017342231168,-0.038285170925273254,-0.29419791193755407,0.2709460876328677,7.306804516676969,-0.6967806297860742,1.1379220784551436,-0.012025360787916058,0.005136823056212736,0.39112540690033937,0.5515928866394899,-0.021167299341248582,-0.013847253641543815,0.00788511116802915,0.3827959312402028,0.5618062201250087,-0.11726278394179497,-0.3298805265299407,0.7413380439715087,6.178380708273612,-4.632186898000428,0.5798583341500557,-1.6343706024617015,0.6267184515211464,5.2020873875760385,-3.9736546657669902,-7.9627874743345695,-3.2730283737182617,11.982156753540039,27.795303344726562,-30.0,-2.6028995513916016,-1.5661897659301758,-10.477571487426758,18.86266326904297,-22.376657485961914,-5.794426918029785,-3.2730283737182617,11.982156753540039,27.795303344726562,-30.0,-2.6028995513916016,-1.5661897659301758,-10.477571487426758,18.86266326904297,-22.376657485961914,-5.794426918029785
1,0.02,-0.00020366086206053194,-0.001388117592907598,0.7141790590532449,0.9992855506163764,0.036911720416141984,-0.003756649592434797,0.007197277894199711,0.07378593938064217,-0.008039345729993284,0.014107866674989903,0.03341744397540711,0.10377811959541539,0.32457259233460845,-2.784798785560994,0.3199499529291127,-0.6239686771529737,0.04937019853690508,0.01974784615002176,0.3920477662682182,0.5951394750816001,0.016453406982784323,-0.042005483024428164,0.006720703552091842,0.35053024727154963,0.46835904370546755,-0.14227556208032832,5.260354037202805,0.5203513480164838,-4.353365013719987,6.585884656804776,3.517496753518645,-1.4220539085849817,-0.41859235455160804,-5.778494518132233,-4.807785103646459,4.275511406995058,14.372989654541016,3.1929149627685547,-30.0,27.50558853149414,1.6396732330322266,-4.455726623535156,-2.851595878601074,-21.836355209350586,-2.753721237182617,6.735036849975586,14.372989654541016,3.1929149627685547,-30.0,27.50558853149414,1.6396732330322266,-4.455726623535156,-2.851595878601074,-21.836355209350586,-2.753721237182617,6.735036849975586
2,0.04,-0.00033259816555607577,-0.0013467166544033605,0.7181986676717826,0.9996097177425376,0.026609031770823563,0.0023767217576000097,0.008168403552193962,0.05326179634138774,0.0043168951192237735,0.016457811960514147,-0.026887015715666224,-0.06750875717813305,0.09379199880879747,0.20608069671450185,0.9393309367467904,0.7891371753561579,0.032296625418299044,-0.006946753754943745,0.2967378024585323,0.5412134896439948,0.06067746119766972,-0.01438559109118404,-0.005235798831302717,0.32397058699080095,0.5080673119669687,-0.1271286423732694,-4.4405987463206085,-2.3916667686269752,-4.506532619826072,-8.101847043650205,1.1299722562467136,3.017376281788492,-0.9058835577860407,1.069459825530922,5.802595852736222,-1.5114481404680307,-15.0,-12.381133079528809,8.287208557128906,-30.0,-1.0409955978393555,9.095144271850586,-0.9305496215820312,-0.21640968322753906,18.667396545410156,-2.011932373046875,-15.0,-12.381133079528809,8.287208557128906,-30.0,-1.0409955978393555,9.095144271850586,-0.9305496215820312,-0.21640968322753906,18.667396545410156,-2.011932373046875
3,0.06,0.0005692914977437025,-0.0008533698397042843,0.718894086900184,0.9998042123123526,0.008600923110482182,-0.0014012624441601055,0.017765067624041092,0.017149614701115385,-0.003107573151468753,0.035506706227590584,0.0847740848399744,0.0858358402011447,-0.029169359747196984,-3.09836545791974,-1.3767466945214577,1.0249005981692445,0.0586919568522835,0.0010867667508635951,0.18103664958482077,0.454663880417917,0.26209566196865425,0.022770060340315278,0.016011406383281246,0.23870691221700857,0.49181251803228093,-0.03966947401873787,4.7105660564958844,2.1947812558820234,-6.7517445046854405,-2.0120940997836083,17.28028059256061,1.090168252417449,2.534892326478169,-7.403436094479996,-4.374517262597987,9.088487178773024,15.0,15.0,-18.919836044311523,5.873378753662109,6.860269546508789,-1.7267818450927734,10.755496978759766,-17.420745849609375,-13.131616592407227,4.379663467407227,15.0,15.0,-18.919836044311523,5.873378753662109,6.860269546508789,-1.7267818450927734,10.755496978759766,-17.420745849609375,-13.131616592407227,4.379663467407227
4,0.08,0.0002995019686745618,-0.0019621386797516,0.7175924442552353,0.999083659640872,0.013382512114854776,-0.003390956179975171,0.04051235397114636,0.026469655539053945,-0.007860092889478514,0.08095058309461495,-0.17547161030544278,-0.12625437137617537,0.22044072709614512,2.013208673448578,-0.7774190554599902,3.0533530483220686,0.041277721344436955,0.0035004953370845237,0.1530029271595452,0.37314562654640504,0.49786224786473293,0.03339659291642151,0.018476281335373577,0.18516977604171242,0.43933518263152876,0.11958715710153843,-4.030227731869311,0.7154019395161949,2.260336443962076,-2.084138505326658,6.6177111811578495,0.46232422907384346,-0.2491233278696617,-0.6178774340370736,-1.7225194643593869,7.059718695304314,-15.0,-15.0,27.219738006591797,-26.647811889648438,-3.4213409423828125,1.9191246032714844,-15.0,3.6713485717773438,-0.06192779541015625,-0.6625461578369141,-15.0,-15.0,27.219738006591797,-26.647811889648438,-3.4213409423828125,1.9191246032714844,-15.0,3.6713485717773438,-0.06192779541015625,-0.6625461578369141
5,0.1,-0.002328532591975211,-0.0014904133353625772,0.7235618802998014,0.9985049784591937,-0.0002763995648992298,-0.001477761644357094,0.05464016669088472,-0.0007134660724049407,-0.0029209038345017566,0.10933594917559707,-0.04909092240844181,0.12212610840179372,0.4230504361749089,-3.6384253818127874,1.5804124575176213,0.19026885376015112,0.05445596947258586,-0.010543708606723103,0.14188425690297615,0.45539531538822203,0.6727106584964251,0.00605609153793391,-0.001730916835330287,0.0689403359429134,0.27656828305558045,0.3576929316025528,3.5102491025650506,-2.305773969519433,-3.095006954949431,8.10614669198736,11.569406558102262,-2.3571593527064905,-1.7487353705564255,-8.533477528373785,-10.82613741495002,15.2153220495515,13.446563720703125,-5.463293075561523,-29.107202529907227,30.0,2.924051284790039,-7.464204788208008,0.4483613967895508,-8.813722610473633,-30.0,4.397802352905273,13.446563720703125,-5.463293075561523,-29.107202529907227,30.0,2.924051284790039,-7.464204788208008,0.4483613967895508,-8.813722610473633,-30.0,4.397802352905273
6,0.12,-0.003768083632558192,-0.0016061100436353894,0.7288598290807502,0.9982771981297999,-0.00414022022125535,0.0051674434559882,0.058299157787781046,-0.007664181682360433,0.010800034606180177,0.11662563888186345,-0.08094341760684795,-0.09128198397451713,0.14457261894595308,1.8080176745511571,0.13445853632327964,0.8124800852474926,0.034263079421672754,-0.034200410805946754,0.09850370495066721,0.4170259763977483,0.8965475440686637,0.017110675936887615,-0.01710306664344285,0.09077774356496499,0.34016115781062684,0.5379685945537868,-3.7489603485744674,-0.4194960067264656,-1.0942049980491184,-7.726256946149381,10.853534282534547,2.2404494501839523,-0.17778106818989087,6.488990003054147,10.602563311766124,4.169157896435477,-14.172748565673828,-0.30321693420410156,15.192832946777344,-30.0,-0.1877298355102539,8.143566131591797,2.9131698608398438,15.557933807373047,30.0,-4.179041862487793,-14.172748565673828,-0.30321693420410156,15.192832946777344,-30.0,-0.1877298355102539,8.143566131591797,2.9131698608398438,15.557933807373047,30.0,-4.179041862487793
7,0.14,-0.004945418796246999,-0.0011813054775771622,0.7298318242069564,0.99759459670661,-0.002767871209152822,-0.0033656211848645478,0.06918115426028189,-0.005988257681858691,-0.00633212428215613,0.1384931907794808,-0.047313925152641996,0.09515902814523655,-0.02847499479260437,-1.1219199430058333,-1.6317742238416248,1.1441373281683103,0.061571260423121776,-0.00883250046133607,0.1008343221405232,0.4362689292868818,1.0687230922109128,-0.03229727804179543,0.016700468163154097,0.11674249486078497,0.3995197673450478,0.6348337090034583,4.4294876764655795,2.5542351025306296,0.297093876092112,5.939104517835753,6.8297831742501,-5.207445565170432,3.0643719234717692,-1.609324099308779,-1.0873787272213815,5.359181747041081,15.0,14.732622146606445,-8.408693313598633,23.01595687866211,-1.386397361755371,-14.93472957611084,8.794778823852539,-7.035940170288086,-9.30976676940918,0.522923469543457,15.0,14.732622146606445,-8.408693313598633,23.01595687866211,-1.386397361755371,-14.93472957611084,8.794778823852539,-7.035940170288086,-9.30976676940918,0.522923469543457
8,0.16,-0.005634887874324285,-0.002418049536952812,0.7268320282372704,0.9962651532718939,0.010799397361268868,-0.004131341339292495,0.0855689745848405,0.0208136573459381,-0.010080180248935623,0.1712540630960933,-0.0220282996656767,-0.16100771532616057,-0.25189448882824156,3.085663020613323,0.9008681095848059,2.081336094526838,0.04085600958808308,0.00394060846787668,0.12413423093054589,0.40393791670292084,1.246260683655676,-0.018182846025379895,0.019062516470448185,0.14646503669159142,0.41442804491990476,0.8444550042424283,-4.320228837513462,-0.8496814878472423,2.2718686824142926,-6.102635277705213,10.5007079602032,4.163304998934263,-1.9278398976347901,3.4149675818749494,1.6386649610449695,14.611054837410299,-15.0,-8.684839248657227,19.194324493408203,-24.872671127319336,1.5886764526367188,15.0,-15.0,6.644763946533203,4.963371276855469,4.013130187988281,-15.0,-8.684839248657227,19.194324493408203,-24.872671127319336,1.5886764526367188,15.0,-15.0,6.644763946533203,4.963371276855469,4.013130187988281
9,0.18,-0.006257955998993556,-0.0023921478617439785,0.720365744936834,0.995513555740072,0.008456567606312585,-0.0013565121741402981,0.09423060371662371,0.016582518331507236,-0.004294600658893002,0.18871256665449113,-0.04612308391757666,0.10344554857703073,-0.3908070892438229,-2.3862096019851182,-0.1865086638782548,-0.19754965067078228,0.06132712911720111,0.006750039735994154,0.12111059053474463,0.4479979165518827,1.4440118942567488,-0.010244845018177698,0.00690245388892689,0.11567977715991695,0.3482245023433847,1.1191514734779906,4.215715287026998,0.9057194600826057,-2.235386682510109,7.1260590481587025,9.42248758994897,-1.8566212052625832,0.31912884272694064,-4.441245708178181,-5.90901698452571,13.01279581600309,15.0,9.300642013549805,-26.756271362304688,30.0,-0.12896251678466797,-9.196344375610352,4.307699203491211,-5.416160583496094,-16.080734252929688,-0.42655277252197266,15.0,9.300642013549805,-26.756271362304688,30.0,-0.12896251678466797,-9.196344375610352,4.307699203491211,-5.416160583496094,-16.080734252929688,-0.42655277252197266
10,0.2,-0.0048836982026138585,-0.0022608112259182127,0.7161453397595346,0.9945545456282423,0.005283254828648292,0.012795340152310342,0.10329386360768003,0.013156614065547658,0.024362281663833762,0.20713704789112786,-0.039675397924125014,-0.09190921065898201,-0.014186702382230798,0.8137659781794444,0.46099318413553747,1.4134733167505065,0.03772711080891619,-0.00518055780330846,0.09715710811388575,0.42092024502485614,1.6602798035043809,0.041192003899402696,-0.031912217744998576,0.16145062120994907,0.43538269401556845,1.2800410996252287,-4.53279815295104,-0.19959127224459983,0.25753062086025147,-2.7720565038162754,10.55789753281583,5.304958211028235,-1.566984774148264,4.923043831638758,8.645118365198405,6.074201439170433,-15.0,-0.021963119506835938,22.727249145507812,-30.0,1.2400894165039062,14.487520217895508,-11.882704734802246,5.4755706787109375,23.48834991455078,-1.0914573669433594,-15.0,-0.021963119506835938,22.727249145507812,-30.0,1.2400894165039062,14.487520217895508,-11.882704734802246,5.4755706787109375,23.48834991455078,-1.0914573669433594
11,0.22,-0.007162299022887423,-0.0023761003987593106,0.7179451378665803,0.9931150256767175,-0.001275340926740669,-0.00030691206125075637,0.11713592568311107,-0.002605024403392305,-0.00031082148415317206,0.23481152810639486,-0.11385970983164746,0.046611165834607796,0.03244943382866868,-1.5441187121790825,-1.9555631149982675,1.477727951998416,0.0518763251749931,0.022485747587532506,0.11745534956347599,0.47209073222311404,1.851752078463268,0.0266866288312898,-0.00792777273984057,0.1361255075261086,0.39573284038722584,1.4429343666989765,4.166095177121341,2.2855565153195663,0.878742816902665,4.939608170871249,10.882368839404936,-4.28063527464107,2.760241974722786,-4.4489799725775505,-7.822382780472367,9.773229209533334,15.0,7.169162750244141,-5.664745330810547,15.630756378173828,1.6136436462402344,-15.0,15.0,-10.822641372680664,-23.310089111328125,1.5853824615478516,15.0,7.169162750244141,-5.664745330810547,15.630756378173828,1.6136436462402344,-15.0,15.0,-10.822641372680664,-23.310089111328125,1.5853824615478516
12,0.24,-0.007846079520461352,-0.0029082845308676408,0.7209296234046312,0.9903412654903176,-0.005823023964238789,0.006942323006298416,0.13835488574756977,-0.009613835737772952,0.01536242979287642,0.277537885976931,-0.032994648008911505,-0.09654171932728138,0.05529214398867581,0.787199562099671,1.9417356211581236,2.687451635903962,0.024000471449685437,-0.001523809130592138,0.12086151586364437,0.4045563430913048,2.013870442261489,0.007575016130893066,-0.03468031031857721,0.13730290096525463,0.40996271966015585,1.6526926212163358,-4.635040051556988,-3.011375498014892,0.4317688296342484,-8.220043305933418,5.843701277628888,0.9213364639219574,-3.322383646892971,2.245628898054729,3.656103612685212,12.05183528911623,-15.0,-15.0,14.928211212158203,-28.541650772094727,-1.9961185455322266,6.477350234985352,-15.0,1.9765663146972656,13.367656707763672,1.776702880859375,-15.0,-15.0,14.928211212158203,-28.541650772094727,-1.9961185455322266,6.477350234985352,-15.0,1.9765663146972656,13.367656707763672,1.776702880859375
13,0.26,-0.009483133579980128,-0.0030269590564812624,0.7232932443352688,0.9885314191734177,-0.016192043078087196,0.0014091423284365943,0.15013815426414212,-0.031595735200430256,0.007648124415613445,0.30133530869296693,-0.10209943772651499,0.05086358162788796,0.09210315424217258,-2.2296035043985265,-1.7980022281846817,-0.004511790615888939,0.04413493455065788,0.004043323610212037,0.11037214038189465,0.38464315550654554,2.206476279645185,0.006791488851872022,-0.030229466295045988,0.11852069216741122,0.3859522812973907,1.8263104695922912,4.351690621626614,2.250241157926102,-1.5946087166610001,2.2947734332225016,12.673938728190436,-0.6845397255456003,2.4628437388494406,-2.533569443361667,-3.8754496485726,5.951045420625384,15.0,12.515165328979492,-20.101240158081055,16.62360382080078,3.476224899291992,-3.7020254135131836,15.0,2.6449546813964844,-15.126551628112793,-2.3798723220825195,15.0,12.515165328979492,-20.101240158081055,16.62360382080078,3.476224899291992,-3.7020254135131836,15.0,2.6449546813964844,-15.126551628112793,-2.3798723220825195
14,0.28,-0.011474503614812436,-0.004627752576440238,0.7219338501493974,0.9867257296487084,-0.00874984887887979,0.0024216111001343554,0.16214163682872898,-0.016483338551170238,0.0076164352359920215,0.3256720183019522,-0.09062807578795919,-0.16318039824457437,-0.19195396911346121,2.713574949646778,1.2493536990574023,2.170698101766842,0.02040073718272579,-0.005245836458313365,0.1589572023599253,0.3703057189232411,2.308431994890101,0.019094899730247333,-0.03816872893372448,0.15950003081884387,0.38344142067731124,1.9372007969021194,-4.495369577271276,-2.5131790867629804,5.2218953406420585,-2.7516244246965287,-1.0111949777398892,1.4219177796308444,-2.3683533193835045,4.744377367805987,1.8145246613003354,5.229481111107833,-15.0,-15.0,29.424362182617188,-16.77726173400879,-5.565215110778809,5.557750701904297,-13.647786140441895,6.436588287353516,8.611763000488281,-0.15128040313720703,-15.0,-15.0,29.424362182617188,-16.77726173400879,-5.565215110778809,5.557750701904297,-13.647786140441895,6.436588287353516,8.611763000488281,-0.15128040313720703
15,0.3,-0.013118678650909724,-0.004604141234366762,0.7224497853709733,0.9852222700834096,-0.01898184643461832,-0.00026684831612950656,0.17022542944460778,-0.03750297565291849,0.005936610985347244,0.34206780385320107,-0.04913274041659864,0.11707554203143863,0.1940830091431905,-3.4659872383090957,-0.6522531074138093,-0.21637102178211268,0.04155897469195741,-0.0035340055097936645,0.16660597982187625,0.4116831715457407,2.353689020268831,-0.004489559852465595,-0.03940632831692736,0.14166364765753847,0.36487252427142003,2.0642676798950164,4.359610983120881,1.4179197517835995,-2.9890474343649975,4.287643797419314,4.326104622152947,-2.824734106207622,0.9443021082024512,-4.078024127863896,-1.9503595765822723,7.072748077050841,15.0,15.0,-27.392723083496094,19.383182525634766,1.9713172912597656,-8.976755142211914,15.0,-6.0182952880859375,-15.27824878692627,0.28635120391845703,15.0,15.0,-27.392723083496094,19.383182525634766,1.9713172912597656,-8.976755142211914,15.0,-6.0182952880859375,-15.27824878692627,0.28635120391845703
16,0.32,-0.013389196095983208,-0.005988913592416787,0.7229364057544384,0.9843766010279346,-0.009899855742526163,0.003144406363885303,0.1757692035414222,-0.018386888875935106,0.009670890361646072,0.35330451821558756,0.01559504168887205,-0.18999997239067057,-0.1106265375153953,3.8825391385391974,0.8250829696268638,1.2844839899432647,0.02305114302073795,-0.009787845367487205,0.1863077846276451,0.34822161902137344,2.4071851372986934,0.0029783041497331367,-0.04660304902104274,0.20837233775478914,0.43255693968755515,2.106913991434353,-4.140790083107883,-1.6776124953798377,3.932736591298293,-7.753158187811357,1.3194173958761661,2.296375086727448,-1.2792089320328932,7.746650330856422,6.0305345702265125,-1.8272714699488524,-15.0,-13.430896759033203,30.0,-30.0,-1.286860466003418,9.758502960205078,-4.37739372253418,16.862701416015625,14.401504516601562,-3.5655651092529297,-15.0,-13.430896759033203,30.0,-30.0,-1.286860466003418,9.758502960205078,-4.37739372253418,16.862701416015625,14.401504516601562,-3.5655651092529297
17,0.34,-0.014132620788427423,-0.006284872662938178,0.7219655627175331,0.9832208299807895,-0.012940109492105879,-0.00682028225622226,0.18183189161465835,-0.027930949910137275,-0.008705947963369223,0.3658593209795349,-0.0658608589977767,0.09843452072597353,-0.07359316122718249,-3.2265594218325044,-2.010294801638849,0.024038009292600332,0.046373864297292,0.015661599452856296,0.19744952225363172,0.3930656189069803,2.4477269921444487,-0.007621956359524063,-0.018463994737943724,0.19955820260867435,0.40238438434447005,2.1324666013238573,4.408326849211939,3.068726267150178,-2.006033406961106,7.161485312035827,1.5946516474762291,-2.2826521194319107,3.101585263269359,-5.084394286414384,-5.4643062061112015,3.7533587392617758,15.0,15.0,-25.79261589050293,29.252063751220703,-0.13915157318115234,-9.57856559753418,13.032215118408203,-12.451969146728516,-16.557415008544922,2.254100799560547,15.0,15.0,-25.79261589050293,29.252063751220703,-0.13915157318115234,-9.57856559753418,13.032215118408203,-12.451969146728516,-16.557415008544922,2.254100799560547
18,0.36,-0.013513708977035693,-0.006884687658384082,0.7217440087284285,0.9817219292163075,-0.012190037551741648,0.0011229164886258328,0.18992681679757017,-0.023510625476920802,0.006835266765628044,0.38212385036168933,0.0683030867750571,-0.13759786796293516,-0.09778876359014162,2.7423251439024687,2.124718275075915,1.625717175876649,0.021615419069717215,-0.0026542199667864428,0.207019965370258,0.3619853894695131,2.4475492744981,-0.006765209047848039,-0.038182204941701194,0.21407432603637275,0.4117524393435647,2.1892812884646844,-4.5617956920549565,-3.1212592127727734,2.7673557522857055,-6.749964662837494,-1.3291763462401387,1.5865372755851352,-3.097734163803307,3.854335142625723,1.8715464539760478,1.7233870682774999,-15.0,-15.0,27.796627044677734,-30.0,-1.3151845932006836,8.017988204956055,-15.0,7.032135009765625,6.030872344970703,-1.0458984375,-15.0,-15.0,27.796627044677734,-30.0,-1.3151845932006836,8.017988204956055,-15.0,7.032135009765625,6.030872344970703,-1.0458984375
19,0.38,-0.01381814034105084,-0.00673234043035539,0.7218531336465785,0.9806051850674766,-0.018384650386064797,-0.004851421469669099,0.19506906304866897,-0.03795811001891346,-0.0023421071868940375,0.3927721119531199,-0.04457985129398094,0.09874433959383928,-0.025568153761631324,-2.8004404391954725,-1.8935259288068278,-0.38103329146037246,0.04336860643312575,0.01269840709747861,0.20544112829048236,0.39333911120215626,2.4726928075314807,0.006282690531708102,-0.026462489706583707,0.19493483155067176,0.38611568198491864,2.195894197106505,4.463719752819136,2.959793996366603,-2.3310311086941216,5.1251662346972475,2.3947425419964783,-0.014861300224329244,2.7299608183552486,-3.603743303350049,-2.9024446480355053,-0.7995040506134403,15.0,15.0,-24.642650604248047,22.89208221435547,1.3279304504394531,-3.705984115600586,15.0,-4.601972579956055,-9.693099975585938,-1.0541887283325195,15.0,15.0,-24.642650604248047,22.89208221435547,1.3279304504394531,-3.705984115600586,15.0,-4.601972579956055,-9.693099975585938,-1.0541887283325195
20,0.4,-0.013547021117805095,-0.007744732104048826,0.7208672337865205,0.9794765879820232,-0.009892155173601314,0.0023880888800980197,0.20130090882213056,-0.018418551996623855,0.008660862225041411,0.4053131918828099,0.036661502879310054,-0.16132579138693634,-0.1657696033100489,3.6189371131778008,1.8568462140023327,1.539584291770457,0.018718201021446335,-0.002698528169598852,0.2259103441982376,0.34125346270452406,2.4378414513098536,0.003765285868958841,-0.043470532548967655,0.22678439082435908,0.40947639879529896,2.193364121328038,-4.596276330842812,-3.0257503582802125,3.728436202801654,-7.301793445337587,-5.099506992069946,0.10866299543283076,-2.8547353620621374,4.623316424400602,1.871482004689542,-0.5707692106095918,-15.0,-15.0,30.0,-30.0,-3.215311050415039,2.947734832763672,-15.0,8.07358169555664,5.4402618408203125,-0.4605417251586914,-15.0,-15.0,30.0,-30.0,-3.215311050415039,2.947734832763672,-15.0,8.07358169555664,5.4402618408203125,-0.4605417251586914
21,0.42,-0.01520209939035036,-0.0076522788292092015,0.7230296432538746,0.9783924461142577,-0.01454942145218056,-0.008742692537246332,0.2060584893887282,-0.032080582680371665,-0.011111733723158806,0.4153295123304979,-0.05120982919537401,0.14766212532207812,0.2520516886726607,-3.3037486721091733,-1.3363086722912891,-0.5046362628335871,0.04373181392992752,0.026753801187988823,0.22355075620132597,0.39954654671767664,2.452061011027265,0.0017466437328525091,-0.02495517663323739,0.1997830547866932,0.38247971794650093,2.1847153261460788,4.66344080760866,2.602304615680929,-3.247262347515426,6.232765074960402,3.067734719336978,-0.4838082033818765,1.6507583886297614,-4.0352613954898136,-0.9127737546325511,0.11485512946711521,15.0,15.0,-27.95442008972168,25.504196166992188,2.489725112915039,-3.3842639923095703,15.0,-6.895301818847656,-11.296167373657227,-0.030382156372070312,15.0,15.0,-27.95442008972168,25.504196166992188,2.489725112915039,-3.3842639923095703,15.0,-6.895301818847656,-11.296167373657227,-0.030382156372070312
22,0.44,-0.01575064979373011,-0.008369362299564254,0.7250178624703237,0.9775000763465358,-0.006129204092938362,-0.004447714419224739,0.2107990783569707,-0.013858445514828552,-0.006111259260974254,0.4248393840684168,-0.006732318791244087,-0.1536487113961094,-0.025053044397460485,3.735334056215786,1.3719141945016016,1.2868753218670388,0.019961388647302652,0.019661077079723123,0.23429665588472942,0.3613801318681595,2.414036959997878,-0.007679321386763714,-0.03952018849037221,0.23072766127188482,0.40635292951492447,2.1505209856189493,-4.651303387346092,-2.4386277057625003,3.411577119894834,-6.854858818209246,-5.929860451081866,-0.36233608111876286,-2.4847826262587995,4.937279119284649,2.0810033467234126,-3.233802199420869,-15.0,-15.0,30.0,-30.0,-3.839055061340332,1.912832260131836,-11.788530349731445,9.675575256347656,5.988269805908203,-1.430771827697754,-15.0,-15.0,30.0,-30.0,-3.839055061340332,1.912832260131836,-11.788530349731445,9.675575256347656,5.988269805908203,-1.430771827697754
23,0.46,-0.016151235157870324,-0.007786167035060708,0.7236471769298859,0.9766720331389448,-0.011692080717987375,-0.006233416903245353,0.21432727182146802,-0.025514061709184247,-0.0071642056808441275,0.4321360164643899,-0.03821734557756786,0.1443971070103427,-0.11449482380981484,-3.4193225371084384,-1.1365469343496595,-0.40889945616900625,0.042092435493315726,0.022861699955219878,0.22321652900915906,0.3798997057529617,2.374420389301779,-0.006249532821880248,-0.03743232761419421,0.20424371269648486,0.38442804676983255,2.120424117524414,4.504190922258175,1.9375602472152087,-3.493670708951517,5.629083411069003,1.2264445929987686,0.19640295119089202,1.9824531867101214,-5.077181655267408,-2.6351942931021846,-0.12138286953174121,15.0,10.360086441040039,-28.927602767944336,27.076980590820312,3.0032958984375,-1.9343595504760742,15.0,-11.143404006958008,-7.702976226806641,1.2265243530273438,15.0,10.360086441040039,-28.927602767944336,27.076980590820312,3.0032958984375,-1.9343595504760742,15.0,-11.143404006958008,-7.702976226806641,1.2265243530273438
24,0.48,-0.015633617316223612,-0.007885544989540003,0.7216554932368595,0.9755842242003431,-0.006768349079168797,0.006034483804715127,0.2194383648028899,-0.010559138731016788,0.01474529963502938,0.44241817823369534,-0.04479580887383629,-0.11952383770347581,0.09044788827580363,3.0533425273912225,0.9643662552982015,1.6456216579985248,0.019722984728436928,-0.007286131902371419,0.23099533453968538,0.3444264918236461,2.3526647704060957,0.004523961763451407,-0.06450267654801813,0.2274226611783629,0.4036095010171037,2.0762051516071183,-3.8905584543838443,-1.5395335695342973,3.381793885158812,-1.6801149496585586,-0.018729565584408192,0.8884176105615861,-1.8881144382876527,4.004470860679116,1.7132756339178719,-3.9259398682633453,-15.0,-15.0,30.0,-30.0,-2.133294105529785,4.328514099121094,-15.0,10.752262115478516,3.922943115234375,-1.6812496185302734,-15.0,-15.0,30.0,-30.0,-2.133294105529785,4.328514099121094,-15.0,10.752262115478516,3.922943115234375,-1.6812496185302734
25,0.5,-0.01796497347576404,-0.007027419568115036,0.7245717111519316,0.973533439738194,-0.014869317998757781,-0.005980232178707478,0.2279819771755239,-0.03168400252032172,-0.004864058153342764,0.4601463662603581,-0.14176637952659843,0.143029891153958,0.10259215888719206,-3.5809473439950525,-2.1387092490717095,0.2739515351228552,0.04523454110157541,0.02344004906731058,0.21628190941971678,0.40150392131216106,2.3455313028454206,0.0010419693420275354,-0.04378111490179091,0.17743210119103114,0.3571814691769565,2.061983787985343,4.589414582541189,3.363774171177483,-3.870522849394648,5.482139310289537,0.0033777179248925954,-0.9041702821716319,2.8880467355071873,-6.225683858696117,-4.371208375025983,1.8649583316291194,15.0,13.579742431640625,-26.58219337463379,21.606101989746094,0.5062189102172852,-5.291962623596191,15.0,-14.087677001953125,-10.700017929077148,2.331502914428711,15.0,13.579742431640625,-26.58219337463379,21.606101989746094,0.5062189102172852,-5.291962623596191,15.0,-14.087677001953125,-10.700017929077148,2.331502914428711
26,0.52,-0.01924388149133901,-0.007154452664324699,0.72634014801434,0.9712049838509514,-0.008166615208979235,-0.001722469581749004,0.23809917857405985,-0.01668392842468715,0.0005431866880355335,0.48082909465004364,-0.030430110522246697,-0.12684254921902446,-0.034980216791133195,3.7839284138354694,1.44352492073152,1.6993541832982175,0.022492751953193436,0.01620007549058788,0.21830232471149497,0.35342278088114376,2.288132131662766,-0.005221410126584348,-0.0557026865364735,0.19306573154876966,0.3572921590930537,2.0557312393499205,-4.544310905574578,-2.4721267526905075,3.2063052535813004,-7.214236211105468,-5.210807442260537,0.12442176988120161,-2.4316710961626513,4.720131674618118,1.1700652234937503,-1.9484899123770603,-15.0,-15.0,29.333633422851562,-30.0,-2.3065710067749023,3.4144420623779297,-12.613327026367188,12.02987289428711,4.015106201171875,-1.5299558639526367,-15.0,-15.0,29.333633422851562,-30.0,-2.3065710067749023,3.4144420623779297,-12.613327026367188,12.02987289428711,4.015106201171875,-1.5299558639526367
27,0.54,-0.02056638122054645,-0.006033567832317292,0.7245154405444078,0.9694404197546048,-0.012388517957276062,-0.0034511931017417044,0.2449895639308191,-0.02571371118193922,-0.0006213369941878375,0.4950676424542833,-0.09822447326491138,0.17078089730260862,-0.1429013065246819,-3.2568128706045343,-1.1963732363772963,-0.08662048716360982,0.045749831253224474,0.01947471739972854,0.20597492678433377,0.36546026459691777,2.243752391844971,-0.005631303776938038,-0.05175984110554393,0.18009337331531716,0.3555154041553954,2.0356019183742022,4.529279798971169,1.960653760932704,-3.4879659186305942,5.325394389152905,0.21775434326785514,-0.21776189275313762,2.0978109417181923,-3.937884145245825,-0.5631599880120292,-0.2503986666178051,15.0,10.850528717041016,-28.785263061523438,26.568248748779297,2.2909603118896484,-3.2116880416870117,15.0,-8.962837219238281,-2.463968276977539,0.6731986999511719,15.0,10.850528717041016,-28.785263061523438,26.568248748779297,2.2909603118896484,-3.2116880416870117,15.0,-8.962837219238281,-2.463968276977539,0.6731986999511719
28,0.56,-0.02127146315386144,-0.005795475846601395,0.7229584891521266,0.9675332474593238,-0.004879553986773885,0.005680393780566337,0.25263281287315625,-0.006572796233373269,0.013457816808084968,0.5107711561768558,-0.1297187441876467,-0.12534192472180902,0.17850424588428554,3.2115884534509016,0.073232948153658,1.7840742231074829,0.025468182701160493,-0.0005736942513180945,0.21580760598432852,0.33666586057467573,2.210664598670195,0.008477712089401275,-0.07188463737394907,0.21872624412879216,0.39043490110109774,1.9859352770487682,-3.830609549893333,-0.4310120345040282,3.497957732550181,-0.9125542731646171,-0.4954833091619011,1.4375361341219228,-0.9560981920547384,4.545178191691875,1.7469327640743628,-4.313301738432209,-15.0,-15.0,30.0,-30.0,-2.040297508239746,5.921623229980469,-12.333759307861328,13.049114227294922,2.2058982849121094,-1.8295955657958984,-15.0,-15.0,30.0,-30.0,-2.040297508239746,5.921623229980469,-12.333759307861328,13.049114227294922,2.2058982849121094,-1.8295955657958984
29,0.58,-0.025227061313088016,-0.004908444171580032,0.7263708320458226,0.9643405761639767,-0.012340068919623037,-0.007156252489257897,0.26427970772100223,-0.027586792789659666,-0.007279733980167613,0.5350701888686876,-0.2403443431591877,0.1486879560288439,0.12568604698544208,-3.7847214002448926,-1.839968464950757,0.7479970005456569,0.048878727184847315,0.027104965933710385,0.20554501205667475,0.4187068264420208,2.195180768986873,-0.011458030668440679,-0.05068309575735046,0.16479209973803177,0.33186540185875785,2.000707970736829,4.381435626086529,2.501695273468718,-3.5605869642079297,7.43444627809254,-0.2008636514099343,-2.5057169112870628,2.5509079288221095,-6.959346345009605,-5.286157810410222,4.790883834295768,15.0,7.249507904052734,-25.222339630126953,25.46984100341797,0.6268091201782227,-9.260830879211426,15.0,-18.00215721130371,-11.512516021728516,3.7155933380126953,15.0,7.249507904052734,-25.222339630126953,25.46984100341797,0.6268091201782227,-9.260830879211426,15.0,-18.00215721130371,-11.512516021728516,3.7155933380126953
30,0.6,-0.028000086947625544,-0.004874710142860605,0.7288836470948014,0.9609926731695755,-0.006990583710628757,-0.002879723413023406,0.2764704704789351,-0.015028703097876274,-0.001669407041958097,0.5602679435046096,-0.08704410725686808,-0.11934682807056268,0.005919941230594694,3.7413193879263646,1.2177719307310964,1.7940579779500267,0.02583424710514861,0.011489438629981936,0.20578526166935224,0.3906218379670112,2.150510582948026,-0.01819932644841566,-0.06326675753878036,0.17853693364104029,0.3238351224581793,2.0095002911387043,-4.437994024993928,-2.54633423876627,2.906325309127779,-6.714579384541166,-3.900915756768691,0.9690944254734403,-2.118185231983505,4.978386349827449,1.1205516148151475,-2.6753459011550356,-15.0,-15.0,27.970718383789062,-30.0,-1.6802749633789062,6.513385772705078,-9.449649810791016,14.214191436767578,3.9217567443847656,-2.866945266723633,-15.0,-15.0,27.970718383789062,-30.0,-1.6802749633789062,6.513385772705078,-9.449649810791016,14.214191436767578,3.9217567443847656,-2.866945266723633
31,0.62,-0.030899568719176235,-0.0035687899591396407,0.7277709897023771,0.9578198263550782,-0.01157415902937588,-0.00816193875645876,0.28702021155247537,-0.02686151660544621,-0.008991419530889782,0.5824102983297857,-0.19034780825731878,0.18125932349099294,-0.11135946213070956,-3.457386246325318,-1.5683539707939638,0.5607162190629115,0.04919198798363183,0.014506711683795347,0.18154966448135323,0.38726399553718155,2.1227493046178356,-0.014516204654687642,-0.05070797039523645,0.17636619170939064,0.3555676755274863,1.9953525387405775,4.4831488145553156,1.9931246913407337,-4.181923815950847,3.860146777619825,0.6586929191238898,-0.3782899531194691,2.587124026685583,-3.335568068357716,2.0930143357449826,0.880231133146944,15.0,12.153276443481445,-27.063922882080078,21.923274993896484,1.9356956481933594,-4.171335220336914,15.0,-11.446443557739258,4.8995361328125,1.460336685180664,15.0,12.153276443481445,-27.063922882080078,21.923274993896484,1.9356956481933594,-4.171335220336914,15.0,-11.446443557739258,4.8995361328125,1.460336685180664
32,0.64,-0.03253727711896889,-0.0037116637410376414,0.7238021895698243,0.9541707923152294,0.0008787555751150471,0.0012929561400901396,0.29925850889420946,0.0024508291322005737,0.0019414530226879436,0.6078340556571927,0.014638896880183647,-0.11641965349932953,-0.23581514083741253,4.787800686756287,2.2475670596484614,1.817007923258131,0.02820328964504836,-0.010243229105535975,0.19278389583243608,0.3184942801195727,2.0870359970708594,0.0036335755202523976,-0.061335662978839155,0.2132938963270998,0.3702945322743322,1.9712833668701641,-4.313117232466361,-3.7347305586885775,3.9559457140219254,-7.977965411670407,-3.779671211880365,1.6293773834605034,-2.7595351657987504,5.084613807358147,0.2837218489656725,-2.2089404849746646,-15.0,-15.0,30.0,-30.0,-1.9615602493286133,7.526411056518555,-13.386685371398926,15.522216796875,-7.0512237548828125,-2.1336135864257812,-15.0,-15.0,30.0,-30.0,-1.9615602493286133,7.526411056518555,-13.386685371398926,15.522216796875,-7.0512237548828125,-2.1336135864257812
33,0.66,-0.03515702392030264,-0.0018929707910256535,0.7248870716594726,0.951125181209041,-0.0026530599586726622,-0.0026035826270801163,0.30878321246536006,-0.006654755149341012,-0.003314231309465056,0.6278424382298714,-0.18386269397011878,0.24305942893878227,0.19158501139112052,-3.7605534303911696,-1.171903638374424,0.25182160030806044,0.05027676837615598,-0.001699261832952841,0.19290826357280055,0.34532567112604023,2.0756334526066755,0.017067485904699232,-0.05518303632327754,0.1935981337058012,0.3596168409900995,1.9758480532956384,4.398081576056438,2.1643226264909963,-3.268926890519168,5.7141137318802775,1.9887909693773178,0.009462260949967188,1.3264909767278616,-4.232448564778871,-0.3897678154199401,1.846569619801374,15.0,15.0,-29.30583381652832,26.46288299560547,2.860973358154297,-4.728812217712402,15.0,-11.656240463256836,-3.8297500610351562,2.4020862579345703,15.0,15.0,-29.30583381652832,26.46288299560547,2.860973358154297,-4.728812217712402,15.0,-11.656240463256836,-3.8297500610351562,2.4020862579345703
34,0.68,-0.037633756047050076,-0.0005621115135533743,0.7254861543360762,0.9473829122577448,0.0019983092709648254,0.00023970820954392577,0.32009618376679366,0.00393979901300638,-0.0008251115135675492,0.6516617654008033,-0.07718739105410423,-0.04440379275348578,-0.09883968305382675,3.401338028389924,1.0550826841974197,1.9528164822639238,0.02720747086326168,-0.009774930525454889,0.1980754146666183,0.2947741283285685,2.0163122072903517,0.004952102549300522,-0.06395373185296456,0.21996037424716292,0.37922572729463205,1.9169462780885365,-4.462231675707406,-2.218489587568912,2.9677584142674744,-7.505002836345285,-6.984206592980632,-0.8582972577572262,-1.7395954002865872,4.754567392888049,1.4390073586122376,-6.896273220489031,-15.0,-15.0,27.503063201904297,-30.0,-3.8483943939208984,0.23238849639892578,-6.753436088562012,11.361377716064453,3.2498855590820312,-3.6935348510742188,-15.0,-15.0,27.503063201904297,-30.0,-3.8483943939208984,0.23238849639892578,-6.753436088562012,11.361377716064453,3.2498855590820312,-3.6935348510742188
35,0.7,-0.03983732925635302,0.0027899440291146264,0.7248808826136458,0.9440039879091022,-0.010062094007685006,-0.005260445444278194,0.329738612827827,-0.02246847016474228,-0.003296047082678175,0.6721354417620807,-0.1121748330597498,0.3427749971729442,0.1538462181124504,-4.602208983957386,-0.3490366247974179,0.21306401855641938,0.05046635050910571,-0.003040846412096059,0.17828180409522537,0.31777416851603457,1.9690239705822874,0.008219439127941996,-0.058589298966114534,0.1842663661389463,0.362050301876359,1.8652670180160607,4.537152918317437,1.4194228829795716,-4.1631897126951225,6.328229969120403,1.3860916525859954,0.5915055575548235,0.6049804413750777,-5.3995147174284925,-0.5278911041974383,0.8249606563128322,15.0,14.973188400268555,-29.808393478393555,29.075130462646484,3.501636505126953,-0.4234285354614258,15.0,-13.912832260131836,-8.815027236938477,3.0485591888427734,15.0,14.973188400268555,-29.808393478393555,29.075130462646484,3.501636505126953,-0.4234285354614258,15.0,-13.912832260131836,-8.815027236938477,3.0485591888427734
36,0.72,-0.040493930459128344,0.0058537895926531495,0.7243749091977437,0.9403246212968609,-0.008899772793083684,0.003252873430956445,0.3401467616214922,-0.014526029143277363,0.012172272323949618,0.6940899909670575,0.027011877074734715,0.03427115829562351,-0.1622781607959239,3.6986496612290445,1.5632389169268222,1.8795719454411,0.03184556180935043,-0.02031937024956277,0.18311904016644873,0.27697849970828503,1.922099867180311,0.010941643203683295,-0.07707556318115293,0.21569400368198377,0.3970107820397533,1.7762917629363384,-4.193656698645709,-2.4754603706792055,3.48180554580136,-7.107261889826893,-5.381124723721871,-0.022068220307154558,-2.0026675787768617,5.85282620782357,2.669255580895052,-8.738884705293465,-15.0,-15.0,30.0,-30.0,-2.937802314758301,1.7415657043457031,-5.625537872314453,15.576423645019531,5.269077301025391,-4.030206680297852,-15.0,-15.0,30.0,-30.0,-2.937802314758301,1.7415657043457031,-5.625537872314453,15.576423645019531,5.269077301025391,-4.030206680297852
37,0.74,-0.0426636310604172,0.009516928477434128,0.7247609828523484,0.9365318884864033,-0.014075395005572857,-0.010411090412555387,0.35014499039676356,-0.03366281728094212,-0.009643927721203096,0.7157287170940623,-0.16329924276777244,0.2845480762853501,-0.014768966273446468,-3.7083772670538853,-2.3326512683216345,0.3645658256949372,0.05632880280667943,0.013334887491151862,0.17601651602696455,0.32982374080092086,1.8951245270949328,0.017468081212154107,-0.04364844400597642,0.1932350176519916,0.37691400509109313,1.67058274315504,4.510744495376314,3.568760387756049,-3.1947140864584043,6.765712320472051,0.4703912214740854,0.3828714948148413,3.5523675562905472,-5.004946399829865,-2.8212063387380875,-2.514705392574963,15.0,15.0,-27.432226181030273,27.159687042236328,1.9842052459716797,-1.72589111328125,15.0,-11.813688278198242,-8.248308181762695,2.4220619201660156,15.0,15.0,-27.432226181030273,27.159687042236328,1.9842052459716797,-1.72589111328125,15.0,-11.813688278198242,-8.248308181762695,2.4220619201660156
38,0.76,-0.04363700412803974,0.012659759502659572,0.724737799113074,0.9319542481308898,-0.012310560798538265,-0.004777665989632578,0.3623353465938773,-0.026411063768066838,1.5970397030296966e-05,0.7416121576494695,0.02100462570884916,0.055728145368801156,-0.0942081888854441,3.248466659819401,1.9356238180921537,2.148335433279042,0.03233091158837192,0.003541212319821899,0.18136297370790871,0.2959375572923153,1.81467960695212,0.011320467133678522,-0.05375087337762215,0.1971537789780086,0.3720718856029554,1.617619680054744,-4.562785156715203,-2.8197323441552276,3.1220781714863373,-6.789270200419922,-7.6681910272185485,-0.4250214886617384,-2.7003669541273516,3.183900345026089,-0.42746376453541557,-3.443314537131643,-15.0,-15.0,29.61617660522461,-30.0,-3.531895637512207,1.5775070190429688,-15.0,7.484127044677734,-1.2706756591796875,-1.0391263961791992,-15.0,-15.0,29.61617660522461,-30.0,-3.531895637512207,1.5775070190429688,-15.0,7.484127044677734,-1.2706756591796875,-1.0391263961791992
39,0.78,-0.045168925942465035,0.016939521136005,0.7239380002060452,0.9290501971639789,-0.0176290630005897,-0.0056551816254126926,0.3694901435871831,-0.03694415732572137,0.0025196374966315227,0.7570103348413895,-0.13217153826785788,0.3389517952312328,0.08590670246846413,-3.175005504488571,-0.7132362154579116,-0.43241414323684196,0.050309092548825124,0.004744586651443998,0.19366722815511997,0.3308751958095522,1.712288982550771,0.012984869731331445,-0.05385980977382733,0.17696979775354704,0.3578155867218512,1.5295973775157075,4.142699384155279,1.514529306197095,-1.5927076295600604,6.600286774588441,-3.2082274511212354,0.14006967100096718,1.0529415962181843,-3.4279191008509526,0.4695042602427575,-4.76259552602209,15.0,13.43852424621582,-26.185413360595703,29.684101104736328,2.6027374267578125,-1.2235994338989258,15.0,-4.197175979614258,-5.86198616027832,-1.0727243423461914,15.0,13.43852424621582,-26.185413360595703,29.684101104736328,2.6027374267578125,-1.2235994338989258,15.0,-4.197175979614258,-5.86198616027832,-1.0727243423461914
40,0.8,-0.04603066463994055,0.020223578707117034,0.7223384040988569,0.9282859960743506,-0.006695875769710759,0.004342283695091467,0.37178141334961595,-0.00920352718988181,0.01304093623836348,0.7618199942251572,0.019280578267393357,0.05402459049907984,-0.21656433530188252,4.430169552641248,1.421113389936965,0.8631845298078351,0.024171007271532517,-0.014714768927188118,0.2337600863846758,0.28869869235645845,1.5790137292111706,0.01563242793325847,-0.0677828379973751,0.23763846904156768,0.41334780843569435,1.3629612427742825,-4.546334854527189,-2.8436167675578545,4.7400619119944585,-7.336841586415229,-9.476651187325384,0.2248702129473746,-1.9582783092888896,7.019697302658828,3.7077576705443756,-11.286636208391746,-15.0,-15.0,29.817386627197266,-30.0,-2.818497657775879,2.620431900024414,-7.609925746917725,16.795440673828125,6.993797302246094,-2.8834753036499023,-15.0,-15.0,29.817386627197266,-30.0,-2.818497657775879,2.620431900024414,-7.609925746917725,16.795440673828125,6.993797302246094,-2.8834753036499023
41,0.82,-0.04899132292985988,0.024145126854140216,0.7228757667535034,0.9274825811558965,-0.007003374591255872,-0.010667150251323596,0.3736485331193548,-0.020966302380938197,-0.014554104619256863,0.7660968828399676,-0.21333685925966278,0.29439843200362875,0.0006134043551667967,-3.519102939215735,-2.55166436934905,-0.5908807031829477,0.0502454925128049,0.025135186877444638,0.2350379836737362,0.3556527669326733,1.5220622099144552,0.016573707483314725,-0.0320576882529292,0.2244390797042933,0.39950149017572345,1.210645525543644,4.601439469787296,3.9054556108442195,-3.2870218966878806,7.209871746843445,-0.42350276788932795,-0.19283428736076283,3.5848087596956613,-4.815242712891358,-2.896626689525972,-4.671084598081881,15.0,15.0,-30.0,28.251659393310547,2.492361068725586,-3.4763717651367188,15.0,-11.053314208984375,-9.47083854675293,2.529165267944336,15.0,15.0,-30.0,28.251659393310547,2.492361068725586,-3.4763717651367188,15.0,-11.053314208984375,-9.47083854675293,2.529165267944336
42,0.84,-0.05072636313799932,0.028180751750790423,0.7241372944549571,0.9260287158007212,-0.0072655643309078675,-0.0062846626948458864,0.3773307993024577,-0.018200385724165012,-0.006156552748409427,0.773918304728103,-0.021609130217738148,0.10305367950948024,-0.04521297405406555,2.8103201271329175,1.8050738475037684,1.2877683145425898,0.02426063375374706,0.014405528459259544,0.22899636264780385,0.3270930728928142,1.4153698019907182,0.006704544012262781,-0.043853361426155237,0.22322932175878868,0.3952036164561431,1.11321139314906,-4.7716444296904905,-2.8732327853569255,2.3193824619341163,-6.591580225962906,-9.317817069452925,-0.45922198232929,-2.6728357117733137,2.4719213283904247,-0.7408090459184253,-5.643368104540949,-15.0,-15.0,28.265727996826172,-30.0,-3.8684892654418945,1.7898521423339844,-15.0,4.175254821777344,-0.9112663269042969,-0.9028034210205078,-15.0,-15.0,28.265727996826172,-30.0,-3.8684892654418945,1.7898521423339844,-15.0,4.175254821777344,-0.9112663269042969,-0.9028034210205078
43,0.86,-0.052286552019708624,0.03352455766791574,0.7226235537495402,0.9254949386467516,-0.014891579479232602,-0.005239173409261464,0.3784308529465397,-0.03153475793054026,0.0015732099511123847,0.7762780707135278,-0.10278099305025516,0.4010351944697867,0.008870062872030071,-3.1253805455537087,-0.12252814196858829,-0.8746168185694614,0.04758939472920507,0.011273635294920018,0.2240128329050869,0.3658806909401667,1.3059641528305275,0.015926412250543424,-0.04946221130391327,0.19732391530561028,0.3795389974529311,0.9746505553505376,4.651357727460642,1.1352194232428043,-2.5390530524921697,6.959392273033674,-2.342994615795097,0.7560057602267838,0.4902213243413442,-3.3583866962315807,0.7694364408326404,-7.595080613338291,15.0,11.367767333984375,-25.462446212768555,29.345863342285156,2.862092971801758,0.12291336059570312,15.0,-5.058427810668945,-4.550849914550781,-1.2293281555175781,15.0,11.367767333984375,-25.462446212768555,29.345863342285156,2.862092971801758,0.12291336059570312,15.0,-5.058427810668945,-4.550849914550781,-1.2293281555175781
44,0.88,-0.05334577920365653,0.03785277819013946,0.7213656352730171,0.925137675689399,-0.006296378313912756,0.004079824182369947,0.3795576262898479,-0.008553731202741997,0.012328787261540729,0.7786065538141653,-0.09986079138956867,0.06644218838009824,0.11817926361628729,3.5049371780216148,-0.04230646212330831,1.1775437650800264,0.030119744876732846,-0.00023494462538097677,0.24669225453800647,0.3628283782212462,1.2175942027499094,0.01837053268498047,-0.06326303349428199,0.25150197125514845,0.4458051016292533,0.777566338252476,-3.705220861522375,-0.05493433006747438,3.7188418295917147,-0.6579739132782554,-3.3117890880498764,-0.1407456372165226,-0.510120867901327,5.833049678847628,4.462402919180045,-11.68503943917935,-15.0,-15.0,30.0,-30.0,-2.612948417663574,1.2087841033935547,-7.068214416503906,14.540523529052734,9.258232116699219,-1.8692560195922852,-15.0,-15.0,30.0,-30.0,-2.612948417663574,1.2087841033935547,-7.068214416503906,14.540523529052734,9.258232116699219,-1.8692560195922852
45,0.9,-0.05704591701781281,0.04210468096302241,0.7241495732773688,0.9229274945705059,-0.010765063935286659,-0.010445806157811956,0.3846814764165154,-0.02791267594847428,-0.01099942383244388,0.7899727498924531,-0.23637809654429323,0.304064759430692,0.10907398276891267,-3.778818511374254,-1.9860900734281783,0.08544017146198364,0.05535966859822404,0.035346690826218635,0.22185060736910278,0.42366346839744246,1.1425455887964824,0.0041065917047878285,-0.0329988306633857,0.19412723266477871,0.3815769617087658,0.6548609281747605,4.484153853003514,3.0029702651171144,-4.780279441461675,5.6616615068163645,-3.3579665686541595,-1.153269509212173,3.011492807413233,-7.8991017475934076,-7.248341269685567,-1.6913009044166984,15.0,8.885414123535156,-27.997331619262695,21.694381713867188,0.39737796783447266,-4.951318740844727,15.0,-20.080060958862305,-17.95040512084961,3.9183273315429688,15.0,8.885414123535156,-27.997331619262695,21.694381713867188,0.39737796783447266,-4.951318740844727,15.0,-20.080060958862305,-17.95040512084961,3.9183273315429688
46,0.92,-0.05933302188194283,0.04610486100019905,0.7263171038589508,0.9200281451439115,-0.008689459415611634,-0.003444233535638507,0.3917407850779254,-0.018688677893114392,0.00047044774163037417,0.8050784748410618,-0.04307622920638529,0.10499399893519532,0.002634442345194013,3.4306428913493328,1.8857744049618161,1.4247166547325998,0.030936707118603832,0.01937211585193506,0.2062066480194858,0.37920943398198215,1.0517305597235733,0.0005682785728917521,-0.04804721009758109,0.19152864913978085,0.36301218722446316,0.5741122719211362,-4.588635152917716,-2.9402552704847604,2.315424266304121,-7.017298852111912,-5.5206341647940524,0.46135294138427707,-2.8299898518962405,4.1478775449996705,1.2574965653017653,-5.7122806497982435,-15.0,-15.0,28.473098754882812,-30.0,-1.091054916381836,4.347536087036133,-14.598543167114258,10.972076416015625,5.960285186767578,-1.5736141204833984,-15.0,-15.0,28.473098754882812,-30.0,-1.091054916381836,4.347536087036133,-14.598543167114258,10.972076416015625,5.960285186767578,-1.5736141204833984
47,0.94,-0.06178981770684436,0.051258265224730384,0.7248854651857228,0.9180476866171404,-0.011825276261484727,-0.002300743474805913,0.39628690934437766,-0.02353832947348285,0.005148042653693046,0.8149402508212267,-0.18046810768106436,0.35083171457208484,-0.13385539475087654,-2.689275731671272,-0.9979420479786023,-0.240724658224857,0.054716054834108574,0.01575017616348361,0.18733386190090934,0.38100244258175503,0.9871818731999285,0.012459728030530094,-0.0488917670650941,0.1914215323824582,0.38913299639101334,0.45985666423090105,4.571108563615933,1.7106359449145199,-3.4078328614447027,4.382963305475051,-1.3560698940979898,0.5623184174483289,1.9400367984064488,-2.61693071124472,1.5222111379253245,-5.711306356973236,15.0,11.375387191772461,-26.08395004272461,23.497817993164062,1.7417678833007812,-1.4953393936157227,15.0,-6.3782501220703125,1.97637939453125,-0.10591983795166016,15.0,11.375387191772461,-26.08395004272461,23.497817993164062,1.7417678833007812,-1.4953393936157227,15.0,-6.3782501220703125,1.97637939453125,-0.10591983795166016
48,0.96,-0.0644783482160241,0.054464028789602145,0.7223304470935317,0.915025522987878,-4.0213904326617974e-05,0.002210282320214218,0.40338989243121515,0.0017096326412933396,0.004077384534878379,0.8304426808408709,-0.181163547374745,-0.005483700281682661,0.11028546145386045,3.371941348045066,-0.42454008431730406,1.592470831038561,0.03552009525415012,0.015412223851912066,0.20126878785968189,0.3619921883898323,0.9321887255941332,0.027980168079584734,-0.047919539220535136,0.23124151318362232,0.41860779522288266,0.32807257034058496,-3.931096448112981,0.37192590048788676,3.481661855100822,-1.1548390354776181,-2.4104350042905005,1.015432632296933,-0.3045408231017278,4.333989019380726,1.2722924159127413,-7.299090369054971,-15.0,-15.0,30.0,-30.0,-1.7434701919555664,4.160713195800781,-13.227635383605957,11.784576416015625,1.802154541015625,-0.7916574478149414,-15.0,-15.0,30.0,-30.0,-1.7434701919555664,4.160713195800781,-13.227635383605957,11.784576416015625,1.802154541015625,-0.7916574478149414
49,0.98,-0.0701960038546391,0.05778896744797983,0.7264053246405395,0.9113961862607259,-0.008447906980899257,-0.008244461431260886,0.41136073389757943,-0.022184219093933113,-0.008077754826790023,0.8480454083254005,-0.32255620600254464,0.3298752472628544,0.3727883017453695,-4.304444456781954,-0.04342581647506509,0.3336021630352447,0.056479776968174585,0.031032079683485477,0.18774079743365796,0.4563635326462675,0.8922052276574564,0.002785466289724106,-0.03959316683132302,0.16162071039232173,0.32735580972773226,0.31088795731856134,4.2918988225565045,0.3510459593026986,-4.0236372323334315,8.496157135348565,-0.7822144762810979,-2.598452497038798,0.16793294491112526,-7.633654373103914,-6.461634469768745,3.848565336338526,15.0,3.7539901733398438,-27.276138305664062,28.893436431884766,1.2106552124023438,-9.346217155456543,11.477518081665039,-19.527738571166992,-19.361324310302734,4.8585662841796875,15.0,3.7539901733398438,-27.276138305664062,28.893436431884766,1.2106552124023438,-9.346217155456543,11.477518081665039,-19.527738571166992,-19.361324310302734,4.8585662841796875
50,1.0,-0.0744888445302021,0.06127814437206124,0.7304973779857936,0.9083104963071804,-0.008038858210614284,-0.0038179380526195063,0.4182019158324119,-0.017797836599409828,-0.00021201460691012056,0.8629681902850007,-0.1380317516441727,0.07838260215402945,0.08103474696886356,3.206807806488801,0.7548014772000748,1.291758034680612,0.0360396012039274,0.011287876287443804,0.17508413016613988,0.43951297306763226,0.8541871454497594,-0.0030275130860922847,-0.045721371984477385,0.18505818298673074,0.35727688538674474,0.2511165608454383,-4.194204475364731,-1.983822829279864,1.9868276742567046,-6.413138397356719,-2.8340673831575858,1.1147269605141519,-0.7229017797305226,6.331547751751098,5.5624492783071275,-8.466802414347532,-15.0,-15.0,26.12166976928711,-30.0,-1.0023584365844727,6.6470947265625,0.9043712615966797,16.762832641601562,15.667343139648438,-5.047674179077148,-15.0,-15.0,26.12166976928711,-30.0,-1.0023584365844727,6.6470947265625,0.9043712615966797,16.762832641601562,15.667343139648438,-5.047674179077148
51,1.02,-0.07913480294572987,0.06586661634236658,0.730886725667615,0.9036450150432197,-0.01222364726302104,-0.013725411018170418,0.42788769826615813,-0.03384748954202456,-0.014345593947797754,0.8847116318117513,-0.2992362907226479,0.3235398288301492,-0.039594876337083224,-3.4366705746744044,-1.846027120157856,0.8625521642907998,0.0603222795043185,0.018955796263785282,0.14138521102634893,0.425664787483292,0.807302034895445,-0.00550720450935535,-0.009897011834978413,0.18788339242885113,0.42137282374598645,0.14608020012050038,4.438695502190403,2.029901015757247,-4.305409005125381,2.8493596343345162,-1.9294118109940372,-0.9293132415776029,3.6299774600870567,-3.6581772005826814,2.1676035230553587,-2.6701333186345613,15.0,12.615959167480469,-23.426721572875977,18.10242462158203,0.40511322021484375,-5.296225547790527,15.0,-14.913032531738281,3.0146865844726562,2.266878128051758,15.0,12.615959167480469,-23.426721572875977,18.10242462158203,0.40511322021484375,-5.296225547790527,15.0,-14.913032531738281,3.0146865844726562,2.266878128051758
52,1.04,-0.08200531437890345,0.06899493843444317,0.7272861230793507,0.8970904670966252,0.0006314085975948874,-0.0056638849410833025,0.44181015784487815,-0.0038720946996008364,-0.010720165168277347,0.9152676347600268,-0.037392658586830566,0.054250461343947676,-0.3001671156868101,4.862970271220646,1.5952025994601877,2.0240552136597025,0.040516834954222196,0.0017390847673280597,0.1560604340266925,0.3514881520023064,0.7767580061525221,0.02123149223141169,-0.0004983056514997002,0.2052008205734395,0.38819611419937106,0.08892590649712953,-4.235153869069394,-2.983291051064081,4.305704893117042,-7.857663031365225,-1.2266729986800606,2.7610168376572086,-1.6930902664711174,3.9365143824660693,-4.055501575834234,-3.0239764405354896,-15.0,-15.0,30.0,-29.090295791625977,0.15584850311279297,9.879749298095703,-15.0,14.306007385253906,-12.316230773925781,-0.2539396286010742,-15.0,-15.0,30.0,-29.090295791625977,0.15584850311279297,9.879749298095703,-15.0,14.306007385253906,-12.316230773925781,-0.2539396286010742
53,1.06,-0.08570074143846826,0.07350404731229145,0.7210765838068484,0.893095019482664,-0.0024059122953591612,0.0032074306537189833,0.4498502085693509,-0.0014117343318243243,0.007893762958516662,0.9331977493768872,-0.2385941772871564,0.4447259058163989,-0.05978592675921203,-3.410945336987478,1.7169078030711962,-0.04169075122028032,0.051729643197241756,-0.025402965261087727,0.16134533043026977,0.3714182805043644,0.76588850404037,0.024991855266844117,-0.01848156097160114,0.19079699355240196,0.33412192392864964,0.07359072658204142,3.4457435127153726,-1.3121777540073722,-3.117055696444738,6.28021202954067,0.03915187510606588,-1.1513491624449683,-1.6856018421214143,-2.8675925016380286,0.48466606239778287,0.28859545800586656,12.891551971435547,15.0,-29.983558654785156,30.0,0.6331386566162109,-8.115642547607422,0.13922500610351562,-9.56319808959961,-2.7279891967773438,1.8125057220458984,12.891551971435547,15.0,-29.983558654785156,30.0,0.6331386566162109,-8.115642547607422,0.13922500610351562,-9.56319808959961,-2.7279891967773438,1.8125057220458984
54,1.08,-0.0889842483423829,0.07906009266775837,0.7199085888163432,0.8886534688574805,0.004527606786696794,-0.0006052277221479624,0.458556590579349,0.0074920571070661605,-0.005228027108260845,0.9527317269508094,-0.1261438644433222,0.14085586549446585,-0.010183334282015568,2.939713136229216,-2.5526583502994025,1.6752559765459791,0.026916723534494688,0.0008133987685529556,0.16211508598813773,0.3579562925468422,0.7786188888146672,0.057479489391925646,0.003616096147021129,0.27006864023002314,0.4688432962849158,-0.06094645271812809,-4.078729901704611,3.2046393204541683,2.096393681278638,-3.8330315642887567,2.457404843364672,3.271546091844534,3.3296801931307107,7.836713941894596,9.886529422940054,-12.37321605040716,-15.0,13.124652862548828,26.132740020751953,-30.0,0.5126791000366211,9.594030380249023,4.041566848754883,16.988624572753906,20.6649169921875,-5.283390045166016,-15.0,13.124652862548828,26.132740020751953,-30.0,0.5126791000366211,9.594030380249023,4.041566848754883,16.988624572753906,20.6649169921875,-5.283390045166016
55,1.1,-0.09345813955108148,0.0836311836677554,0.7196065977760712,0.8794660962794171,0.005185395740670834,-0.005557432966830166,0.4759008427234354,0.0038316094161105255,-0.014711146779050256,0.9919791113526705,-0.24864944920606177,0.355526798354591,0.08667943057987824,-2.267079963586961,1.718039013694181,1.945638816996127,0.001056305112820825,0.013125976530547498,0.1952595422470378,0.4611613046238602,0.7255937163040556,0.0139718652128091,0.003475689356732435,0.24806688300110905,0.4153418481028408,-0.1981762914633442,0.557409597381626,-1.6876378170438888,0.6773096165158856,10.321849121792715,-6.4549562120197335,-5.28341164744151,-2.1071425024285477,-5.838533053401442,-7.171199290310218,-1.6798639337587769,6.72303581237793,-3.6314802169799805,-10.024026870727539,30.0,-3.4610071182250977,-15.0,-15.0,-17.627601623535156,-26.73293685913086,3.746002197265625,6.72303581237793,-3.6314802169799805,-10.024026870727539,30.0,-3.4610071182250977,-15.0,-15.0,-17.627601623535156,-26.73293685913086,3.746002197265625
56,1.12,-0.09564990735946635,0.09020950021662537,0.7195192469391377,0.8731728032824845,0.010665516905235217,0.003056098492752579,0.4872844781223334,0.0216060145662837,-0.005057299059879968,1.017968755306355,-0.024682017256656388,0.29902328995356176,-0.12156148325741853,3.0732371607406708,-0.42985296454881416,1.1293934295986283,0.0361937357937049,0.020835600524607603,0.20440987677056188,0.4331658944572082,0.6774609223347485,0.02946092062850824,0.0013988797675731834,0.2769706528525127,0.4370024623329128,-0.3113690018836587,2.3279648781496913,1.9892292543218197,0.9067629100087191,-8.092000933798593,0.8111019493743511,4.276455128756511,1.221925294884754,5.6706391340050395,4.774368821053015,-9.126354491760068,2.9220046997070312,11.709125518798828,12.807498931884766,-30.0,2.801137924194336,15.0,1.1956005096435547,17.228107452392578,12.231002807617188,-3.2778329849243164,2.9220046997070312,11.709125518798828,12.807498931884766,-30.0,2.801137924194336,15.0,1.1956005096435547,17.228107452392578,12.231002807617188,-3.2778329849243164
