step,time_s,torso_x,torso_y,torso_z,quat_w,quat_x,quat_y,quat_z,roll_rad,pitch_rad,yaw_rad,body_vx,body_vy,body_vz,body_wx,body_wy,body_wz,l_hip_roll_pos,l_hip_yaw_pos,l_hip_pitch_pos,l_knee_pos,l_wheel_pos,r_hip_roll_pos,r_hip_yaw_pos,r_hip_pitch_pos,r_knee_pos,r_wheel_pos,l_hip_roll_vel,l_hip_yaw_vel,l_hip_pitch_vel,l_knee_vel,l_wheel_vel,r_hip_roll_vel,r_hip_yaw_vel,r_hip_pitch_vel,r_knee_vel,r_wheel_vel,l_hip_roll_torque,l_hip_yaw_torque,l_hip_pitch_torque,l_knee_torque,l_wheel_torque,r_hip_roll_torque,r_hip_yaw_torque,r_hip_pitch_torque,r_knee_torque,r_wheel_torque,l_hip_roll_ctrl,l_hip_yaw_ctrl,l_hip_pitch_ctrl,l_knee_ctrl,l_wheel_ctrl,r_hip_roll_ctrl,r_hip_yaw_ctrl,r_hip_pitch_ctrl,r_knee_ctrl,r_wheel_ctrl
0,0.0,0.00023778314721861575,0.002544180560772868,0.6985471120309905,0.9999821588320432,0.005083907038481985,-0.0007644361377039125,0.003041635123040782,0.010163169720490233,-0.0015597724114208508,0.006075433834179932,0.011040713711447582,-0.04758631705061935,-0.5191300969251849,3.604565744862001,-0.25831683377565695,0.611029685739929,-0.0041316927764323075,0.0032378609385604043,0.46470469625025207,0.7877575894067038,-0.013343949732575707,0.00020696577085829748,0.004928680308982149,0.45143378112266414,0.7797479811672305,-0.10336556456316813,0.2269086329161693,0.5660440418277761,11.483275460623394,14.171927427456998,1.5648609665018565,-0.42396109009853533,0.42855681173577453,10.14053361142863,13.302723376107306,-6.487471290430772,-0.22404316067695618,0.870438277721405,27.343149185180664,30.0,0.7670003771781921,-0.32578569650650024,2.1706156730651855,20.940698623657227,29.53536033630371,-2.6299028396606445,-0.22404316067695618,0.870438277721405,27.343149185180664,30.0,0.7670003771781921,-0.32578569650650024,2.1706156730651855,20.940698623657227,29.53536033630371,-2.6299028396606445
1,0.02,0.0005495204269878729,0.0029736909590445952,0.6924553332985217,0.999992329986269,-0.0022633361690758604,-0.002170365321880677,0.0023466555750174516,-0.004536881914555655,-0.004330088340690757,0.00470316111480866,0.0166365035539575,0.06742337221568932,-0.20536991804777233,-3.2783501371772674,-0.0796567977316387,-0.5413763800832005,-0.002124953823376332,0.005894525732309054,0.45632588501689586,0.8178951827032299,-0.2366356693727966,0.02804694821905665,0.015295778234998128,0.4379881128408055,0.7997117155492227,0.16819820128317278,0.1643732321911603,-0.13052931447682817,-7.230659847176113,-5.350203863059652,-21.447759219527395,2.3311709676599586,0.49285690672766713,-6.740330143005408,-5.749634527460095,29.695601493895467,1.8056833744049072,-1.8413493633270264,-28.76668930053711,-19.153549194335938,-9.717415809631348,4.270463466644287,1.197602391242981,-21.168912887573242,-21.851152420043945,15.0,1.8056833744049072,-1.8413493633270264,-28.76668930053711,-19.153549194335938,-9.717415809631348,4.270463466644287,1.197602391242981,-21.168912887573242,-21.851152420043945,15.0
2,0.04,0.00016069686126806958,0.002985327226325893,0.679593529905345,0.9999533527091643,0.008873704453928,-0.0035392208092652096,0.00142256494699244,0.017737889123819496,-0.007103418008092827,0.002782258961013252,-0.03841741307461483,-0.04407331328536758,-0.9317211592423498,3.6866850803692515,-0.20856889630189523,0.19331815352681356,-0.0037604154487538097,0.005426543194679753,0.5359206906737796,0.9413370982547833,-0.2611436053636128,-0.011092400657859054,0.018879059922731423,0.5249250740001903,0.9175135163848691,0.34894406713216763,-0.3428858566559837,0.06544597122522006,10.334195539536843,12.350983510452938,15.086360202492104,-4.293318268888478,-0.06895059522363438,10.63035174650053,12.187919092488714,-7.559034652813169,-2.342297077178955,0.09194374829530716,30.0,30.0,15.0,-10.73307991027832,0.23855459690093994,30.0,30.0,-15.0,-2.342297077178955,0.09194374829530716,30.0,30.0,15.0,-10.73307991027832,0.23855459690093994,30.0,30.0,-15.0
3,0.06,0.0008329226718081342,0.003422331088289887,0.6679437786949374,0.9999836405648815,0.005342893877467909,-0.00037197325768273084,-0.0020084131831460727,0.01068731332991709,-0.0007224729306725841,-0.004020747363409264,0.09711652056656084,0.14948787115327578,-0.005336944608231919,-3.9839686246666677,0.9867480514278565,-0.8451661547892003,0.0010938177518878401,-0.0041469375527043335,0.5294011182368074,0.953391308131234,-0.3565943603110591,0.02590541996016334,0.017569952892594373,0.5464944886251558,0.952024368818527,0.5688766313608653,0.7816040451059602,-1.0518028652044573,-6.54777638151902,-0.2734301302399764,-19.36675263606823,5.573577240323619,-0.8825867721266868,-2.322669856298649,0.21162947055239434,22.364808562686463,2.9396162033081055,-0.7193694114685059,-19.709924697875977,-25.56855583190918,-15.0,15.0,-0.510230302810669,-22.2366886138916,-23.77130126953125,15.0,2.9396162033081055,-0.7193694114685059,-19.709924697875977,-25.56855583190918,-15.0,15.0,-0.510230302810669,-22.2366886138916,-23.77130126953125,15.0
4,0.08,0.002340402728711403,0.003531292808298809,0.664688581836006,0.999803585614519,0.018335236490047892,0.007086871238628375,0.0025269648299062622,0.03671096962154087,0.014078758645394518,0.005313367490560509,0.07867570330232815,-0.10074995953809447,-0.3027043906108789,4.868365833425898,0.6804825294562823,1.2120409835351824,-0.006672652747744726,-0.015745409284820613,0.5931049990634605,1.022353918455232,-0.3431812487794765,0.001464564748953772,0.0003278328598971757,0.6130619833488257,0.9555010325178667,0.6848617621370886,-1.084033982616972,-0.3069605696974848,8.959764110775179,4.279891572609884,16.974615660187524,-5.021511728514248,-0.9665428652684934,6.820243342457008,-0.46233903564908085,-7.996898913745814,-5.430902481079102,3.5070979595184326,30.0,4.565161228179932,15.0,-15.0,1.5373202562332153,26.406864166259766,-15.211743354797363,-15.0,-5.430902481079102,3.5070979595184326,30.0,4.565161228179932,15.0,-15.0,1.5373202562332153,26.406864166259766,-15.211743354797363,-15.0
5,0.1,0.0036411192152854192,0.0036993402464032686,0.661116073341362,0.9997552547352303,0.020141551428395556,0.006528422005090744,0.0064131303958571695,0.040371248564157865,0.012795656784866247,0.013087551691342063,0.011538687883216442,0.08364155561519165,-0.062225849140340336,-2.909801691612602,-0.8420817159865057,-0.13363542755916002,-0.022801163540209612,-0.008442718494010192,0.5952039268401982,1.033459608789362,-0.40309677010580947,0.012797812282452022,0.010824488499214167,0.642217363910065,1.0230190697075638,0.9278853940274054,-0.48063758918507643,1.0269095416293794,-5.16396826862585,0.6699758662869675,-18.279765312036762,3.6796388824961275,1.675234366422365,-2.1011354322589604,5.323946902527543,28.021960691882256,1.1999788284301758,1.6923484802246094,-22.186809539794922,-9.871353149414062,-15.0,11.969952583312988,1.4500892162322998,-14.764610290527344,16.726505279541016,15.0,1.1999788284301758,1.6923484802246094,-22.186809539794922,-9.871353149414062,-15.0,11.969952583312988,1.4500892162322998,-14.764610290527344,16.726505279541016,15.0
6,0.12,0.0026810496365221163,0.00335826805591491,0.6594095590035162,0.9992261927461368,0.03736488770262472,5.019620250546976e-05,0.012283255975947621,0.07474277917626855,-0.0008176103307816404,0.0245537286709482,-0.05665298936785622,-0.07487768984710391,0.006853578780240163,4.441105966162372,-0.17974324130575325,1.1513275195062833,-0.007322020864549011,0.006215302056372196,0.6478480149643636,1.035034772050764,-0.3762091222333192,-0.009545550492670422,0.01927708207094631,0.6756857462025322,0.9989963908550166,1.0854196738733477,1.3097022069089803,0.3002837764372186,7.581493767215161,-0.4923397194933966,16.66227817943095,-3.6439456412113835,-0.2775633434387942,4.285540300668682,-1.5131787575771471,-6.5626716439395425,3.911614418029785,-1.1870017051696777,30.0,-19.08298110961914,15.0,-10.041943550109863,-5.017472267150879,15.45526123046875,-21.93808364868164,-15.0,3.911614418029785,-1.1870017051696777,30.0,-19.08298110961914,15.0,-10.041943550109863,-5.017472267150879,15.45526123046875,-21.93808364868164,-15.0
7,0.14,0.0013734672194533756,0.004626452148230754,0.660375040647276,0.9994404740130114,0.02949507201679694,-0.0029532981132349865,0.015493794293986002,0.05890104184967914,-0.006817325296208624,0.030801620619787456,-0.0835061802259946,0.14144657773694788,0.027290912373290586,-4.017056269531886,-0.38785791154919336,-0.14923275710699171,-0.011915996091464756,0.008440960706923389,0.6243014929730206,1.0202385742019324,-0.4360827220856581,0.0015734392923995961,0.026479348402695127,0.6852704216371502,1.0926110702641434,1.3126662030339007,-1.147082196416656,-0.02622459170780443,-6.557626559055347,-0.8137906241167799,-18.980780898602294,2.8052417932431326,0.5912256837185625,-2.4783756991117434,8.438227486317038,27.163918573238526,-3.057349920272827,-0.7106072306632996,-28.113880157470703,2.362588882446289,-15.0,8.454375267028809,-1.3794701099395752,-13.930803298950195,25.72906494140625,15.0,-3.057349920272827,-0.7106072306632996,-28.113880157470703,2.362588882446289,-15.0,8.454375267028809,-1.3794701099395752,-13.930803298950195,25.72906494140625,15.0
8,0.16,-0.0002908277055877868,0.005271179467567827,0.6593139041318569,0.9991530923766699,0.03648706844464714,-0.002349373475119143,0.018875176150871132,0.07288951252037806,-0.006072204549185565,0.03755645815557542,-0.10150811208151361,-0.029081037816299424,-0.09698743647444436,3.6209464922554844,0.14505151249029952,0.4547158699477748,0.003942602374834333,0.00597401882823186,0.6536158073338072,1.0263194452690938,-0.41033400186352414,-0.017975769390440252,0.013698423740270678,0.6938731311910917,1.0641410639928928,1.4499619834810356,1.5145704019210076,-0.13753643734838503,6.819392775167279,0.42026094076273457,16.394115090508866,-3.0745099452534026,-1.2714493481143914,2.3395929628512073,-7.485035110210138,-9.510023108995583,5.111239433288574,0.6582050919532776,27.03425407409668,-9.062251091003418,15.0,-7.811492443084717,-4.196906089782715,13.267817497253418,-30.0,-15.0,5.111239433288574,0.6582050919532776,27.03425407409668,-9.062251091003418,15.0,-7.811492443084717,-4.196906089782715,13.267817497253418,-30.0,-15.0
9,0.18,-0.0031613956825872432,0.006331509124971117,0.6568580782536801,0.9992609543206501,0.032329091646028804,-0.00864940362273667,0.018909331571884666,0.0643386814517613,-0.018509722580804713,0.0372464489315803,-0.17162130310630908,0.10442987010619545,-0.1565239794465336,-2.9774749666771223,-1.0469461209849926,-0.2428975174375076,-0.01868365700376013,0.011596575432434213,0.6455433243083081,1.0332309730435758,-0.46252245699258016,-0.011718096266720851,0.014042112838184306,0.6853509114408893,1.066555525376244,1.6571992288425061,-2.6818665062734475,0.5073301431937863,-5.004350023403213,0.48752222562298864,-17.84005604226526,2.2236621932315477,0.7023540353795616,-2.206957798160441,4.790921106007652,26.38730755857557,-7.411779880523682,0.5506047010421753,-21.521596908569336,0.65786212682724,-15.0,7.002861976623535,0.34403789043426514,-10.790227890014648,21.756229400634766,15.0,-7.411779880523682,0.5506047010421753,-21.521596908569336,0.65786212682724,-15.0,7.002861976623535,0.34403789043426514,-10.790227890014648,21.756229400634766,15.0
10,0.2,-0.004870149819131887,0.007267196189373897,0.6554463672884815,0.9990850819956225,0.0375849714222451,-0.00732793649460424,0.019043902008809677,0.07490174827010254,-0.01607468535481988,0.03751576147361589,-0.005759030333869229,0.009170784354514523,0.06165436874473067,2.693849587640158,1.0988554028206938,0.13409782627141997,-0.001350495367627218,0.007510180982375679,0.6712079435728818,1.042850109932558,-0.4283288331344527,-0.011473577677003447,0.0029529351316080307,0.697452099319202,1.0638219153241248,1.786116073956565,2.9413156226557446,-0.9440601655569145,5.438946529787193,0.02245727056069252,16.821860954389876,-1.5920839957929473,-1.4618670409751044,1.9763359749456546,-1.4085439609951884,-7.704275897588559,9.546874046325684,-1.0382623672485352,22.617000579833984,-9.881298065185547,15.0,-3.9806418418884277,-3.9531280994415283,9.505122184753418,-30.0,-15.0,9.546874046325684,-1.0382623672485352,22.617000579833984,-9.881298065185547,15.0,-3.9806418418884277,-3.9531280994415283,9.505122184753418,-30.0,-15.0
11,0.22,-0.005719903443134931,0.008474433124283882,0.6577493674563444,0.9992500695028921,0.03540099140004661,-0.0042702755000365205,0.015094143020214237,0.07068206962886155,-0.0096029890280121,0.02986912112548222,-0.0734986422777222,0.08384495183395291,0.12235408393830992,-1.9248556609913967,-0.2937567020075834,-0.8557440485667276,-0.014895733112724834,-0.004298827091166412,0.6552917146965076,1.031159015302107,-0.4710318323306669,-0.005340708574488116,-0.002654513566780709,0.679175701575207,1.045444247956154,2.0158373287307243,-2.831824933130728,-0.28345386264272576,-4.839994121762952,-0.5924164380605079,-17.05948913555792,1.2334448819064472,0.4766642151606957,-2.6871519038878824,-0.5686229776881042,27.517916946822435,-10.151102066040039,2.0693349838256836,-22.045413970947266,-2.3463850021362305,-15.0,3.214431047439575,1.4843776226043701,-4.734830856323242,-0.37504541873931885,15.0,-10.151102066040039,2.0693349838256836,-22.045413970947266,-2.3463850021362305,-15.0,3.214431047439575,1.4843776226043701,-4.734830856323242,-0.37504541873931885,15.0
12,0.24,-0.00614010010243842,0.009551694893032594,0.6600813109091336,0.998958300603685,0.04369925472229667,-0.0015514581423183777,0.013049205697971179,0.08737890866880722,-0.0042401778118124345,0.025938771307813597,0.002622165849246071,0.024177461399158103,0.12417353104474112,2.625740460863782,0.49818316940837815,0.1949221095294903,-0.0015580660536489823,-0.009963486314984896,0.6731250617956446,1.015885917614569,-0.4258550936847325,-0.014502698038797703,-0.010107849447869141,0.6924115191293103,1.01625444697156,2.147542171635806,2.7087751717805437,-0.2037383884707916,4.869587783669196,-1.0233383201076631,17.336780467868493,-1.906717284654945,-0.8132182927196825,1.7426854532740927,-1.6747689016783394,-7.940921790397517,9.318676948547363,0.8493750691413879,22.503557205200195,-10.972311973571777,15.0,-3.84230375289917,-2.4453792572021484,4.894718647003174,-14.18015193939209,-15.0,9.318676948547363,0.8493750691413879,22.503557205200195,-10.972311973571777,15.0,-3.84230375289917,-2.4453792572021484,4.894718647003174,-14.18015193939209,-15.0
13,0.26,-0.007052882502957163,0.01154118821421814,0.6632185397417005,0.9993664745991576,0.03391614043395515,-0.004908882442868936,0.009604568625349844,0.06775053656178215,-0.01046323579582893,0.018866138891546657,-0.08230072171532142,0.14128166472902995,0.15163236302026975,-3.1815874698920488,-0.8843765905002816,-0.7467782813211885,-0.007031931069527501,-0.005675731190213647,0.6309880653017776,0.9867557702945401,-0.45924823234729895,-0.005273659458193525,-0.0009542809826730849,0.6734888244997073,1.073253155048229,2.377861905589427,-1.9929721649005236,0.5079202389485101,-6.606717870032008,-1.4529467190089422,-16.660770207744775,1.7097393380842725,1.1194640104488727,-2.696274251650941,5.641516483619213,27.551197097427163,-6.986400604248047,1.1559926271438599,-24.82377815246582,-4.116854667663574,-15.0,4.716653347015381,1.1373287439346313,-8.107746124267578,16.902381896972656,15.0,-6.986400604248047,1.1559926271438599,-24.82377815246582,-4.116854667663574,-15.0,4.716653347015381,1.1373287439346313,-8.107746124267578,16.902381896972656,15.0
14,0.28,-0.008615426458065593,0.01263311515666346,0.6651768181798121,0.9989866511204709,0.043149877301291995,-0.009511476022231052,0.00856100437272917,0.08617283189807856,-0.019743770449994664,0.016287714647493557,-0.08803632914950825,0.0055998822283054184,0.07271585819758603,3.48074155209771,-0.3341091767882902,0.3861767378724992,0.01814960207114413,0.005567947790417964,0.6474445737185694,0.959880380033607,-0.39683605910403824,-0.0157728356447372,0.002953504219121507,0.6646703673242589,1.027118580695482,2.521856810459203,3.082461133067153,0.761136491935162,5.721620929861471,-1.5636049574390527,18.535463673436976,-1.7760902521667514,-0.27194123708257656,0.9822373511180371,-7.191945798364132,-9.21148342201345,9.316866874694824,-0.5031794309616089,27.01396369934082,-15.873741149902344,15.0,-3.7486870288848877,-3.5667781829833984,6.598114490509033,-24.34393882751465,-15.0,9.316866874694824,-0.5031794309616089,27.01396369934082,-15.873741149902344,15.0,-3.7486870288848877,-3.5667781829833984,6.598114490509033,-24.34393882751465,-15.0
15,0.3,-0.011524565274909481,0.014670764254957315,0.6652915608599932,0.9991407180365254,0.036218376019731977,-0.018900119911095088,0.006988581207779869,0.07222599288956487,-0.03828333963037902,0.01260565877802567,-0.1842572620343984,0.1645550403570342,-0.05578323954434355,-3.3822925982091636,-1.2737324271853139,-0.4702512626765545,0.005813889956112753,0.015914678173436936,0.6242300255848379,0.9403200086918039,-0.421522279409272,0.00034291255759978136,0.013075648044767966,0.6467612136696684,1.077767218828195,2.734401902056389,-2.7624524851865826,0.2970308657418245,-5.5564897802576105,-0.3786467412688889,-17.037414064628127,2.265620370853114,0.8119734512707365,-2.2645599129770995,8.39301349324192,26.632205105023978,-8.602689743041992,-1.843711256980896,-24.363208770751953,2.924285650253296,-15.0,5.926270008087158,-0.26489558815956116,-9.294098854064941,30.0,15.0,-8.602689743041992,-1.843711256980896,-24.363208770751953,2.924285650253296,-15.0,5.926270008087158,-0.26489558815956116,-9.294098854064941,30.0,15.0
16,0.32,-0.014623365909445013,0.016447851439195683,0.6627761813478805,0.9988820646008014,0.040697312359300644,-0.023802853307042907,0.003431320447483383,0.08132286675169348,-0.04785003523906058,0.004923199526028313,-0.1539564897119136,0.050690849102505604,-0.15902172505080822,2.7757442043019513,-0.18869436392775707,-0.28807394095942307,0.029725374205847963,0.02340518700578682,0.6474019597548448,0.9446436894663413,-0.37247644402106417,-0.006182154100712352,0.00481491242669191,0.6344557981267968,1.0454048384266446,2.86127323336626,3.407193724871007,0.47546581509607294,5.679668712488987,0.37228530970865914,17.374068239604856,-1.7856897739741089,-0.9903892618187404,0.500513695663297,-7.7173526177969825,-10.023426635693948,10.948871612548828,-1.3259563446044922,20.923667907714844,-6.256515026092529,15.0,-4.732319355010986,-2.9802591800689697,9.06312084197998,-30.0,-15.0,10.948871612548828,-1.3259563446044922,20.923667907714844,-6.256515026092529,15.0,-4.732319355010986,-2.9802591800689697,9.06312084197998,-30.0,-15.0
17,0.34,-0.016627201732736026,0.01930981434664706,0.661187697869665,0.9992386605998023,0.031038051312823157,-0.02358584683107678,-0.0015640852525914874,0.06221156331638133,-0.047056051570162453,-0.0045950088671871964,-0.13276762040171902,0.18943513646450771,-0.16280131420741975,-3.0598966439991235,-0.44331100152393776,-0.7814542597837404,0.007547943772820327,0.005626524041072546,0.6437610003013119,0.9577368130332734,-0.42968496274638973,0.027569959512164913,0.003253298663689858,0.6644064877953587,1.1674123422914682,3.019581095960164,-3.8302602458351176,-1.2536161630580847,-3.601252172129042,1.1010136705390905,-19.17862627438335,3.148005089573944,0.43807716840142746,0.743012506613556,10.850143302979973,23.73298231344828,-12.012828826904297,-2.196373701095581,-19.36247444152832,6.857630729675293,-15.0,7.175496578216553,1.3579387664794922,-1.7226262092590332,30.0,15.0,-12.012828826904297,-2.196373701095581,-19.36247444152832,6.857630729675293,-15.0,7.175496578216553,1.3579387664794922,-1.7226262092590332,30.0,15.0
18,0.36,-0.017876799350044603,0.02213477950744206,0.6565416568479543,0.9994137292811309,0.02774846859906077,-0.01967501522607018,-0.0038876716224189385,0.05568874794396052,-0.03912118499788929,-0.008869590520984547,-0.019835118435430545,0.10706660172300306,-0.29693503276762845,1.4354393659780182,0.8465554571439579,0.10355597801549271,0.02674380097787554,-0.0037535213483612627,0.672012117886006,0.9955869627955195,-0.4072032806308456,0.015101295243886686,-0.007963572061100634,0.6687097420474303,1.1640454830917017,3.089961207853088,3.780187936017939,0.0621883803502927,4.590374488539154,2.137220138110316,17.465194608706724,-2.8071143805509604,-1.0790529157974202,0.05452962594871571,-6.834112681124965,-12.789346800932606,11.951395988464355,2.5874147415161133,17.919397354125977,1.1420985460281372,15.0,-9.042974472045898,-0.9934049844741821,2.36002254486084,-30.0,-15.0,11.951395988464355,2.5874147415161133,17.919397354125977,1.1420985460281372,15.0,-9.042974472045898,-0.9934049844741821,2.36002254486084,-30.0,-15.0
19,0.38,-0.018941389392177144,0.024072358074251125,0.6515651607147005,0.99921437802524,0.034157074277744275,-0.01827858166110221,-0.00835550578218233,0.06866424571612398,-0.03596539704548213,-0.017959147440963344,-0.04860559420153013,0.09783982904136866,-0.17102934061005895,0.046975672353513964,-0.08765824151607535,-0.7476801877275493,0.0027221137210205436,-0.013628540849735356,0.7047911158081701,1.024961592905656,-0.4396212986919322,0.03045699254867107,-0.009977921315078546,0.7050245002359724,1.1303044798418083,3.2212329611353585,-4.120516957066713,-0.9822136824198006,-0.5742326761947809,0.9283572054868992,-16.73333711168192,3.048066813416051,0.2864568770836369,3.392293905672255,1.7431669975556876,21.3451173910039,-14.695109367370605,0.290591299533844,-7.173566818237305,-3.90635347366333,-15.0,9.065091133117676,1.547363042831421,9.488158226013184,-0.7309700846672058,15.0,-14.695109367370605,0.290591299533844,-7.173566818237305,-3.90635347366333,-15.0,9.065091133117676,1.547363042831421,9.488158226013184,-0.7309700846672058,15.0
20,0.4,-0.017385260333435536,0.026427907576141815,0.6515596012777297,0.9992781266640042,0.03625098077096279,-0.005592740902376688,-0.00989005627995526,0.07262805273463839,-0.010460549593544593,-0.02017379053078693,0.18623539227214173,0.12253859420476437,0.12604560569938764,0.39236518194208253,2.3341234380378957,0.1617913719667369,0.01650871382882639,-0.030136397824940507,0.7218846077828294,1.053023274636552,-0.36528220788496285,0.022595950919713694,-0.03702503325856107,0.713324592326211,1.1056672526322409,3.2925816015225062,3.690273918057316,-0.7392456620014141,1.876890868512243,1.1546139320426756,19.930128245253066,-2.49735546481253,-2.580766637349949,-1.6522410291410228,-2.597607875134879,-10.353253511252424,12.645878791809082,2.0677404403686523,10.213266372680664,-0.15430986881256104,15.0,-8.041850090026855,-0.4984101355075836,-10.158449172973633,-30.0,-15.0,12.645878791809082,2.0677404403686523,10.213266372680664,-0.15430986881256104,15.0,-8.041850090026855,-0.4984101355075836,-10.158449172973633,-30.0,-15.0
21,0.42,-0.015659271335421207,0.028554529367768283,0.6572814722944529,0.9990144606717579,0.04097277401352059,-0.0011652750132047742,-0.017028837085885904,0.0819963612082293,-0.0009328159257168951,-0.034126236455399916,0.033692009503786924,0.0840019476825488,0.3872377358667083,0.6998068321701145,-0.7730049288099073,-1.3596624635414918,-0.011080347451678855,-0.042120360637468775,0.7064396399981107,1.0198636647948216,-0.36873480926968816,0.029272978734628405,-0.04331771469226801,0.7183855021653706,1.0476882128429283,3.470378856722758,-4.202980257564619,-0.016926227886901263,-3.1066647075013605,-2.819585848539893,-14.355219734961944,2.0899550084441136,1.1336081965488676,1.891224401501391,-3.4288137767653355,24.121877261849576,-15.0,3.588843822479248,-13.703668594360352,-17.73381996154785,-15.0,6.088008880615234,6.254748821258545,15.502457618713379,-15.548905372619629,15.0,-15.0,3.588843822479248,-13.703668594360352,-17.73381996154785,-15.0,6.088008880615234,6.254748821258545,15.502457618713379,-15.548905372619629,15.0
22,0.44,-0.014325451705551674,0.0314017344321379,0.6629742419141262,0.9988639115400331,0.04446382119019347,-0.005294519647067018,-0.01630407586521275,0.0891208918944859,-0.009127252907333686,-0.0330493275615724,0.0943879059501277,0.18035804107402975,0.20789311047327855,0.0676404319095678,-0.09930708594811045,1.2055794394143604,0.0005235662397204393,-0.02385083582300409,0.6950678867868557,0.9686694586556762,-0.27176107363647334,0.010473834209615505,-0.03485192004397615,0.7207990737180957,1.0033377308442224,3.5461204959687906,3.5054269151834996,1.4746031082979418,1.0565207388243958,-2.5883348065645824,20.33432013448388,-2.7560151891460976,-0.018236316440742556,-1.3066265162146427,-1.212742008746171,-12.379906890188208,14.158018112182617,1.1180713176727295,14.906906127929688,-8.53941822052002,15.0,-8.097433090209961,-0.7085326313972473,-18.14681053161621,5.4412431716918945,-15.0,14.158018112182617,1.1180713176727295,14.906906127929688,-8.53941822052002,15.0,-8.097433090209961,-0.7085326313972473,-18.14681053161621,5.4412431716918945,-15.0
23,0.46,-0.014520227632997724,0.03548686917328186,0.6678176734551857,0.9993391929052623,0.02959057465289875,-0.0185255567521523,-0.010118258851880068,0.059591726991071944,-0.036435881027253786,-0.021335287029106077,-0.07997577145558057,0.2098838492923923,0.2546848854098782,-2.3127792150972355,-2.0524172529531794,0.28009218643481787,-0.0006938693103811975,0.0086652664499917,0.6350939633152255,0.902087514562354,-0.23421354602429337,0.020346300906092886,-0.0038747024944654467,0.7154958489350048,1.1184065647985204,3.6983010351966144,-2.0400926742264396,1.9168798483925187,-5.871852207187662,-3.4869269454314393,-11.939122876759665,2.4182674080473783,2.3186338133623536,0.305865731348755,9.758212842688188,23.72437181957906,-7.701126575469971,-1.9617842435836792,-15.92459774017334,-18.521381378173828,-15.0,8.780943870544434,0.7499009370803833,3.193791389465332,25.572284698486328,15.0,-7.701126575469971,-1.9617842435836792,-15.92459774017334,-18.521381378173828,-15.0,8.780943870544434,0.7499009370803833,3.193791389465332,25.572284698486328,15.0
24,0.48,-0.015254109906682788,0.03906216619992962,0.6727337156718536,0.9992704536657013,0.02952132795583712,-0.02411613274721555,0.0023374703820482554,0.058989955329935256,-0.04835392881848825,0.0032514557505714174,-0.013110831772479854,0.16311241049158073,0.23139006116822697,1.5117024507886874,0.4188904624391935,1.992942884911284,0.030983605994178414,0.02933160298475577,0.6250413251308562,0.8348827284703576,-0.08578153907473074,0.010259588759277197,-0.0010084254888174692,0.6827243573911924,1.0965204000450632,3.7679848012035584,3.6972786284302384,0.5603451812389616,3.065426307406716,-3.606186475250061,22.746882874199066,-2.181813688118193,-1.1366289374289178,-2.7351981222611275,-7.564172947988372,-12.843229668492707,12.422004699707031,-5.068783760070801,20.970905303955078,-13.902416229248047,15.0,-6.1614179611206055,-4.9749531745910645,-8.863839149475098,-26.526147842407227,-15.0,12.422004699707031,-5.068783760070801,20.970905303955078,-13.902416229248047,15.0,-6.1614179611206055,-4.9749531745910645,-8.863839149475098,-26.526147842407227,-15.0
25,0.5,-0.016883109724150046,0.04294447967951204,0.6736115968633536,0.999209603817191,0.024171370877632173,-0.029143380451994483,0.012106851168624611,0.04769952082360602,-0.05885995041852283,0.022827202926827876,-0.12835505125881436,0.21789565206218137,-0.08955818584656083,-1.8690261935450305,-1.0251155717205123,0.27515130389199915,0.017098055170705225,0.02601967756947182,0.6185739394996268,0.7930995778479604,-0.039447740500272443,0.03228270066892001,-0.0017166044194006106,0.6702301848313458,1.158289663203532,3.910217450913474,-3.2829488692296316,-0.6976724244364657,-2.5931552231350743,-1.006036644571749,-14.120881694455543,3.0079556543955976,0.5157916903404662,0.48932009295256673,9.388937409591481,23.209470483689948,-11.03646183013916,-2.829232692718506,-17.032398223876953,5.120275497436523,-15.0,8.617053031921387,1.4204834699630737,5.195329666137695,30.0,15.0,-11.03646183013916,-2.829232692718506,-17.032398223876953,5.120275497436523,-15.0,8.617053031921387,1.4204834699630737,5.195329666137695,30.0,15.0
26,0.52,-0.01797466890856135,0.047161690538755636,0.6705116696496279,0.9992708297832739,0.019299290012803803,-0.028309002845650497,0.01685071236284326,0.03768704946348531,-0.05725841717383924,0.032643447559750696,-0.011508420192450278,0.20332178363480188,-0.21796541502686992,0.42750859094719806,0.7427616079457606,0.5670567611945765,0.04219432711244011,0.017542960761787456,0.6493126224827503,0.8615844396452748,0.0801127156347092,0.024745959850348873,-0.017580054008801173,0.6378206458280697,1.1325886975359245,3.9701353084289495,3.936496885535883,-0.25823831794289875,3.9995113491138197,5.81832634202945,22.16915492053249,-2.362989409019469,-1.4364383069297315,-2.7581157184567706,-7.704499767006137,-13.309097687938202,12.73912239074707,-0.5933309197425842,11.380248069763184,13.594436645507812,15.0,-8.540011405944824,-0.19257457554340363,-3.658222198486328,-30.0,-15.0,12.73912239074707,-0.5933309197425842,11.380248069763184,13.594436645507812,15.0,-8.540011405944824,-0.19257457554340363,-3.658222198486328,-30.0,-15.0
27,0.54,-0.01918590218661714,0.050068206407621815,0.6643147143510065,0.9990070402493099,0.030007427453398773,-0.030661663898291294,0.012014582678216097,0.05936744175624745,-0.06202324802122404,0.022209677716600658,-0.03240863389185843,0.1409467692203114,-0.253674419252566,1.066165882754701,-0.27674188941777567,-1.1068477130160113,0.020751481064892295,-0.0009975735630549667,0.6852077398679909,0.8933554561204836,0.11715835397331043,0.049371315444715444,-0.0159035445439981,0.6618565877941363,1.066149953528238,4.09812385823119,-3.997858808019377,-1.855512817752891,0.0394197333653562,-0.7915656061516256,-14.514042463111304,3.824769598178316,0.4914396568311675,5.219641484398879,2.447373486793046,20.673898700783973,-15.0,-0.7081761956214905,-7.293094635009766,-4.104806900024414,-15.0,9.85081958770752,3.5372211933135986,18.801313400268555,-2.306126832962036,15.0,-15.0,-0.7081761956214905,-7.293094635009766,-4.104806900024414,-15.0,9.85081958770752,3.5372211933135986,18.801313400268555,-2.306126832962036,15.0
28,0.56,-0.016433431333486875,0.05421789198765934,0.6626055162955664,0.9993644907831892,0.030738898128641497,-0.014749359556190195,0.010401494901053562,0.06119783576263086,-0.030123989208144804,0.019893348157739934,0.25927126749206597,0.24378657507036874,0.04216050777544001,-0.5019501327164148,2.8156827642286815,0.2813401683915438,0.03162204119130747,-0.033021611545515264,0.7270336106245854,0.9966843508642678,0.2284516295943083,0.035104065710213246,-0.04892990308706914,0.6758406814093083,1.0538457432491215,4.150989937358225,3.297860113058718,-1.4692591392330983,3.3213522870133305,8.502180788648667,21.74549890955277,-3.4637922102235814,-3.0868059211544394,-2.425544637943138,-2.32053375254167,-11.590034385485385,11.313323974609375,2.5756113529205322,9.800557136535645,21.328691482543945,15.0,-12.001575469970703,0.9735331535339355,-15.291574478149414,-30.0,-15.0,11.313323974609375,2.5756113529205322,9.800557136535645,21.328691482543945,15.0,-12.001575469970703,0.9735331535339355,-15.291574478149414,-30.0,-15.0
29,0.58,-0.012177522612943597,0.05741486672767686,0.665512662877762,0.9992056075699696,0.039703129182582134,-0.0030584332008679045,0.0015688595206075052,0.07941858498433094,-0.006236624903154593,0.002892428008036712,0.1935801194709461,0.10643557172318119,0.20107934950511425,1.9360283922494066,0.12163054105383114,-1.7621635097556858,0.00910878230122324,-0.05281892106052043,0.6991557480490178,0.9356632649547667,0.25919696042736573,0.04332926872969064,-0.06658631030581559,0.6959380648694125,0.9988601971002804,4.322783258945789,-3.840579832806138,-0.65206220858713,-4.07572089159892,-9.810409314336145,-14.761417218149775,2.8251062678894883,0.4850565426121842,3.6011165882464766,-3.3878671284462105,24.510765818060914,-15.0,4.827187538146973,-15.897912979125977,-27.81182289123535,-15.0,8.853166580200195,8.435566902160645,23.031864166259766,-21.58592987060547,15.0,-15.0,4.827187538146973,-15.897912979125977,-27.81182289123535,-15.0,8.853166580200195,8.435566902160645,23.031864166259766,-21.58592987060547,15.0
30,0.6,-0.007165601703081806,0.06165946359632168,0.6670488346845137,0.9989137661900453,0.04652607100374261,0.0024888976238033153,0.000646391207067469,0.093089794696118,0.004912259867408309,0.001522994369176387,0.3153175670040148,0.2695652189368192,-0.02938630268481023,-0.17906882061305424,1.0313406530095122,1.0011491315455452,0.007099068864138049,-0.04832741941506688,0.7474009972846452,1.0036479846074222,0.3435047080482124,0.021475930411726494,-0.07304323047736441,0.7123379449090905,0.9638415610798531,4.406043884354544,2.3727166350159976,1.0386637405278254,5.597019615298925,10.124882319833773,20.089539064837208,-3.407621270425897,-1.0243633599196045,-1.1881323589681938,-0.2572678566518745,-11.8805847554937,10.444022178649902,2.9725263118743896,20.80201530456543,28.76942253112793,15.0,-11.186108589172363,2.949218511581421,-20.149099349975586,4.635045528411865,-15.0,10.444022178649902,2.9725263118743896,20.80201530456543,28.76942253112793,15.0,-11.186108589172363,2.949218511581421,-20.149099349975586,4.635045528411865,-15.0
31,0.62,-0.002744337249482536,0.06721739654117523,0.6671259913858857,0.9995540533292314,0.029478356819245672,-0.002810477063459317,-0.0038499572746938508,0.05898712081823914,-0.005391492772696607,-0.007862372564915555,0.16064070305652398,0.2801177452181282,-0.013783898097906842,-2.5383984238888986,-1.4554318508399346,-1.4763982185557023,0.0022121478670883397,-0.025575782293869358,0.6766529305195624,0.9478698139022559,0.3419226978813331,0.045241443374366745,-0.04498627226653103,0.7198552051748601,1.0744456987039501,4.564062895175165,-1.7201213351656424,1.1362123422999926,-8.850355237256178,-10.2503032009364,-16.34737487891383,3.8125245617351804,2.6415356975577016,1.3495699259029357,8.844854206198491,24.033259513095523,-5.497416019439697,-0.5431740283966064,-29.618000030517578,-30.0,-15.0,11.420825004577637,4.639922142028809,10.0603609085083,19.67933464050293,15.0,-5.497416019439697,-0.5431740283966064,-29.618000030517578,-30.0,-15.0,11.420825004577637,4.639922142028809,10.0603609085083,19.67933464050293,15.0
32,0.64,0.0008054116595930311,0.07284780342165229,0.666696080383073,0.9996297357010493,0.026133689280963664,-0.007440378093269243,-0.001436161775624317,0.05229896054594725,-0.014800722334440327,-0.003260511986852864,0.20622129204880366,0.2647146023846828,-0.08739049846259166,1.2564599273100283,0.4211870225295621,1.418853906587546,0.031398501744986,-0.0013293970526616194,0.6875669776807,0.9361989652515974,0.425994714272113,0.02714074027115936,-0.028051471124926734,0.7136015325549979,1.0792007008559585,4.638981271022792,3.4405149724219175,1.0637936774978964,5.5790323567102105,2.542605103391864,20.542659219575196,-3.5918074374381663,-0.43994021896854457,-1.0847051998307984,-4.827111586292957,-12.613498674878416,10.833409309387207,-1.89272940158844,30.0,1.0026096105575562,15.0,-10.671917915344238,-3.360793352127075,-9.207986831665039,-17.627124786376953,-15.0,10.833409309387207,-1.89272940158844,30.0,1.0026096105575562,15.0,-10.671917915344238,-3.360793352127075,-9.207986831665039,-17.627124786376953,-15.0
33,0.66,0.0022711725939625945,0.07913194425222679,0.6667175650460628,0.9996553856387675,0.015138379104849905,-0.021090926013518908,0.003887451784533186,0.03013385276150843,-0.04229762623553599,0.007140106163474069,-0.05706674085339633,0.3718272353736092,0.17070263239622424,-2.7902997674112733,-2.955655810481213,0.09297945414968992,0.027317765769233348,0.030548579848543728,0.6521486986166152,0.8714492517164595,0.477038109076315,0.04651867046859218,0.0056780460458027045,0.7099316743370778,1.167990793650487,4.785901443624215,-2.3475374417288015,2.773317167834894,-5.968737907983839,-3.2743466073246705,-9.832130402618247,3.5741096610490253,3.2541311008074274,-0.08685013450077456,9.855600233475988,23.44503523597225,-7.730483055114746,-2.657313108444214,-21.9879207611084,-30.0,-15.0,12.453614234924316,0.508750855922699,3.2238619327545166,30.0,15.0,-7.730483055114746,-2.657313108444214,-21.9879207611084,-30.0,-15.0,12.453614234924316,0.508750855922699,3.2238619327545166,30.0,15.0
34,0.68,0.0017367113801759612,0.08555390407036662,0.6702655014117268,0.9991799016109261,0.01944649917415929,-0.031772797234441055,0.015869695729574643,0.0379397855566676,-0.06415470008227565,0.030545200319242394,-0.008832635440026012,0.290349221646268,0.17258276292469135,2.5896816800325047,0.1883292677908754,2.0108917476927113,0.05316498684731127,0.06518789075475583,0.6515412130261768,0.7867259956232541,0.6930890803775019,0.03396925761791556,0.014039935247724712,0.6923236488803756,1.1399999507144056,4.8504102767939745,3.3853411624717626,1.1449661839014584,3.860473808036054,-5.295371047377851,27.121667523274215,-3.0429818117429828,-1.3410268191914008,-1.2157127865492396,-8.196361075934757,-13.087677632259641,13.05506706237793,-8.368882179260254,27.141250610351562,-22.909276962280273,15.0,-8.881795883178711,-6.960434913635254,-5.411234378814697,-28.345273971557617,-15.0,13.05506706237793,-8.368882179260254,27.141250610351562,-22.909276962280273,15.0,-8.881795883178711,-6.960434913635254,-5.411234378814697,-28.345273971557617,-15.0
35,0.7,0.0003192440645356381,0.09231229312171786,0.6704280835705323,0.9988420797359173,0.016436587762820733,-0.0373228382264525,0.02552144349885954,0.031023315330556175,-0.0754698354108023,0.049919630691150275,-0.1154044832438677,0.37334557416906555,-0.10953658516115064,-2.185508014909137,-0.9842524180160603,0.25692866575537243,0.036476307018113316,0.06025016812813762,0.6483466891476776,0.725830409376389,0.8243001450537774,0.05907686322196748,0.007649439298343705,0.6786765693437956,1.1845505884062064,4.987679483442802,-3.306110944680702,-1.2338621256713014,-2.826940132563941,-1.4946934905160854,-9.97910634813425,3.7470799350128163,0.17419257740798721,-0.526066992623927,8.49923799919822,22.958587013194858,-10.225674629211426,-5.8268866539001465,-18.33587646484375,5.579591751098633,-15.0,10.881763458251953,1.4656404256820679,-0.07533960044384003,30.0,15.0,-10.225674629211426,-5.8268866539001465,-18.33587646484375,5.579591751098633,-15.0,10.881763458251953,1.4656404256820679,-0.07533960044384003,30.0,15.0
36,0.72,-0.0007459166527304982,0.09957077494770358,0.6665183550293953,0.9988171101541328,0.011379768747488968,-0.0369905921877419,0.029437687004949233,0.020613619332464507,-0.07463292678242932,0.05815842943631658,-0.017120249809446507,0.3526750254915015,-0.26972360693090086,0.5946902538611072,0.6303321643316704,0.41610722516368026,0.05223231674325475,0.04548146263831508,0.6826746254158325,0.797250258280879,1.0243320595553738,0.045346646826323105,-0.013719792834061195,0.6455456962661328,1.1532787346575988,5.042718991669017,3.216130521821327,-0.4585393234020138,4.392899778408126,6.29214884603614,26.099692395099662,-3.290912483529476,-1.6271271636933649,-2.2177548411894032,-7.6646844178653115,-13.546312958565474,11.08364200592041,-1.0697120428085327,11.392674446105957,15.252415657043457,15.0,-11.602598190307617,0.7856963276863098,-0.35404491424560547,-30.0,-15.0,11.08364200592041,-1.0697120428085327,11.392674446105957,15.252415657043457,15.0,-11.602598190307617,0.7856963276863098,-0.35404491424560547,-30.0,-15.0
37,0.74,-0.0008606758733507305,0.10593867114699893,0.6622061221252177,0.998971530159793,0.01823028985426236,-0.034557777163118274,0.02300648820607769,0.034925444040488286,-0.06994030756044602,0.04483023706014216,0.0361274475350589,0.3130404986617479,-0.11174769925135991,0.5625414223232558,0.3258425902127291,-1.2696901021972946,0.029899227982184674,0.009753457520633379,0.7127848734309901,0.8356759574958327,1.137858904661485,0.07049175918746887,-0.02233884021580546,0.6710507997622396,1.0948555032614782,5.158454028014376,-3.6805252646053717,-2.8458392976855116,-0.4563178825076692,-0.4486395744053751,-10.776172521544595,4.031471031433183,-0.03265215991663073,3.9102695395081493,0.6137358616421644,20.873665416807597,-13.867714881896973,-1.6939359903335571,-9.199639320373535,-2.931929349899292,-15.0,11.33804702758789,4.16953706741333,16.333175659179688,-11.305524826049805,15.0,-13.867714881896973,-1.6939359903335571,-9.199639320373535,-2.931929349899292,-15.0,11.33804702758789,4.16953706741333,16.333175659179688,-11.305524826049805,15.0
38,0.76,0.002795265066541673,0.11333416337127998,0.6622339643400357,0.9994925404420166,0.018132622219570262,-0.017604956793335614,0.019389046095964885,0.03559460417956111,-0.0359029072319065,0.03815380385083042,0.2931097029548401,0.402190553591448,0.10520029646890366,-0.32747513362068753,2.6221806824056233,0.06682131359006947,0.03255387614318094,-0.02860684407011823,0.7564272800673972,0.9620088911737962,1.3216799997704611,0.04979767614748585,-0.05557833398950274,0.6800613687427065,1.060282265501998,5.221637944921423,2.4367869773606943,-1.3913074439524127,3.669411928164429,10.067017256597461,25.28477297589091,-4.078405130255397,-2.802565229835392,-1.9307685173488993,-2.736459823624079,-10.817023714888252,8.147350311279297,4.443746089935303,9.392293930053711,25.172775268554688,15.0,-13.757990837097168,3.090416431427002,-11.025317192077637,-30.0,-15.0,8.147350311279297,4.443746089935303,9.392293930053711,25.172775268554688,15.0,-13.757990837097168,3.090416431427002,-11.025317192077637,-30.0,-15.0
39,0.78,0.00808771190971516,0.1196176519187779,0.6675045841258965,0.9994879902565674,0.030789636304728973,-0.00502401171640376,0.007107385974129838,0.061518500574177105,-0.010480738281939843,0.013899329753992946,0.2564670306570804,0.2542714182492959,0.3555816940168141,2.498983866133695,0.37345851559903187,-2.2076080587534483,0.009426411198163516,-0.05240300744037624,0.733237248658715,0.9142625246429394,1.4215956952976128,0.051856576352602594,-0.07298604344286055,0.69507666600341,0.9821559984343299,5.31201334879519,-3.3679674868627747,-1.0402271353740162,-3.821063149236382,-9.653051189098953,-11.371009444424416,2.7141912945017297,0.3329716707724038,2.8181862113764713,-5.071647831650814,16.564234389818747,-13.288846015930176,4.097281455993652,-15.35791015625,-28.588825225830078,-15.0,9.950579643249512,8.704813957214355,22.41536521911621,-30.0,10.137988090515137,-13.288846015930176,4.097281455993652,-15.35791015625,-28.588825225830078,-15.0,9.950579643249512,8.704813957214355,22.41536521911621,-30.0,10.137988090515137
40,0.8,0.014952487661842737,0.1259968405080799,0.6699800167397558,0.9988771420812256,0.04712461719568064,0.004802952037405879,-0.0008106377316937539,0.09427962962403802,0.009671670777536981,-0.001166835286984046,0.40156117316261175,0.36254978765146767,-0.01657409788195423,0.92462275856362,1.2924471811885343,0.10583368670376084,0.011938573959655849,-0.04350531582420618,0.769805619203617,0.9693049962406479,1.5926701056529733,0.0331290196763107,-0.08562597307483495,0.7146659166420417,0.9285717213085914,5.242690467185965,2.1793846495348648,1.434785975642094,4.914761072929987,9.864614102677761,24.627907289023867,-3.131248455961062,-1.263540680862848,-0.5284504436852648,-0.7485317377289884,-19.25237846624739,8.803142547607422,3.457123041152954,18.451990127563477,30.0,15.0,-10.655957221984863,4.065977096557617,-16.299856185913086,4.8205976486206055,-15.0,8.803142547607422,3.457123041152954,18.451990127563477,30.0,15.0,-10.655957221984863,4.065977096557617,-16.299856185913086,4.8205976486206055,-15.0
41,0.82,0.02128291955368463,0.13363207266407878,0.6700179404366821,0.999214349798723,0.03841853466438308,0.0026581508850608043,-0.00936128113181851,0.07680381696065983,0.006031454992994267,-0.018505001035159827,0.2646944806426239,0.39070351880979937,-0.024085065639327705,-1.9043124110572835,-1.1249341464242473,-1.5412157739714851,0.00555745482602407,-0.014311556676225173,0.6899622620115579,0.9136957190374877,1.6795406330470422,0.05382344848611794,-0.059480428186400314,0.7304039414345064,1.0647492683956294,5.260953497849508,-1.7138282407744738,1.3949159753391112,-9.115504347102627,-10.078390569597252,-12.016638162867597,3.4446878844716906,2.674112144220074,1.5018392399834197,11.12311327816271,17.172823996244144,-4.5678582191467285,-2.061795473098755,-27.065053939819336,-30.0,-15.0,10.121716499328613,6.3791184425354,5.834543228149414,27.32042121887207,15.0,-4.5678582191467285,-2.061795473098755,-27.065053939819336,-30.0,-15.0,10.121716499328613,6.3791184425354,5.834543228149414,27.32042121887207,15.0
42,0.84,0.02601391249892734,0.14231026494532742,0.6716687976419035,0.9993136993808712,0.03636378733202624,-0.002217447531934127,-0.006699860224782202,0.07277215448264036,-0.003944597037449228,-0.013552314070967495,0.28214302211991266,0.4077405654886396,-0.011100368638218765,1.3889136832573716,0.6676676798580208,1.3867201035267942,0.029025891571289625,0.012897415016837943,0.7072733793066277,0.9083500173115421,1.8152907847866482,0.03493187593678669,-0.03390224051262405,0.7061197279851389,1.0995272885292469,5.202389543256464,3.264558038232353,0.9698023060126432,5.3596124410576325,1.4729667175644476,22.87219606399314,-3.340311780188966,-0.14603500325767083,-2.2508484486610145,-3.7458928760571233,-19.139085894025495,11.34380054473877,-3.325376510620117,30.0,-1.0398839712142944,15.0,-9.750408172607422,-2.37187123298645,-12.6370267868042,-16.56144905090332,-15.0,11.34380054473877,-3.325376510620117,30.0,-1.0398839712142944,15.0,-9.750408172607422,-2.37187123298645,-12.6370267868042,-16.56144905090332,-15.0
43,0.86,0.028573218773569223,0.15167558132943032,0.6733835007616811,0.9994972246391349,0.028227472519259778,-0.014026598835696034,-0.0034296149849391507,0.05657487353594339,-0.027849074171807615,-0.0076506934276951285,-0.028774980839166756,0.537433540662376,0.2662336197747417,-2.391074967004427,-2.8170412992296043,-0.14256384484274723,0.029753479228140586,0.04222012037612123,0.6737548791145616,0.826123856024931,1.9098833878100572,0.053238109760897115,0.0028233034502717054,0.687580569311458,1.204646412168406,5.2224808758513825,-1.7620795392240656,2.6156499698029805,-5.691545848517534,-4.182219820783863,-7.706769733260953,3.3141945295076516,3.268694258074353,-0.5581705211925765,10.489152992152878,17.249637027647363,-6.30756139755249,-3.469388246536255,-23.98685073852539,-30.0,-15.0,11.64574146270752,0.6711056232452393,5.453378200531006,30.0,15.0,-6.30756139755249,-3.469388246536255,-23.98685073852539,-30.0,-15.0,11.64574146270752,0.6711056232452393,5.453378200531006,30.0,15.0
44,0.88,0.028704939106604425,0.16138202255085354,0.6781154811971116,0.9991901848047384,0.03360483298770987,-0.021809919247419807,0.003743956752337842,0.06710674258171244,-0.04385019603480063,0.006021837236617453,0.027369352833634113,0.45422428063799203,0.20327756076543535,2.4560288598073283,0.5980240749515069,1.2936400971001893,0.04942780197714833,0.0690674696205002,0.6724207646429373,0.723639529885824,2.1411247696943807,0.0383051007513592,0.01065169343600763,0.6606859536828683,1.1972708694876526,5.166296705585942,2.5259987607897916,0.5474056774022631,3.6284057863443824,-6.113245804405574,26.831216618582133,-3.0720692775683136,-1.4089858386698733,-1.649078165019916,-6.925066183360666,-18.99053913109791,11.305842399597168,-8.794110298156738,23.747182846069336,-19.28382682800293,14.744760513305664,-9.0736665725708,-6.237689971923828,-4.949280738830566,-26.855607986450195,-15.0,11.305842399597168,-8.794110298156738,23.747182846069336,-19.28382682800293,14.744760513305664,-9.0736665725708,-6.237689971923828,-4.949280738830566,-26.855607986450195,-15.0
45,0.9,0.02814586508477813,0.1717049847676231,0.6785670226385945,0.9992294685396561,0.030749836905585765,-0.024166977159432182,0.003297566862613178,0.061403694962206816,-0.04851854437211403,0.005109826176461214,-0.06848681609952433,0.5617557776879137,-0.10240744625587311,-2.127585421959247,-0.8055038030004481,-0.9634719785010528,0.03907986368213736,0.0579821365076864,0.6849618285852005,0.6963442667461105,2.26597294106636,0.06451220262180814,0.0036940542223629523,0.6421656464760327,1.2578253184911252,5.1888615521138215,-2.3071290093435284,-1.3251536998658935,-1.5315099747735514,1.6129463058539262,-10.311654009529914,3.847227759727655,0.2332081470140606,-0.6592534775595102,9.025886794023648,17.355517288581424,-7.403740406036377,-4.779198169708252,-17.45551109313965,13.98127555847168,-15.0,11.050422668457031,2.342789649963379,1.296392560005188,30.0,15.0,-7.403740406036377,-4.779198169708252,-17.45551109313965,13.98127555847168,-15.0,11.050422668457031,2.342789649963379,1.296392560005188,30.0,15.0
46,0.92,0.027775651719179267,0.18247312944610716,0.6754665155370239,0.9994000934414441,0.02514177657547407,-0.02337109378512614,-0.004597420488750921,0.05054441082302023,-0.0464997273190217,-0.010375908044781812,0.010624077752843514,0.5201617898700193,-0.20844669424476442,0.4308535429037249,0.5409187212551512,-0.7561561030347078,0.05313754353582405,0.04107987499156307,0.7164938986471574,0.7757737678644347,2.460146487484633,0.04904154902993017,-0.007973383830723633,0.6065281407300541,1.2399727704069279,5.134808078181989,2.4986078650167522,-0.5753434029438362,3.4426129549788955,5.191403421495946,25.8298858873079,-3.5028352326100145,-0.8920952564974765,-2.2729758325125164,-6.95085513884034,-18.879783698965035,8.099255561828613,-0.3221149742603302,7.960351943969727,10.711687088012695,15.0,-12.049494743347168,1.4427893161773682,0.7421327829360962,-30.0,-15.0,8.099255561828613,-0.3221149742603302,7.960351943969727,10.711687088012695,15.0,-12.049494743347168,1.4427893161773682,0.7421327829360962,-30.0,-15.0
47,0.94,0.027458363300875015,0.19144491966019514,0.6693278875512338,0.9985845357413962,0.04110157906708686,-0.024626223394146607,-0.023089701117034164,0.08341391799671319,-0.04730232328654758,-0.04821096952726244,-0.03566204038364587,0.4035868129986471,-0.39453084610496586,2.364758061798124,-0.6623067442596964,-2.62180763964161,0.03490359853714123,0.01150222467211205,0.7742609468914922,0.8344105386485196,2.568082413728847,0.0646260730618116,-0.001924812682997299,0.6081981901772471,1.085117672307535,5.1633462685248945,-2.967869301816877,-2.02957779390608,2.5588562455598187,1.683806652817822,-11.05786995925546,3.3423506279884596,1.158346787767669,1.6995501724524522,-8.392522841639384,17.76908641815031,-11.61465072631836,-0.9966749548912048,-1.9386200904846191,1.8192455768585205,-15.0,11.776206970214844,3.044121503829956,15.734870910644531,-18.345951080322266,15.0,-11.61465072631836,-0.9966749548912048,-1.9386200904846191,1.8192455768585205,-15.0,11.776206970214844,3.044121503829956,15.734870910644531,-18.345951080322266,15.0
48,0.96,0.028943119533626063,0.20100314739980782,0.6628413460178362,0.9975246575040884,0.050269848519648906,-0.020191230115320872,-0.04483095166950236,0.10234518787725128,-0.03578284515381849,-0.0916568511072984,0.16789710117873044,0.5151730913044384,-0.2452619635561375,-0.19012713226792552,1.1857459745567491,-1.9092493361378282,0.03689669227621163,-0.01615946868710057,0.8189097935166447,0.9357243564578911,2.7470451858205718,0.07058095263408595,-0.007700855615201511,0.6468428932097806,1.0521737532331226,5.09761456791608,1.9567806842264226,-1.0346703822565766,1.9035895108253866,7.029403367765485,25.063724505521563,-1.6549120580049639,-1.3426408438243125,1.3489160479667597,1.867062706574306,-19.600474278122288,7.293196201324463,1.8888707160949707,2.147054433822632,16.494779586791992,15.0,-8.306947708129883,-0.14986801147460938,-4.750149250030518,-4.736122131347656,-15.0,7.293196201324463,1.8888707160949707,2.147054433822632,16.494779586791992,15.0,-8.306947708129883,-0.14986801147460938,-4.750149250030518,-4.736122131347656,-15.0
49,0.98,0.03244527406763675,0.21042453803758182,0.6600466915587563,0.9963434400923369,0.05656793415567355,-0.012631005399961178,-0.06277161709653904,0.11457710852354488,-0.018068900527135556,-0.12687396063011597,0.20913659898866307,0.44872577363657784,-0.03932020719458191,0.9892697741875294,0.6295462660893953,-1.7476615657096033,0.026617413491555705,-0.0396097207029706,0.795614093375823,0.8969376696166573,2.8422043561895056,0.07472865125697084,-0.017863544588952306,0.6917264275698001,1.0469630975730297,5.091577929937099,-1.9908200972554466,-1.342157743805957,-2.9268673809968617,-7.18119930415939,-11.613972695432206,1.5459789810168778,-0.2887791309731892,3.53233217440582,-0.9804058363453644,14.305896394983586,-8.922933578491211,2.2686166763305664,-5.386359214782715,-23.050878524780273,-15.0,4.2691497802734375,3.5951976776123047,8.788610458374023,-16.56093406677246,15.0,-8.922933578491211,2.2686166763305664,-5.386359214782715,-23.050878524780273,-15.0,4.2691497802734375,3.5951976776123047,8.788610458374023,-16.56093406677246,15.0
50,1.0,0.03842442174840679,0.22073552415267697,0.6616516443366938,0.9960376059610808,0.05576606635702293,-0.0004975010286459479,-0.06927471289807252,0.11139186659896347,0.006735347930232436,-0.13850143677211194,0.4020400659207903,0.5149137744968844,0.0951578222445893,-0.6889604163875247,1.8995699184138362,-0.27076443212152046,0.019597139127516403,-0.05683667551753542,0.8526181690662475,1.0021020366231148,2.982384867790516,0.05766564001863739,-0.03886972025731344,0.6860090913142627,1.008771349180077,5.013898321307108,1.0304114671841689,-0.3982482499760453,5.149787687957263,10.769471957736469,22.795118626902397,-2.2381939393409462,-1.9010619147775545,-2.719448161475319,-2.2702371664416297,-18.280081004394898,3.849316358566284,4.201822757720947,13.910409927368164,30.0,15.0,-6.694179058074951,3.418473720550537,-14.413829803466797,-18.794185638427734,-15.0,3.849316358566284,4.201822757720947,13.910409927368164,30.0,15.0,-6.694179058074951,3.418473720550537,-14.413829803466797,-18.794185638427734,-15.0
51,1.02,0.04439589713528955,0.23108354264453584,0.6645139569363794,0.9948708783258107,0.05040573855125561,0.00023194229124484872,-0.08769916295556916,0.10042678324379073,0.009302721596877403,-0.17538054118754626,0.231124946877361,0.5155230597115492,0.13913047293548902,-0.28612096099398,-1.2828662185892632,-3.028898707887365,0.006034484194795898,-0.05016947796589461,0.8057886321356946,0.9482256767598635,3.033723866740675,0.06019300775730798,-0.028311415006399086,0.6843038684456108,0.9890645704947963,5.050400362398153,-1.692428321275101,0.7596177775300664,-6.718239822775513,-10.496221139985943,-13.75331141771764,1.4734344854760897,1.9887238678049732,1.8140081363802691,-0.43074484181922007,18.140641907229924,-5.493488311767578,2.9958555698394775,-27.827455520629883,-30.0,-15.0,4.643600940704346,5.823592662811279,19.86510467529297,-5.024242401123047,15.0,-5.493488311767578,2.9958555698394775,-27.827455520629883,-30.0,-15.0,4.643600940704346,5.823592662811279,19.86510467529297,-5.024242401123047,15.0
52,1.04,0.050477774525650485,0.24124422235502913,0.6620698584059231,0.9934106135318587,0.054799846100501905,0.00038884800927918887,-0.10065872335195032,0.1090226414403827,0.011805010761410635,-0.2013193452092622,0.3486494663799027,0.510909528661798,-0.28839185191865757,0.7222997464818726,0.7692214709753877,-0.03201154731169961,0.02226329864809643,-0.03563885058661378,0.82536886308517,0.9223112759163028,3.146604893543219,0.04248322254677524,-0.019912667720963097,0.7120823409092963,0.9983677757584728,5.0074346172658215,2.245629967570359,0.6317861020912131,5.683304371045022,3.8478571145825518,21.05822763049163,-2.2296376428158777,-0.47284245532834246,0.7109502029690414,1.1213960589300078,-18.478873899172573,8.29227352142334,-1.013893723487854,28.758861541748047,12.3875093460083,15.0,-6.131030559539795,-1.82700514793396,-13.871391296386719,8.821493148803711,-15.0,8.29227352142334,-1.013893723487854,28.758861541748047,12.3875093460083,15.0,-6.131030559539795,-1.82700514793396,-13.871391296386719,8.821493148803711,-15.0
53,1.06,0.05505042128584566,0.2543967333930885,0.6605082956404114,0.9938449198538886,0.029285689628851988,-0.009375020977660325,-0.10642712363513918,0.06024745138015406,-0.012401368396038615,-0.2137331046826669,0.11286739691716471,0.7953837677708828,0.15113692752496471,-4.585930158015819,-3.0252845010577403,-0.7557519124977696,0.020323768123611106,-0.006979050278789169,0.7719808256093017,0.8784923709788519,3.218246384635881,0.05771222241871073,0.015336587994144162,0.7008825161484055,1.1535973727972864,5.040740537745623,-1.5394933964083004,2.63155046866422,-7.432151641698235,-3.048072925391446,-8.574847999619392,2.4183553520797263,3.3675092845846972,-1.7132767619072047,11.595211463252278,17.906442070575828,-2.6080710887908936,-0.8525003790855408,-28.981170654296875,-30.0,-15.0,8.297564506530762,1.1824085712432861,-1.8887441158294678,28.89147186279297,15.0,-2.6080710887908936,-0.8525003790855408,-28.981170654296875,-30.0,-15.0,8.297564506530762,1.1824085712432861,-1.8887441158294678,28.89147186279297,15.0
54,1.08,0.05796859332353166,0.2679694447324063,0.6617690716419691,0.993886176649394,0.025632616683310946,-0.017687165392472677,-0.10592639429149132,0.05475041712882873,-0.029732097375919687,-0.21316855823230038,0.16752205344681345,0.5997105930680834,-0.013589469416626851,2.5668411072673156,0.6048358879614668,0.6738080928957491,0.05036351010200052,0.023107432141928917,0.7666501643621413,0.796234704278821,3.4515075478664583,0.04445158692312867,0.02606578230266591,0.6817020796132643,1.1511533181888962,4.997785506864199,3.2181381737823576,0.7259587081785064,4.3421615685627675,-5.419229095971576,27.560736572110173,-2.3857120621820016,-1.2994508846067032,-0.257213234535897,-7.197928185078833,-18.330569639534524,10.734898567199707,-6.662515163421631,29.98468589782715,-20.670560836791992,14.523571014404297,-5.808081150054932,-7.112730979919434,0.04615059867501259,-29.18863868713379,-15.0,10.734898567199707,-6.662515163421631,29.98468589782715,-20.670560836791992,14.523571014404297,-5.808081150054932,-7.112730979919434,0.04615059867501259,-29.18863868713379,-15.0
55,1.1,0.06004259466532326,0.2820928460939963,0.6602713029664188,0.9939629656962973,0.019155977352124022,-0.023919633654353675,-0.10534952530386339,0.0431748027120348,-0.043528057843094214,-0.21213026120088047,0.05098198916073331,0.7924517585920237,-0.09541095569111221,-2.6808627067143407,-1.6346544513509673,-0.2866171633067909,0.03213930321111811,0.030551511600987045,0.757823612678944,0.7322798046798626,3.6202290019556997,0.062589032198988,0.028627566335797824,0.6738611163519158,1.2065585708326083,5.033019757939926,-3.4053637471304863,0.2370464584056387,-3.498848786267521,-1.157953169215924,-6.4224049618347046,2.7713589850863576,1.0204063599734772,-0.6954420560448147,8.759689378175104,17.96978690836584,-10.354860305786133,-2.9158780574798584,-21.260499954223633,-0.05022019147872925,-15.0,8.240178108215332,1.3274627923965454,-0.5397576093673706,30.0,15.0,-10.354860305786133,-2.9158780574798584,-21.260499954223633,-0.05022019147872925,-15.0,8.240178108215332,1.3274627923965454,-0.5397576093673706,30.0,15.0
56,1.12,0.062272524223335464,0.2969849643966812,0.6566571743051527,0.9936179680062559,0.011552551433584727,-0.024435955401845785,-0.1095114436672807,0.028343511814262992,-0.04604600519827292,-0.22019629502365407,0.14542156137804824,0.7109284560082784,-0.2548268610967833,0.49724138946121355,0.7719560503760227,-0.5284334498882723,0.046690873446880485,0.03701293189049804,0.781499008939545,0.7840852906454719,3.6184485243576283,0.05326183016739846,0.014334527153634207,0.6410986941048615,1.176139182900469,4.990952568617293,3.2060201097725427,0.28317688244710315,3.971928585967545,4.576864089047276,5.085757227391257,-2.361862231511314,-1.6691244273321486,-2.054677372539008,-7.770654434312114,-18.29491723310599,12.224662780761719,-2.760270833969116,13.820537567138672,9.426206588745117,4.757207870483398,-8.013435363769531,-1.6115312576293945,-1.0721724033355713,-30.0,-15.0,12.224662780761719,-2.760270833969116,13.820537567138672,9.426206588745117,4.757207870483398,-8.013435363769531,-1.6115312576293945,-1.0721724033355713,-30.0,-15.0
