step,time_s,torso_x,torso_y,torso_z,quat_w,quat_x,quat_y,quat_z,roll_rad,pitch_rad,yaw_rad,body_vx,body_vy,body_vz,body_wx,body_wy,body_wz,l_hip_roll_pos,l_hip_yaw_pos,l_hip_pitch_pos,l_knee_pos,l_wheel_pos,r_hip_roll_pos,r_hip_yaw_pos,r_hip_pitch_pos,r_knee_pos,r_wheel_pos,l_hip_roll_vel,l_hip_yaw_vel,l_hip_pitch_vel,l_knee_vel,l_wheel_vel,r_hip_roll_vel,r_hip_yaw_vel,r_hip_pitch_vel,r_knee_vel,r_wheel_vel,l_hip_roll_torque,l_hip_yaw_torque,l_hip_pitch_torque,l_knee_torque,l_wheel_torque,r_hip_roll_torque,r_hip_yaw_torque,r_hip_pitch_torque,r_knee_torque,r_wheel_torque,l_hip_roll_ctrl,l_hip_yaw_ctrl,l_hip_pitch_ctrl,l_knee_ctrl,l_wheel_ctrl,r_hip_roll_ctrl,r_hip_yaw_ctrl,r_hip_pitch_ctrl,r_knee_ctrl,r_wheel_ctrl
0,0.0,0.00014457414644967307,0.002193882874262315,0.7048212145409856,0.9999829780845877,-0.005130277701111914,0.0014684959934962375,0.0023595150573790685,-0.010253675498656356,0.0029611562561866673,0.004703920173420835,0.0020308883738098756,-0.0728584620637764,0.031109817766795785,2.11126134941359,0.08356091301888165,0.5012094702001265,-0.01118680086978896,-0.00511812067764091,0.35025021137533374,0.6016813084061435,-0.00313822666689657,-0.007028100732274344,-0.0013676738820720621,0.338728216215179,0.5983878073795372,-0.0856941426960738,-0.2694754709728398,-0.11951545520857983,2.73805096133027,-0.14487712455389645,2.309888616526823,-1.043694039305122,-0.09537359212868111,1.4876468479710951,-0.6914474805546562,-5.018676133702256,-1.0279521942138672,-2.296137809753418,10.260902404785156,-6.7167510986328125,0.3998584747314453,-1.8073234558105469,2.0061702728271484,5.241886138916016,-7.482372283935547,-2.9637022018432617,-1.0279521942138672,-2.296137809753418,10.260902404785156,-6.7167510986328125,0.3998584747314453,-1.8073234558105469,2.0061702728271484,5.241886138916016,-7.482372283935547,-2.9637022018432617
1,0.02,-9.599124035062392e-05,0.0019757509986394533,0.7053712439253117,0.9999830118564621,-0.0025548051927048784,-0.0023197308057454776,0.004697639608883711,-0.005131395274378299,-0.004615396073604167,0.009407211472925585,-0.025774648672133776,0.026537455099626007,0.009436547632106669,-0.9068372639789252,-0.7108127423271879,0.10133263378824926,-0.007327820737907871,0.00358880305892217,0.34441903460736584,0.585880659333854,-0.04464711937289334,-0.0003719821633049484,0.008912812692381325,0.3356790558529743,0.6186119855710992,-0.13630035300957538,0.49752946417048693,0.819085046843966,-2.1633866186156925,-1.0300994074153558,-5.544279307752163,1.0663838987028313,0.9247322162843583,-1.3153746366208199,2.134013891183362,-0.17968200822445624,2.0984039306640625,0.07346343994140625,-8.351322174072266,-4.048131942749023,-3.507479667663574,2.5823745727539062,1.9290523529052734,-6.591501235961914,7.169246673583984,2.153026580810547,2.0984039306640625,0.07346343994140625,-8.351322174072266,-4.048131942749023,-3.507479667663574,2.5823745727539062,1.9290523529052734,-6.591501235961914,7.169246673583984,2.153026580810547
2,0.04,-7.267836901699495e-05,0.001985366578068281,0.7049323360376731,0.9999895019648354,0.0003465089669144002,-0.0013089390868335847,0.004377507295556388,0.0006815532712737819,-0.0026208873826516752,0.008754157440819615,0.04652483397312621,-0.02002033580538234,0.006341225758241873,1.0051043318050235,0.9718383566449278,-0.16625853265862942,0.0034398240547984793,0.0009511238236820309,0.35334596338861635,0.6018889294388183,-0.002716962902856463,0.0015780084390995181,0.007495323211712826,0.32561949556186875,0.6054823559855721,-0.1918824133998202,0.5838043217331103,-1.0763207282702811,1.7524435113292347,1.8271020128493212,8.767255796471025,-0.4245081146805495,-1.0386789697482577,0.17330774223101467,-1.17260940107975,-4.3478270836707145,0.6973705291748047,-2.024839401245117,4.177001953125,5.112636566162109,6.255329132080078,-1.1301898956298828,-1.2693443298339844,6.501808166503906,-14.463915824890137,-2.161952018737793,0.6973705291748047,-2.024839401245117,4.177001953125,5.112636566162109,6.255329132080078,-1.1301898956298828,-1.2693443298339844,6.501808166503906,-14.463915824890137,-2.161952018737793
3,0.06,-0.0001377190506968843,0.0020067919171971476,0.7062596049513898,0.9999848193626785,0.004458064476631987,-0.0016886728032043062,0.002763166567042918,0.008906830736829697,-0.00340193764744981,0.005511252607188349,-0.044639430846662706,0.005046058217774055,0.10460203567918554,0.11387316752782603,-0.786844440353375,-0.128982233010843,0.01099670891466019,0.001616862012498167,0.3481784737925365,0.5792490514723718,0.011676055428295432,0.0052143409128824715,0.009618041493914854,0.32357524784664976,0.5988151680709587,-0.18750760964708638,0.30080452509436045,0.8421674210562979,-1.648236212954034,-2.29662587364417,-4.7456693971604995,0.4946850395227798,0.9475714291696098,-0.35329443540228883,0.20360847720388675,4.281315928490554,0.2123699188232422,0.0063877105712890625,-1.7152729034423828,-15.309285163879395,-6.277406692504883,1.1639041900634766,2.4229736328125,-2.2947254180908203,2.386932373046875,3.799501419067383,0.2123699188232422,0.0063877105712890625,-1.7152729034423828,-15.309285163879395,-6.277406692504883,1.1639041900634766,2.4229736328125,-2.2947254180908203,2.386932373046875,3.799501419067383
4,0.08,-0.00048526254107533274,0.0023230997352565747,0.706796643388997,0.9999536756755333,0.00651016571409046,-0.005918276966826375,0.003903619232086874,0.01297480356479075,-0.011887111975765797,0.007730442023283706,0.01593877075465608,0.02103885845969409,0.00392508054225491,0.19238080555267728,-0.0037846048917942396,0.26551289115963916,0.019417750090652486,0.012903490533206266,0.3531855812552268,0.6078922975157477,0.0963575926999155,0.003860281485137879,0.020458613993528343,0.31366180443642927,0.5925297980701675,-0.2498600608881968,0.5122558043218264,0.2293719420919341,1.1536632340659574,3.539587631123373,11.713207550320089,-0.40057808450744686,0.04299438573570873,-0.5719051784111593,0.1425501570550931,-8.74247951625321,0.9295339584350586,1.0760936737060547,2.973712921142578,9.965087890625,6.975545883178711,-1.1718902587890625,1.6342449188232422,-1.0023765563964844,-4.597597122192383,-5.529863357543945,0.9295339584350586,1.0760936737060547,2.973712921142578,9.965087890625,6.975545883178711,-1.1718902587890625,1.6342449188232422,-1.0023765563964844,-4.597597122192383,-5.529863357543945
5,0.1,-1.1514378467000427e-05,0.0022080138848378644,0.7062124925500814,0.9999036098573917,0.013399735848128872,-9.317868751363034e-05,0.003634472601225336,0.02679942007446788,-0.0002837413614279648,0.007265811629975323,0.03573371529847379,-0.02104394285634594,-0.05878041086490837,1.0316902121172034,1.0772298707160355,-0.206234767846315,0.03129535901410224,-0.00018359079844198914,0.35193190874999936,0.5848112646441173,0.17942855725319032,0.005586350385960005,0.007779125130311991,0.31574057271001044,0.5814317738548368,-0.3282101761726197,0.6513746228365336,-1.3419543980693287,-0.6356168888731357,-3.836719377465965,-1.9472033843531928,0.38776388051038785,-1.190475219098174,0.6689024374321098,-0.967978067430481,-0.1957780071977253,1.1148147583007812,-4.156394958496094,0.40697288513183594,-12.409042358398438,-5.554042816162109,1.4743671417236328,-4.150327682495117,2.60015869140625,-4.564952850341797,3.7877273559570312,1.1148147583007812,-4.156394958496094,0.40697288513183594,-12.409042358398438,-5.554042816162109,1.4743671417236328,-4.150327682495117,2.60015869140625,-4.564952850341797,3.7877273559570312
6,0.12,-0.000683053782856851,0.0033021293389761627,0.7065198863089658,0.9999362041422766,0.009677804011057965,-0.005099094558579637,0.0028154910300870507,0.019327879342220057,-0.010252213652843511,0.0055322457082976105,-0.038028377595105155,0.07789700799215378,-0.06455231051743975,-0.9644243309395432,-1.0160689330724073,-0.028194012792843722,0.02613808711463635,0.010161866807546346,0.342386261400741,0.5865185202247991,0.21758550066163462,0.00812931491856466,0.023825270173144935,0.3122923295622971,0.6023555064668225,-0.2557546565077979,-0.6187173296353798,1.136142543362328,-1.0439202442295794,0.6673657387503913,5.8294774155076245,-0.06361581731437019,1.6388092739307325,-0.47857918447363035,2.2386027196904017,6.842081047825179,-1.6961956024169922,3.0331058502197266,-4.947122573852539,3.6628761291503906,3.8368682861328125,-1.2408561706542969,7.6703033447265625,-2.3346691131591797,6.226341247558594,3.0467567443847656,-1.6961956024169922,3.0331058502197266,-4.947122573852539,3.6628761291503906,3.8368682861328125,-1.2408561706542969,7.6703033447265625,-2.3346691131591797,6.226341247558594,3.0467567443847656
7,0.14,-0.0004533811541623025,0.004302185310664631,0.7061797594412196,0.9999782247183394,0.005937874052162528,-0.0019964639007918838,0.0020750597076615094,0.011867578282006292,-0.0040174945480732005,0.0041263645529281846,0.03820822453817325,0.03364309423051955,0.08256677056654675,-0.09484269201383858,1.0292019861247703,-0.05177532190592745,0.03151039280554407,0.001985396681673047,0.3328966846513745,0.5793212157832164,0.27482560996994104,0.006603067391086911,0.020253780881694914,0.2908781136847886,0.5837562404688089,-0.25456355565501565,0.7310287850690463,-1.1562834886781022,0.18091772601914524,0.06751075563116382,0.48739075181740055,-0.05913497060794473,-1.1405345602798571,-1.7577257587839799,-2.294701345050082,-4.553930449024271,2.7030906677246094,-4.9904985427856445,2.9536399841308594,-4.392982482910156,-2.1555252075195312,0.729121208190918,-3.3247365951538086,-0.8244552612304688,-15.617753982543945,-5.068078994750977,2.7030906677246094,-4.9904985427856445,2.9536399841308594,-4.392982482910156,-2.1555252075195312,0.729121208190918,-3.3247365951538086,-0.8244552612304688,-15.617753982543945,-5.068078994750977
8,0.16,-0.0007778158162951507,0.004880996393035152,0.7075012261570885,0.9999535454232653,0.008440797251916323,-0.004652273258879366,-0.00012763509338513404,0.01688353038734387,-0.009302093744581533,-0.0003338105672128097,-0.04979736085263739,0.02188697242423047,0.032047200567765055,0.5300537399947577,-1.082975098951702,-0.29052951060462645,0.029649421584007882,0.0073865538489784185,0.33011258361405293,0.5578719807625894,0.3109095245826336,0.0041148314359807465,0.03013281065041179,0.2935098775158818,0.5924908381479743,-0.1509930801882397,-0.5964490175296685,1.1425139140917921,-0.3465169721927785,-2.05567117229916,2.801378531745495,-0.1856464868604733,1.5351107447203274,1.237925987653112,1.9338176299540895,13.182168605281174,-2.4755077362060547,2.8724498748779297,0.2652740478515625,-9.386829376220703,0.6825542449951172,-0.4874553680419922,5.643899917602539,5.0622100830078125,5.240337371826172,7.465082168579102,-2.4755077362060547,2.8724498748779297,0.2652740478515625,-9.386829376220703,0.6825542449951172,-0.4874553680419922,5.643899917602539,5.0622100830078125,5.240337371826172,7.465082168579102
9,0.18,-0.0009039651770197517,0.005732322462777597,0.7073028578922244,0.9999382224657519,0.006805622017655191,-0.008788319325667742,-1.429733877421547e-05,0.013613177530521426,-0.017576263149319947,-0.0001482357668641013,0.05543993285246341,0.05966134979996683,0.04605800989451102,-0.7688040331997447,0.4854787540809992,0.2542108854174471,0.03857806944928317,0.01778015430981032,0.32814010558406215,0.5610289531624291,0.3221598362814891,0.00683895018136321,0.04461013948851016,0.27060213512639947,0.5754198596940198,-0.14358354996956957,1.1048383377587243,-0.3289259590704807,-0.1997499356553836,1.4156637593203822,-1.1396659201625696,0.27268010371810736,-0.47739371246717976,-2.267897856421796,-0.5678528438610513,-9.922899543568255,3.6330432891845703,-0.9592819213867188,0.2159137725830078,4.823184967041016,-1.5305366516113281,0.774139404296875,-0.1540546417236328,-8.215505599975586,-8.285232543945312,-9.416337966918945,3.6330432891845703,-0.9592819213867188,0.2159137725830078,4.823184967041016,-1.5305366516113281,0.774139404296875,-0.1540546417236328,-8.215505599975586,-8.285232543945312,-9.416337966918945
10,0.2,-0.00025967599736443226,0.006325411958347631,0.7069030236184521,0.9999188239028991,0.0115679088346717,-0.005032681144393032,-0.0017891926488244562,0.02315518061798829,-0.010023318621536577,-0.003694724014527244,-0.004217562293364405,0.029164858585840822,0.005360486272767366,1.0327426588547683,0.029795046113646792,-0.4592480004785827,0.044416467238190725,0.011525494887664023,0.3449174222550882,0.5650107874082966,0.35952178271761265,-0.001712847002189055,0.03747376747152771,0.2817673273051789,0.5719366567773582,-0.15251590368521972,-0.24954495869479332,-0.03953827530797197,1.7439405169897364,0.3280083883916454,3.915412127342749,-0.7723443343907728,-0.0034126732636917956,2.2133412088356215,-0.017961546342728008,7.043042289412002,-2.0796985626220703,0.30793190002441406,2.9212799072265625,-3.7739219665527344,2.3695735931396484,-1.5152273178100586,-0.5599260330200195,10.933025360107422,-2.8830814361572266,7.651298522949219,-2.0796985626220703,0.30793190002441406,2.9212799072265625,-3.7739219665527344,2.3695735931396484,-1.5152273178100586,-0.5599260330200195,10.933025360107422,-2.8830814361572266,7.651298522949219
11,0.22,0.00019591978081468528,0.007573883232723148,0.7075354492894552,0.9999774740101287,0.004939566420501429,-0.004535444534840719,0.0002861796138031076,0.0098768815624346,-0.00907363645157805,0.0005275618172312414,0.03814720755955577,0.08160331710243073,0.03710986200962245,-1.6915863189810865,0.025439256173044357,0.7265362278220062,0.040922454055348514,0.010521969832817233,0.32966498391108384,0.5584638878249991,0.37050608823034226,0.0032958777555412776,0.03696556515644461,0.2587344598238976,0.5627594198617544,-0.17380165706100406,-0.10224509078184738,-0.007850926352428313,-2.2204503356438203,-0.5515815788297282,-2.1350174034777245,0.7724618156820905,-0.01648861385167402,-3.3068103550671553,-0.5831989875072771,-7.448807891218598,0.24292564392089844,-0.7630596160888672,-3.0392208099365234,-4.313074111938477,-3.042588233947754,1.7406635284423828,2.7551803588867188,-14.611534118652344,-0.8613338470458984,-6.031363487243652,0.24292564392089844,-0.7630596160888672,-3.0392208099365234,-4.313074111938477,-3.042588233947754,1.7406635284423828,2.7551803588867188,-14.611534118652344,-0.8613338470458984,-6.031363487243652
12,0.24,0.00017511805705122422,0.008722799055741078,0.7074214521166388,0.999980530743308,0.004076222929442101,-0.004703660810200677,0.0004451021730297437,0.008148550925179056,-0.009410906050649323,0.0008518785004748805,-0.02702133419875603,0.04786630507221136,-0.018919500431254392,0.8504597746195953,-0.021758912644255585,-0.4975896980132812,0.04166863352290893,0.010663112502375246,0.3379675971135185,0.5558848441068974,0.4674754533269476,0.004641723800476417,0.03724278029192174,0.2581361564233403,0.5650095879603506,-0.18790536713643294,0.1293182603874098,-0.0074122777285250616,2.028252333697674,-0.028760250370513094,10.366821589596823,-0.2812692717189774,0.024705611156489383,2.0097818317578944,0.42685540999889976,4.615508648084202,0.5908050537109375,-1.571523666381836,3.574390411376953,-1.553253173828125,6.141088485717773,-0.39824676513671875,-1.733616828918457,13.658912658691406,-3.7753849029541016,4.954435348510742,0.5908050537109375,-1.571523666381836,3.574390411376953,-1.553253173828125,6.141088485717773,-0.39824676513671875,-1.733616828918457,13.658912658691406,-3.7753849029541016,4.954435348510742
13,0.26,0.00023872281729455592,0.010207327657074355,0.7076840429255304,0.999996938911547,-0.0019766135696030846,-0.0012615066941169108,-0.000789789334566386,-0.003951245277390481,-0.002526130568378653,-0.001574592486058776,0.022612479220494034,0.08696232770618141,0.023641047074855797,-1.4722720009772639,0.5667266820359051,0.1473856171311545,0.047641385536984986,0.002381777180089628,0.3325883719873233,0.5596506929953176,0.50221282414664,0.013136240959637235,0.02907301190942735,0.2405358788956571,0.5535492878450149,-0.1770839409045258,0.4054957892903115,-0.6641859581761332,-1.7293658340610798,0.5158715966227332,-5.0338773864241855,0.7834971675045308,-0.6858083665759012,-2.6449783483137344,-1.09057447026142,-2.678329718779904,0.8393831253051758,-1.5411128997802734,-3.7924461364746094,-1.7652664184570312,-7.258062839508057,1.5480461120605469,-0.7361392974853516,-10.421785354614258,-3.8236770629882812,-2.944246292114258,0.8393831253051758,-1.5411128997802734,-3.7924461364746094,-1.7652664184570312,-7.258062839508057,1.5480461120605469,-0.7361392974853516,-10.421785354614258,-3.8236770629882812,-2.944246292114258
14,0.28,-0.0003133493836121155,0.01126609895614783,0.7076010899055546,0.9999946074259674,0.0006008176212183112,-0.0027037303792025323,-0.0017646470490674964,0.0012111890123461678,-0.005405337458046605,-0.0035325829178210937,-0.0571046970784609,0.03583004860459961,-0.012522694325259971,1.308053422534328,-0.5954556264787346,-0.23978876152359044,0.03960063565640177,0.00442296186508488,0.34425293546785357,0.552249115482637,0.594527674992718,0.0059026689532421205,0.03226903661139371,0.25639747930143664,0.5602391194850609,-0.15036181055045728,-0.8827727783551352,0.584013636051121,2.0783076767965523,-1.1630599758705702,12.175553491819068,-0.9771922810192228,0.6854172810697732,2.899685627701453,1.100619894959264,4.517742661083083,-3.1734914779663086,0.26584625244140625,5.797370910644531,-6.181072235107422,7.810089111328125,-1.994645118713379,4.145343780517578,13.583362579345703,-1.6041851043701172,2.974212646484375,-3.1734914779663086,0.26584625244140625,5.797370910644531,-6.181072235107422,7.810089111328125,-1.994645118713379,4.145343780517578,13.583362579345703,-1.6041851043701172,2.974212646484375
15,0.3,-0.0008075324136714389,0.012707441013551915,0.7075425719602775,0.999988536818207,-0.002193028072056151,-0.0035834185544168094,-0.002296948305963798,-0.00436967045248664,-0.007176891109086334,-0.004578260777096631,-0.008083636371768264,0.0911663094354479,-0.007057823920084416,-1.2299750398403138,0.21204712952710805,0.09868532967726781,0.0484325646468626,0.005927703902740701,0.342510454934327,0.5466507744323457,0.6402349842190069,0.009618677013738862,0.03343338713409033,0.25002445708577925,0.5644439419422396,-0.1940392506824973,1.2734097064440624,-0.22862880346651798,-1.4704932479264328,0.4911992177243065,-5.464636855490005,0.8075605732274389,-0.31470678112156886,-2.3410579388438366,-0.22974129236594815,-7.500722536424408,4.643306732177734,-3.376504898071289,-3.249744415283203,-1.6682777404785156,-8.200429916381836,2.100820541381836,-1.9566326141357422,-10.821159362792969,-1.1928558349609375,-5.285392761230469,4.643306732177734,-3.376504898071289,-3.249744415283203,-1.6682777404785156,-8.200429916381836,2.100820541381836,-1.9566326141357422,-10.821159362792969,-1.1928558349609375,-5.285392761230469
16,0.32,-0.0012880953706475898,0.013975152852528629,0.7068231157025585,0.9999927688016793,-0.00022786715659816746,-0.0021350860234473214,-0.0031387622692235196,-0.0004423320126964101,-0.004271584600287365,-0.006276604586684218,-0.02963795600850197,0.05089384253926358,-0.04315164913679833,1.0330338089245794,0.1305608398211108,-0.2502587152456869,0.0481844498658581,0.0018425820981336429,0.359379816650866,0.5575700847123071,0.6828509438524216,-0.0019930770951336256,0.030205965261032607,0.25889299717124126,0.5692168744463593,-0.21552011504275256,-0.8094944488515513,-0.22025907491945537,2.2774807983778964,0.38724251521807546,8.090640004694608,-1.3279109141986696,-0.1066943927376977,2.201458257489711,0.4523498273597811,3.989476860746093,-3.5378341674804688,0.2063312530517578,4.431034088134766,0.08079147338867188,6.404829025268555,-2.9440832138061523,1.6808891296386719,11.939796447753906,-4.9747314453125,4.941320419311523,-3.5378341674804688,0.2063312530517578,4.431034088134766,0.08079147338867188,6.404829025268555,-2.9440832138061523,1.6808891296386719,11.939796447753906,-4.9747314453125,4.941320419311523
17,0.34,-0.001630713606777472,0.015493186119802554,0.707089745963274,0.999990180133075,-0.003012803054866908,-0.001123874767633876,-0.0030495181060341,-0.00601874417828062,-0.0022661045970921354,-0.006092257622379077,-0.012886337655429448,0.0871877229283674,0.04071941734932509,-1.0250616347800907,0.05017855475744376,0.23630384434411583,0.050699661718285605,-0.0011899074846532867,0.3547700262956202,0.5544452065262868,0.6831168431361768,-0.005510390188704095,0.027627510966691755,0.2481520206584777,0.5637451504823882,-0.2520612122020737,0.7183202199620933,-0.06429514132644133,-1.7683585475741443,-0.2987970316250612,-6.355356910528916,0.4370241074906021,-0.10343997329393571,-2.2389350346103143,-0.6563263680386485,-6.42446040742759,3.0606727600097656,-2.879789352416992,-1.7819499969482422,-7.375263214111328,-7.333555698394775,1.6419696807861328,1.030670166015625,-10.466896057128906,-1.7435626983642578,-4.4636430740356445,3.0606727600097656,-2.879789352416992,-1.7819499969482422,-7.375263214111328,-7.333555698394775,1.6419696807861328,1.030670166015625,-10.466896057128906,-1.7435626983642578,-4.4636430740356445
18,0.36,-0.0021902853591860227,0.01680295744361216,0.7067956455775116,0.9999915868145152,0.0007751873363758647,-0.0014220606534933672,-0.0037687037929646844,0.0015610872018052765,-0.0028382582866530452,-0.007539650700832594,-0.03400836047025679,0.0576968041089338,-0.04141955016937713,1.1836192590025012,-0.05230137255898323,-0.32522279605037274,0.04862049382885748,-0.0012883815275945539,0.3694580449729667,0.554726319203867,0.7254752806875655,-0.016702790140296922,0.028058280119310365,0.26233612348528756,0.5681609178971899,-0.26287396311284034,-0.6353833525914041,-0.009034515129690956,2.281575720753391,-0.0009150803261720325,8.780146986968942,-1.083140101484581,0.060442662117510475,2.5398753615221836,0.6838893371612157,4.115408833139536,-2.5636110305786133,0.4519987106323242,3.5649070739746094,0.9294528961181641,7.333770751953125,-2.0968551635742188,1.2187309265136719,12.998741149902344,-3.7633800506591797,4.48198127746582,-2.5636110305786133,0.4519987106323242,3.5649070739746094,0.9294528961181641,7.333770751953125,-2.0968551635742188,1.2187309265136719,12.998741149902344,-3.7633800506591797,4.48198127746582
19,0.38,-0.0025066301879344546,0.01850014656700528,0.7070982207058798,0.9999871272745035,-0.0018326431800438504,-0.0005678163085312113,-0.004697263980225336,-0.0036599154144802454,-0.0011528350713303956,-0.009392470156894593,-0.00799358610844313,0.09738021360534688,0.04306758458710017,-1.0916761289479717,0.13921561773556482,0.10216773762746845,0.05222709723168255,-0.003926928827114847,0.3635515994952847,0.5513138852153894,0.7117733215573366,-0.01513972467148799,0.02572925993196117,0.2526748817578025,0.5627766234152858,-0.29781209493571115,0.7102680821841934,-0.1672455990051752,-1.8984575316765577,-0.055222405471422965,-8.128462773812288,0.6964041055591845,-0.19297965711543466,-2.3525024867366526,-0.7795474637750814,-6.3870337963108685,2.9229087829589844,-2.452204704284668,-3.0269222259521484,-5.799674987792969,-8.337297439575195,2.0189762115478516,-0.18156814575195312,-10.450061798095703,-2.661212921142578,-4.574003219604492,2.9229087829589844,-2.452204704284668,-3.0269222259521484,-5.799674987792969,-8.337297439575195,2.0189762115478516,-0.18156814575195312,-10.450061798095703,-2.661212921142578,-4.574003219604492
20,0.4,-0.003043296405516257,0.019978461190394665,0.7070010925021426,0.999980454473479,0.0015753594023824613,-0.0012425038510078816,-0.005921579007970999,0.0031653873047358017,-0.002466304401177529,-0.011847154478414064,-0.034854693771859194,0.06489937345697928,-0.026449289605751564,1.1701461057500437,-0.1714050739837792,-0.30987731013617836,0.046346686048469206,-0.003601606090117427,0.3732532000498597,0.5485223721885341,0.7341056083935105,-0.023839174984150703,0.02687165853039378,0.2649270182560403,0.5656113568866732,-0.31310318498114076,-0.9349332780923922,0.09381987409235089,1.980062648170934,-0.40174770269964205,8.376865647229216,-1.0388708494919299,0.18006969097807843,2.4537725040229774,0.6322499634366584,3.682272595391666,-3.3161239624023438,0.8003349304199219,3.7001800537109375,-0.6015892028808594,7.798650741577148,-2.2168426513671875,2.1783199310302734,12.460929870605469,-3.7053146362304688,4.305498123168945,-3.3161239624023438,0.8003349304199219,3.7001800537109375,-0.6015892028808594,7.798650741577148,-2.2168426513671875,2.1783199310302734,12.460929870605469,-3.7053146362304688,4.305498123168945
21,0.42,-0.003345065074668438,0.02185375612204656,0.7074348723487416,0.9999772115843305,-0.0009955496518256187,-0.0010676152784325375,-0.006591311746068791,-0.001976985809347541,-0.0021483075070580972,-0.013180609405700676,-0.007194814946071173,0.10762945144121316,0.04414084235881959,-1.0817606829653492,0.0964927294305556,0.13961433906948106,0.049708776835494066,-0.004582257855397343,0.3647956494927281,0.5416463975993032,0.7107679861194103,-0.01970953019839042,0.02599898998756311,0.25369456211264285,0.5602470692848973,-0.36395396413497455,0.8669159292359538,-0.09074449429237948,-1.9229626261021489,-0.08543621353138749,-8.66294891362061,0.8756308564662825,-0.14665606609503817,-2.4424474897630946,-0.7490788961984822,-7.469228830032249,3.635101318359375,-2.805635452270508,-2.692659378051758,-5.717517852783203,-8.40622329711914,2.4022445678710938,-0.47032737731933594,-10.892898559570312,-2.1296520233154297,-4.877898216247559,3.635101318359375,-2.805635452270508,-2.692659378051758,-5.717517852783203,-8.40622329711914,2.4022445678710938,-0.47032737731933594,-10.892898559570312,-2.1296520233154297,-4.877898216247559
22,0.44,-0.0037842658238633024,0.023586110008031368,0.7072590386379907,0.9999684371562915,0.0018074673965302163,-0.0012144335041940615,-0.007640870636047199,0.003633397822843343,-0.002401171404701455,-0.015286288419680842,-0.026734472726166303,0.07920332839352608,-0.033461134067783324,1.0592261372061855,-0.04978073404024718,-0.31235645608199875,0.046488713277727044,-0.005142184420411449,0.37368987622547484,0.5425301472020087,0.7127309861932473,-0.02642121334434765,0.025919869588422607,0.26238150532237403,0.562223237894039,-0.3958683363456589,-0.813364626557934,-0.03283594809972655,1.9170922656143068,-0.08167551116630513,6.975190911582081,-0.9860149536736311,0.04727565039611744,2.224410356821277,0.5546590749140045,3.0463365599725183,-3.1452226638793945,0.8269424438476562,3.060985565185547,0.8289813995361328,7.477300643920898,-2.271425247192383,1.7413311004638672,12.119949340820312,-4.046037673950195,4.499153137207031,-3.1452226638793945,0.8269424438476562,3.060985565185547,0.8289813995361328,7.477300643920898,-2.271425247192383,1.7413311004638672,12.119949340820312,-4.046037673950195,4.499153137207031
23,0.46,-0.004007074752502213,0.02567070468028128,0.7077443230367448,0.9999659983204737,-0.0009249699845305915,-0.0007461082874499554,-0.008160266900667306,-0.001837703304320272,-0.001507262411637668,-0.01631934151086646,-0.0058302264610034125,0.11545561704522216,0.053188343604802686,-1.031297331280817,0.0637803652623534,0.16797933888644476,0.04923853294999649,-0.006722314240799189,0.3637817054903811,0.5366518818073978,0.6694543239549697,-0.0225119795559328,0.024504244550041396,0.24921171599922148,0.5550973806676723,-0.4546328277590329,0.7451321322701042,-0.054967565925304274,-1.9913899471786436,-0.21152966266391598,-9.349052686108132,0.8289172942963865,-0.1057942856250612,-2.449873270958834,-0.8546154477467528,-7.67431878423554,3.1763973236083984,-2.645575523376465,-2.457723617553711,-6.684345245361328,-8.202802658081055,2.3031387329101562,0.056611061096191406,-10.574766159057617,-2.520540237426758,-4.705533027648926,3.1763973236083984,-2.645575523376465,-2.457723617553711,-6.684345245361328,-8.202802658081055,2.3031387329101562,0.056611061096191406,-10.574766159057617,-2.520540237426758,-4.705533027648926
24,0.48,-0.00443011270750837,0.02759891808266899,0.7076344790034453,0.9999542939765622,0.0022693743446938128,-0.0012903904134761988,-0.0091975426337338,0.004562308614578353,-0.0025389202628439056,-0.018401198999886466,-0.02650809365148611,0.09049328236051198,-0.03418306847833046,1.0862511685271268,-0.09201953589326037,-0.32890817635704567,0.04566206980269325,-0.006348393477177523,0.3720328414905084,0.5359086933673789,0.663139567376704,-0.028492255987434437,0.02524883054171793,0.25869434461089397,0.5572872381603887,-0.49209175751234485,-0.7716865027942089,0.017306409135724732,1.9066953679852507,-0.13798072018353386,6.779232056232566,-0.9020026795429199,0.08885418587331338,2.2861536677247045,0.636174982220591,2.7157065645840923,-2.9097900390625,0.8408384323120117,2.8774795532226562,1.0167903900146484,7.737453460693359,-2.0474233627319336,1.6091384887695312,12.281486511230469,-3.5887279510498047,4.445783615112305,-2.9097900390625,0.8408384323120117,2.8774795532226562,1.0167903900146484,7.737453460693359,-2.0474233627319336,1.6091384887695312,12.281486511230469,-3.5887279510498047,4.445783615112305
25,0.5,-0.004621290942476466,0.02992225341940007,0.7080903518875736,0.9999504913814553,-0.0005046653021248457,-0.0008042405930857604,-0.00990521559516794,-0.0009933497450189946,-0.0016183998962222572,-0.019809960260182252,-0.00345437099848522,0.12791481660674334,0.05120598463691805,-1.05717237514476,0.0918203822269528,0.14413241054480605,0.04869271611448959,-0.00791388849916921,0.3619431400794603,0.5307368105125834,0.6120233030357489,-0.023306946834621096,0.023778704247816706,0.2454669992548669,0.5503847560258073,-0.5555882556659089,0.7446446604096498,-0.0855881717787601,-2.0044132085690016,-0.11433392339560752,-9.890207713982702,0.8812330698986303,-0.13725309254668944,-2.4902853724584446,-0.883446917411893,-7.836568037147037,3.1461219787597656,-2.580751419067383,-2.7208690643310547,-6.175088882446289,-8.32501220703125,2.3476829528808594,-0.26139068603515625,-10.613758087158203,-2.688060760498047,-4.641376495361328,3.1461219787597656,-2.580751419067383,-2.7208690643310547,-6.175088882446289,-8.32501220703125,2.3476829528808594,-0.26139068603515625,-10.613758087158203,-2.688060760498047,-4.641376495361328
26,0.52,-0.00501435714794296,0.03209156746872841,0.7079746157036704,0.9999355071809783,0.0025353843012089084,-0.001332584717772668,-0.010989882762554831,0.005099770939706667,-0.002609273359586859,-0.021986951525695925,-0.02544929487501589,0.10214829103190334,-0.0332149064212061,1.0790253938088514,-0.1061697833856077,-0.3177926992625592,0.04473634907943817,-0.0076072693328245854,0.36958196547515626,0.5303645719480367,0.5976927205231938,-0.028697122923948857,0.024493916104086372,0.25443936701682135,0.5526074337229255,-0.5982076496820675,-0.8022299336084899,0.031581888144724166,1.868990084335338,-0.16827056916824715,6.488271255990133,-0.8862539110408503,0.10634330271822849,2.26821222608719,0.6561347668300238,2.3808800157731147,-2.9877586364746094,0.8838043212890625,3.0091018676757812,0.7455043792724609,7.809291839599609,-2.051891326904297,1.8178730010986328,12.144657135009766,-3.4673728942871094,4.381557464599609,-2.9877586364746094,0.8838043212890625,3.0091018676757812,0.7455043792724609,7.809291839599609,-2.051891326904297,1.8178730010986328,12.144657135009766,-3.4673728942871094,4.381557464599609
27,0.54,-0.005180923461079656,0.03465402717719489,0.708394281639863,0.9999321344235832,-0.0003106582735591301,-0.0009216483375794569,-0.011609504850619071,-0.0005998756823640064,-0.0018503858121660976,-0.02321898729335383,-0.0022943899020439348,0.14019619001639785,0.047467333417905815,-1.0664086560301547,0.08620311804715278,0.15154451248692466,0.04806608652303996,-0.008908939483627903,0.3593605710920808,0.5255468134037045,0.5404932069213364,-0.02308049026585485,0.02318645891439576,0.24104038466254804,0.5462835756191563,-0.6680606133948878,0.7863915060467088,-0.07239977735410744,-1.9934026987199782,-0.06630711130450809,-10.203754081389109,0.9067974883339234,-0.13394137244554266,-2.4948144651911393,-0.8484457366080185,-8.139677723092369,3.279621124267578,-2.6153764724731445,-2.701068878173828,-5.977685928344727,-8.329154968261719,2.3938026428222656,-0.3146476745605469,-10.642736434936523,-2.5182933807373047,-4.627211570739746,3.279621124267578,-2.6153764724731445,-2.701068878173828,-5.977685928344727,-8.329154968261719,2.3938026428222656,-0.3146476745605469,-10.642736434936523,-2.5182933807373047,-4.627211570739746
28,0.56,-0.005536196205386526,0.037070293139381205,0.708214358653494,0.999916044798728,0.0025630699394778213,-0.0013252325891487905,-0.012632410108118844,0.005159231407737347,-0.00258549003729941,-0.025272266985432734,-0.02294309257980244,0.11441950159188606,-0.03593912358015414,1.057500812328361,-0.08002146600665805,-0.3132437480033963,0.04477462750773325,-0.0087829874426453,0.3672034460983019,0.5267019357823162,0.518739923209004,-0.028211738457122222,0.023650024209900568,0.24958796580814954,0.5489606932906204,-0.7167356510321424,-0.7737067027847987,0.007515541974581496,1.877204157579201,-0.07442598361936958,6.071876893072899,-0.8807892396786771,0.08229018066976325,2.236656924647733,0.6724027608420489,2.07686604987587,-2.949587821960449,0.8776884078979492,2.9583663940429688,1.0165214538574219,7.768171310424805,-2.057737350463867,1.7792816162109375,12.11398696899414,-3.517589569091797,4.379545211791992,-2.949587821960449,0.8776884078979492,2.9583663940429688,1.0165214538574219,7.768171310424805,-2.057737350463867,1.7792816162109375,12.11398696899414,-3.517589569091797,4.379545211791992
29,0.58,-0.005670343246316852,0.03986071713697312,0.7085912666282154,0.9999123811561672,-0.00030865055984733233,-0.0008352588750489171,-0.013207463346423726,-0.000595184604120657,-0.0016785251513684511,-0.026415205667404136,-0.0012494390495885032,0.1510544684757131,0.04567775025738402,-1.0566360903359218,0.08116684510287982,0.1555923558145131,0.04815783485515955,-0.010204946678096091,0.3572003931406003,0.5228462611158635,0.4547609425917226,-0.0228855768745308,0.02219315684121602,0.2362217659976251,0.5428637510502322,-0.7906496830101946,0.7736106537665198,-0.06624619265498759,-1.9793238294265285,-0.047475778925959486,-10.483591717048972,0.8812514129761574,-0.12990974987611925,-2.4704248314517576,-0.841604015739783,-8.26198627764834,3.207582473754883,-2.5814924240112305,-2.647207260131836,-6.0291748046875,-8.284473419189453,2.3428707122802734,-0.21379470825195312,-10.512868881225586,-2.532909393310547,-4.548727989196777,3.207582473754883,-2.5814924240112305,-2.647207260131836,-6.0291748046875,-8.284473419189453,2.3428707122802734,-0.21379470825195312,-10.512868881225586,-2.532909393310547,-4.548727989196777
30,0.6,-0.006005071439635964,0.04249853582284905,0.7083824693180427,0.9998946227610082,0.0026158966819754556,-0.0012994566407403898,-0.014220122032157601,0.00526824006946187,-0.002524245355762105,-0.028447973160267915,-0.021927288254138415,0.1255801339836336,-0.037155283755085484,1.059472286878256,-0.08561792551484455,-0.31369353325913724,0.04482906681946185,-0.009913505756277854,0.3652432986712922,0.5243370960610945,0.42834983767067253,-0.02811165016120036,0.022809414762687334,0.24529596592412947,0.5461498289377791,-0.8424363950104828,-0.7695248239065156,0.016497513108321538,1.885006099307993,-0.0592360422973762,5.876704401468473,-0.8739468769279091,0.09146534545281873,2.2626551184365757,0.7167032862106317,1.8951832454545785,-2.919981002807617,0.885218620300293,2.9481124877929688,1.0623302459716797,7.807634353637695,-2.020798683166504,1.798675537109375,12.15765380859375,-3.411684036254883,4.358125686645508,-2.919981002807617,0.885218620300293,2.9481124877929688,1.0623302459716797,7.807634353637695,-2.020798683166504,1.798675537109375,12.15765380859375,-3.411684036254883,4.358125686645508
31,0.62,-0.006113771835069912,0.045507642740005766,0.7087159308857733,0.999890134901015,-0.00025554809357529213,-0.0007932563733201399,-0.014799444824996073,-0.0004875611663071641,-0.001593903058974527,-0.029599591949764616,0.00015195464729418222,0.1618808775698284,0.042799469621753905,-1.0584334835504978,0.08630811549354735,0.15419588884148516,0.04827596741898026,-0.01132658072173429,0.3555675793516584,0.5211539664027467,0.3601120308913658,-0.02283327993933824,0.021325682149928363,0.232270962206225,0.5405268406957411,-0.9193625318333183,0.7766406375806876,-0.0710002850744736,-1.9583009670755653,-0.001603802864477137,-10.70978345111981,0.8738765043773349,-0.13723364639490437,-2.458024289095287,-0.8295538239013664,-8.387489486748615,3.2081336975097656,-2.568227767944336,-2.6514129638671875,-5.866573333740234,-8.291019439697266,2.3242015838623047,-0.24986934661865234,-10.477956771850586,-2.539213180541992,-4.526309967041016,3.2081336975097656,-2.568227767944336,-2.6514129638671875,-5.866573333740234,-8.291019439697266,2.3242015838623047,-0.24986934661865234,-10.477956771850586,-2.539213180541992,-4.526309967041016
32,0.64,-0.006423635396538837,0.04836006636699939,0.7084782026904318,0.9998707692119511,0.0026337961657994604,-0.0012597756435211976,-0.01580888859428411,0.005306783555086818,-0.002435953312217427,-0.03162569265577949,-0.020739179308563654,0.13614867751638512,-0.03757407033994287,1.0555040554411985,-0.08838494422130284,-0.31135493765134,0.044877767278826704,-0.011010618812517504,0.3637114344623918,0.5231209153905642,0.32929679769020775,-0.028134225865710703,0.021971956864546758,0.24160270042646073,0.5442646597495486,-0.9738109321917274,-0.7770735201640285,0.021414845342273607,1.880832781341099,-0.04855024765261216,5.660989105916368,-0.8760229391153876,0.09790937604680036,2.275661675317538,0.7451943217784431,1.7555949996980194,-2.9389915466308594,0.9038381576538086,2.9584197998046875,1.0221500396728516,7.801580429077148,-2.0191259384155273,1.8627490997314453,12.167545318603516,-3.3666744232177734,4.359270095825195,-2.9389915466308594,0.9038381576538086,2.9584197998046875,1.0221500396728516,7.801580429077148,-2.0191259384155273,1.8627490997314453,12.167545318603516,-3.3666744232177734,4.359270095825195
33,0.66,-0.006504179303339142,0.05157351966110123,0.7087817927869272,0.9998660706483041,-0.00025025332633250716,-0.0007540858873934633,-0.01634654379580472,-0.00047578678896561903,-0.0015161519211039738,-0.03269419338851059,0.0016737631582173017,0.17189156247606832,0.04048252311992541,-1.0582720051857442,0.08690858762511403,0.15922680662661337,0.04834390138743819,-0.012370606264893658,0.35422696037311724,0.52036290771364,0.2572162016845416,-0.022964433015696412,0.020505719343511596,0.22878895936249852,0.5389931495724609,-1.0536148642009462,0.7828552251467137,-0.06948373372870109,-1.9400643335131271,0.025785019927074278,-10.883246165454342,0.8668965017525823,-0.13918422516028744,-2.4489589382120402,-0.8181195390599605,-8.534185867861519,3.2261314392089844,-2.5624866485595703,-2.6124744415283203,-5.771247863769531,-8.268823623657227,2.3162078857421875,-0.2351236343383789,-10.464714050292969,-2.5280704498291016,-4.531267166137695,3.2261314392089844,-2.5624866485595703,-2.6124744415283203,-5.771247863769531,-8.268823623657227,2.3162078857421875,-0.2351236343383789,-10.464714050292969,-2.5280704498291016,-4.531267166137695
34,0.68,-0.006784184500926318,0.05462546509926859,0.7085178620680775,0.9998455776523578,0.0026185046830315534,-0.001216645755696006,-0.017334475918076922,0.005278419476412538,-0.002342137085405231,-0.03467701426025918,-0.019235025971249896,0.14602076823285481,-0.03811542667880779,1.0522619088036627,-0.08712887663388952,-0.3109167919420903,0.04501634518184907,-0.01201979403135692,0.36252683015492937,0.5227837488566195,0.22240516302565783,-0.028301528540104638,0.021166332003996594,0.23833697360324205,0.5431106941427765,-1.1107041107342015,-0.775340042005096,0.023012857043547295,1.8818618251754426,-0.028129314971201996,5.440368319523767,-0.8751705229405617,0.09972510754991717,2.287633725800492,0.7683712787545659,1.6345867528113853,-2.9376840591430664,0.9179754257202148,2.935150146484375,1.0474929809570312,7.777179718017578,-2.011037826538086,1.879354476928711,12.211540222167969,-3.3493785858154297,4.374853134155273,-2.9376840591430664,0.9179754257202148,2.935150146484375,1.0474929809570312,7.777179718017578,-2.011037826538086,1.879354476928711,12.211540222167969,-3.3493785858154297,4.374853134155273
35,0.7,-0.006832108075311423,0.05802769721436415,0.7087997462923074,0.999840464361575,-0.00027307168716575166,-0.0006944464155315479,-0.017846260147744875,-0.000521270235517045,-0.001398418325679874,-0.03569406064142056,0.003399688979466167,0.1810501923861221,0.03891376957071297,-1.0574122190052535,0.08799581903938374,0.16279067542802686,0.048457288731421085,-0.013368228429377413,0.3531947940583612,0.5204079730406586,0.14659539491560353,-0.023244126587105205,0.01968745416359844,0.22569422947228274,0.5380390393341862,-1.1928769818531977,0.780151273938179,-0.06936880813950845,-1.9278356324806711,0.043385208519817794,-11.04298906253517,0.8578503823293085,-0.14094946883471227,-2.441989915995681,-0.815805498526848,-8.650064574875692,3.21246337890625,-2.5415163040161133,-2.5896148681640625,-5.710582733154297,-8.239664077758789,2.301729202270508,-0.2026834487915039,-10.445745468139648,-2.5534839630126953,-4.5305938720703125,3.21246337890625,-2.5415163040161133,-2.5896148681640625,-5.710582733154297,-8.239664077758789,2.301729202270508,-0.2026834487915039,-10.445745468139648,-2.5534839630126953,-4.5305938720703125
36,0.72,-0.007081236600888298,0.06126155165927145,0.7085222562100213,0.9998187321312856,0.0026085073315096088,-0.001179992909840773,-0.018823022754706716,0.005260528765663405,-0.0022613599717055265,-0.03765437120740581,-0.01781306570297505,0.15500965092087832,-0.03810298094061125,1.0540585050515507,-0.09082131208766404,-0.31102592683066277,0.04508636991564961,-0.012930042557799408,0.3615969894397259,0.5229950096740934,0.10851875407027516,-0.028605141416252117,0.020420655938109617,0.23551367676331153,0.5424467019299429,-1.2521660847909486,-0.7775664579567532,0.029945049275545754,1.8826600056527207,-0.025008406522770456,5.274343146165045,-0.872149829511718,0.10648631454009763,2.3050466343787526,0.7896525456716253,1.5288512179634626,-2.938579559326172,0.9318599700927734,2.928112030029297,1.0226192474365234,7.770166397094727,-1.995814323425293,1.8997554779052734,12.265071868896484,-3.319803237915039,4.383190155029297,-2.938579559326172,0.9318599700927734,2.928112030029297,1.0226192474365234,7.770166397094727,-1.995814323425293,1.8997554779052734,12.265071868896484,-3.319803237915039,4.383190155029297
37,0.74,-0.007095581799087048,0.0648388082184319,0.7087885139450728,0.9998130250765307,-0.00028637218683750474,-0.0006557666422558709,-0.01932363445106114,-0.0005472942009073313,-0.0013223559489711752,-0.03864932251044207,0.005255095164988208,0.18965465135372195,0.03747651674943109,-1.0592818882167303,0.08998642394161012,0.164218496670748,0.04852112508887614,-0.014233599535948688,0.3523837153653501,0.5208535935817947,0.029690993368448604,-0.02356053278159512,0.018959320461814158,0.2230397501572238,0.5375474904670656,-1.336459938894341,0.7813976042092887,-0.07010125938000775,-1.918715381612237,0.06000252742998892,-11.181764962209863,0.8553606417218008,-0.1435859026630436,-2.438770004920555,-0.8142257352584843,-8.755766941989034,3.214792251586914,-2.525141716003418,-2.5886783599853516,-5.626340866088867,-8.221397399902344,2.2978687286376953,-0.19481468200683594,-10.446203231811523,-2.5696144104003906,-4.531048774719238,3.214792251586914,-2.525141716003418,-2.5886783599853516,-5.626340866088867,-8.221397399902344,2.2978687286376953,-0.19481468200683594,-10.446203231811523,-2.5696144104003906,-4.531048774719238
38,0.76,-0.007310672737051963,0.0682420566230406,0.7085009217277933,0.9997900496775023,0.00259037387048475,-0.0011485656209940516,-0.02029352916775568,0.005226313283610159,-0.0021915150573626556,-0.040595734425472416,-0.016210716572467483,0.16332209380022877,-0.0378774171783059,1.0547797997522779,-0.09261276681054902,-0.31046206050153863,0.045122269943886996,-0.01374190325884271,0.3608554587403636,0.5235952226027057,-0.011297481049524024,-0.02891257354664545,0.01973248828602177,0.23301876295099705,0.5421430870806679,-1.39784489064933,-0.7808537243756756,0.03478706704994311,1.8828045088019985,-0.022204139265398957,5.123349700293172,-0.8702901860102877,0.11123364239546359,2.315818490331243,0.8033333620522047,1.4241886345430264,-2.9465017318725586,0.9438028335571289,2.9302024841308594,0.9916152954101562,7.759662628173828,-1.9880390167236328,1.9211978912353516,12.304004669189453,-3.312623977661133,4.386768341064453,-2.9465017318725586,0.9438028335571289,2.9302024841308594,0.9916152954101562,7.759662628173828,-1.9880390167236328,1.9211978912353516,12.304004669189453,-3.312623977661133,4.386768341064453
39,0.78,-0.00729012820361024,0.07198110558175388,0.708756907660849,0.9997837551478664,-0.0003070204901550793,-0.0006244728864619598,-0.02078361649146465,-0.0005879510888019436,-0.0012614380216135182,-0.041569865353727184,0.0071016055602024465,0.1976079394985013,0.03635091494443209,-1.060319970739144,0.09046574081936323,0.1652485671584653,0.04855833450746345,-0.014994875605869191,0.3517251383835981,0.5215997142001855,-0.09279738270749233,-0.023880842963420905,0.018295787845737783,0.22067348381422353,0.5373550188729654,-1.4841142435649781,0.7837875291153996,-0.06907516480516397,-1.9120585888835366,0.06953926932569021,-11.301658991533074,0.8535414579521994,-0.14442119605800796,-2.434724754077413,-0.81321857829836,-8.849206195938303,3.2207775115966797,-2.5130443572998047,-2.584941864013672,-5.5719757080078125,-8.203130722045898,2.2963390350341797,-0.17930221557617188,-10.443281173706055,-2.5754966735839844,-4.525569915771484,3.2207775115966797,-2.5130443572998047,-2.584941864013672,-5.5719757080078125,-8.203130722045898,2.2963390350341797,-0.17930221557617188,-10.443281173706055,-2.5754966735839844,-4.525569915771484
40,0.8,-0.007469736519376129,0.07554115404519798,0.7084618734632799,0.9997595503995343,0.002566436115297483,-0.0011213350062317501,-0.021748503359798804,0.005180447678148036,-0.0021305000861363355,-0.04350612556770264,-0.014486233421485122,0.17102482764538193,-0.03764639260357425,1.0551156020543102,-0.09294298407535528,-0.31009074831031336,0.045154589065692086,-0.014454299089397339,0.360266102814482,0.5244642862233321,-0.1363455227328534,-0.02922351741241005,0.019102542209309136,0.23078351343669024,0.5420871874976273,-1.5474380873977716,-0.7829445227542502,0.038132959267428906,1.884330810685726,-0.01767420684895938,4.989034397539497,-0.8687646794850122,0.11435931631272081,2.3236885822145865,0.8134211974916197,1.323893440596277,-2.9521522521972656,0.9532394409179688,2.9295692443847656,0.9792709350585938,7.750518798828125,-1.9816608428955078,1.9334640502929688,12.337272644042969,-3.315156936645508,4.38609504699707,-2.9521522521972656,0.9532394409179688,2.9295692443847656,0.9792709350585938,7.750518798828125,-1.9816608428955078,1.9334640502929688,12.337272644042969,-3.315156936645508,4.38609504699707
41,0.82,-0.00741362811106949,0.07942962577635157,0.7087107731250931,0.9997525291051718,-0.00032888442337427486,-0.0005949312582488443,-0.022235522023244844,-0.0006311493534258302,-0.0012041941848644493,-0.04447433967726231,0.008925590626186577,0.20493523942756478,0.0355020370391522,-1.0602954351883347,0.09047796376772478,0.16520797884389846,0.048590322459337046,-0.01566439410500853,0.35121027895476375,0.5225729017006103,-0.22023486921009386,-0.024212293752608704,0.017686802641554387,0.2185605403135532,0.5373670828381901,-1.6354516390200753,0.7853047298402285,-0.0677450789097862,-1.9069295627303535,0.07467799615103793,-11.409506545739843,0.851307391514072,-0.14457635420866638,-2.429264317775836,-0.8136988466512344,-8.925393574006403,3.2234058380126953,-2.5030336380004883,-2.581829071044922,-5.539989471435547,-8.18838119506836,2.294036865234375,-0.16252899169921875,-10.433006286621094,-2.582408905029297,-4.514056205749512,3.2234058380126953,-2.5030336380004883,-2.581829071044922,-5.539989471435547,-8.18838119506836,2.294036865234375,-0.16252899169921875,-10.433006286621094,-2.582408905029297,-4.514056205749512
42,0.84,-0.0075577469099101634,0.0831345080436813,0.7084116403262976,0.9997269843817334,0.002545324942710059,-0.0010987769156098612,-0.023200661827417448,0.0051402785053137195,-0.0020788489155580993,-0.04641100872300777,-0.012749237115546545,0.17815361563054466,-0.03733480029592254,1.0553915015199495,-0.09350269510461569,-0.3098918692511037,0.04516305506776263,-0.01507205829232688,0.3598030271273358,0.5255000579321016,-0.2660255493428712,-0.02955548217307758,0.018533268505685364,0.2288021144529791,0.5422002223472971,-1.700459863918437,-0.7859822002709356,0.04154625214317654,1.8854318087945552,-0.015362328089784175,4.873602776522468,-0.8677765824339084,0.11760672075655261,2.3306341138741438,0.8216618956940913,1.2328233363695984,-2.959186553955078,0.9621849060058594,2.9291610717773438,0.9677696228027344,7.745311737060547,-1.9765024185180664,1.9456195831298828,12.363044738769531,-3.3175811767578125,4.381977081298828,-2.959186553955078,0.9621849060058594,2.9291610717773438,0.9677696228027344,7.745311737060547,-1.9765024185180664,1.9456195831298828,12.363044738769531,-3.3175811767578125,4.381977081298828
43,0.86,-0.007466166929230711,0.08716112534789959,0.7086560397264956,0.9997191634453703,-0.00034546915113834885,-0.0005718602672552883,-0.023688559833566727,-0.0006636516642708806,-0.0011597669292835275,-0.04738117745088797,0.010729555840976759,0.21170489699360395,0.03482689816381194,-1.0598039142910645,0.0903609700582038,0.1646707859672452,0.04859755698213753,-0.016237391946914398,0.3508093978955593,0.5236643922429999,-0.3520052802048572,-0.024560130902292414,0.01714258805342482,0.21669725431274184,0.5375261855369754,-1.790027646300316,0.7872813998071488,-0.06630580453733746,-1.9025720404696305,0.07734210447791805,-11.505462813491148,0.849741444884466,-0.1444987501815458,-2.423591264207966,-0.8149019850026691,-8.991908094399758,3.2284317016601562,-2.4971799850463867,-2.5775203704833984,-5.51878547668457,-8.177316665649414,2.29339599609375,-0.14957237243652344,-10.422286987304688,-2.5882225036621094,-4.502323150634766,3.2284317016601562,-2.4971799850463867,-2.5775203704833984,-5.51878547668457,-8.177316665649414,2.29339599609375,-0.14957237243652344,-10.422286987304688,-2.5882225036621094,-4.502323150634766
44,0.88,-0.007574746757063831,0.09100021880417868,0.7083546104800056,0.9996922079303203,0.0025272242869640196,-0.0010806623874162731,-0.024656332038809833,0.005106215969161728,-0.0020360367806080445,-0.049323046488616504,-0.010993254867089904,0.1847729789807469,-0.036996797226836416,1.054951687429206,-0.09366464808916157,-0.30979569579507404,0.045147384004490365,-0.015600121896788787,0.35943919716687944,0.5266338898410807,-0.3998294432105626,-0.02990496260733879,0.01802314606524982,0.22705039049577003,0.5424294402669719,-1.856534556259681,-0.7892041086225411,0.04433888530787212,1.88577371319635,-0.013161350183582207,4.767475860846191,-0.8672523486321093,0.12027110709840097,2.3358359917263725,0.8279719822265007,1.1507740117846348,-2.9671096801757812,0.9707984924316406,2.926227569580078,0.9610424041748047,7.739599227905273,-1.9733171463012695,1.956472396850586,12.382034301757812,-3.3219833374023438,4.377668380737305,-2.9671096801757812,0.9707984924316406,2.926227569580078,0.9610424041748047,7.739599227905273,-1.9733171463012695,1.956472396850586,12.382034301757812,-3.3219833374023438,4.377668380737305
45,0.9,-0.007447748957603653,0.09515453803403083,0.7085967486039284,0.9996835781614024,-0.0003592060174950234,-0.0005528558105808274,-0.025145752641445345,-0.000690381253317811,-0.0011234269974946733,-0.05029642988961993,0.012515276362595688,0.2179420956771388,0.03432934412222327,-1.0588266304562395,0.09005332953884636,0.1641500766083519,0.04857614073985473,-0.016723532207598944,0.3504904461118313,0.5248217646160513,-0.4877067642380698,-0.0249266600109754,0.016657129088870792,0.21504765956489522,0.5377760663123706,-1.9474994585837497,0.7889718955482967,-0.0646919868916997,-1.8990906139259542,0.07745183624625723,-11.591544649098225,0.8483387859216736,-0.14410562155790943,-2.4181470301980807,-0.8170718783915248,-9.05154508539254,3.2329978942871094,-2.493807792663574,-2.5702781677246094,-5.510232925415039,-8.16691780090332,2.2935218811035156,-0.13591766357421875,-10.41110610961914,-2.595376968383789,-4.491683006286621,3.2329978942871094,-2.493807792663574,-2.5702781677246094,-5.510232925415039,-8.16691780090332,2.2935218811035156,-0.13591766357421875,-10.41110610961914,-2.595376968383789,-4.491683006286621
46,0.92,-0.007521027553772565,0.09911777001345112,0.7082946327021011,0.9996551636752866,0.0025127923089481854,-0.0010669004745525032,-0.02611706981123961,0.005079612264109765,-0.002001812929682368,-0.052245358540430435,-0.00924564998359435,0.19091319781528893,-0.0366496614779171,1.0542832846425025,-0.09375447453829658,-0.30990177523516765,0.045104273814446746,-0.016042766644070016,0.3591469758530821,0.5278097268291971,-0.5373810936652906,-0.030270667054699465,0.017570239749542423,0.2255016510713381,0.5427275699494162,-2.0153528572954134,-0.7921380770730617,0.046896485160507234,1.8857659210421847,-0.011323387363096647,4.669961369047347,-0.866609509839721,0.1226399253727694,2.3403035987023406,0.8331646818877507,1.0769757794059702,-2.974088668823242,0.9787721633911133,2.9206695556640625,0.9582061767578125,7.734016418457031,-1.9702796936035156,1.9644279479980469,12.398426055908203,-3.325716018676758,4.373876571655273,-2.974088668823242,0.9787721633911133,2.9206695556640625,0.9582061767578125,7.734016418457031,-1.9702796936035156,1.9644279479980469,12.398426055908203,-3.325716018676758,4.373876571655273
47,0.94,-0.007358830545807929,0.10339021821811976,0.7085361137474732,0.9996456964343363,-0.0003699804140268822,-0.0005375337417649633,-0.026609317395990498,-0.0007110923311535898,-0.001094376654270024,-0.05322453932100893,0.014288343652459038,0.22369957455591385,0.033965390664981575,-1.0577856127499052,0.08981355267979685,0.1635718459525864,0.0485239362926778,-0.017127862523386952,0.3502289450109163,0.5260001587705919,-0.6269926110833894,-0.02530276632379245,0.016227180976108212,0.2135868099096582,0.5380764309871711,-2.107578070561937,0.7902077432423826,-0.06322676697326318,-1.8965136885021279,0.07609047650657381,-11.669804371556022,0.8473704088456322,-0.14370168715155532,-2.413404919736241,-0.820074946170642,-9.105520267574368,3.236398696899414,-2.491758346557617,-2.563039779663086,-5.508119583129883,-8.157281875610352,2.294340133666992,-0.12323570251464844,-10.40103530883789,-2.604522705078125,-4.482337951660156,3.236398696899414,-2.491758346557617,-2.563039779663086,-5.508119583129883,-8.157281875610352,2.294340133666992,-0.12323570251464844,-10.40103530883789,-2.604522705078125,-4.482337951660156
48,0.96,-0.007397228578018157,0.10746833003901161,0.7082346138785245,0.9996157760526928,0.002501582358723994,-0.0010570810214825513,-0.02758486780808753,0.005059592720492702,-0.0019753393785443035,-0.05518193542911425,-0.0075256903871414255,0.19660610110049087,-0.03628761371168476,1.05359179205097,-0.09394005289133689,-0.3100995202816959,0.045028434743378136,-0.016405690954135344,0.35890237678378323,0.5289863034709438,-0.6783525043641401,-0.030640522390980397,0.017170976874163392,0.22412928788872746,0.5430580127509074,-2.1766586598447644,-0.7949424637473219,0.049386122636798216,1.885507804098013,-0.010228406695360265,4.581000436257195,-0.8657682085012114,0.12488710291254063,2.344195800791797,0.8374190461906706,1.0094318718854693,-2.980480194091797,0.9858512878417969,2.9149551391601562,0.9550666809082031,7.728996276855469,-1.9672622680664062,1.9706058502197266,12.412727355957031,-3.3283863067626953,4.370166778564453,-2.980480194091797,0.9858512878417969,2.9149551391601562,0.9550666809082031,7.728996276855469,-1.9672622680664062,1.9706058502197266,12.412727355957031,-3.3283863067626953,4.370166778564453
49,0.98,-0.007200299640683913,0.1118502266435231,0.7084765396093544,0.9996054480952571,-0.00037863174384975343,-0.0005260742593466045,-0.02808074112550436,-0.0007274200806685784,-0.0010729981173478798,-0.056168487229903565,0.016040464727563004,0.2290316138774384,0.03368806867212564,-1.056904595943036,0.08964947880449832,0.1629427139843607,0.048438997070773544,-0.017454616272246485,0.3500038217449962,0.527163237323437,-0.7695438961756859,-0.02567370777885687,0.015849882022510493,0.21228874733905242,0.5383980285034842,-2.2700425080045314,0.7913496784237536,-0.06190654185506878,-1.8946959185702448,0.07389962905442995,-11.74099886033799,0.8469993298301034,-0.14333928499187829,-2.409427090607055,-0.8233994634656221,-9.155390696865892,3.239744186401367,-2.491034507751465,-2.5567073822021484,-5.509016036987305,-8.148448944091797,2.2960071563720703,-0.11216163635253906,-10.392854690551758,-2.613605499267578,-4.4740095138549805,3.239744186401367,-2.491034507751465,-2.5567073822021484,-5.509016036987305,-8.148448944091797,2.2960071563720703,-0.11216163635253906,-10.392854690551758,-2.613605499267578,-4.4740095138549805
50,1.0,-0.007204329242879348,0.1160348897845732,0.7081763237286899,0.9995739936406427,0.002491641894949765,-0.0010501100449929021,-0.02906063018687265,0.005042225595132208,-0.001954509259942246,-0.058134584351435314,-0.0058348296556438636,0.2018918929383166,-0.035931300214229224,1.052848956576785,-0.09401586265370268,-0.31029982886561486,0.044922494432868956,-0.01669573285936302,0.3586890894170783,0.5301399204787336,-0.8224462059302122,-0.03099991210945356,0.01681975849105718,0.22290412725836783,0.5433954552538334,-2.3402677627990407,-0.7974635677924922,0.051595568790899535,1.885298800755228,-0.009255918013134412,4.4992709667629,-0.864830472304422,0.1268144707407722,2.3472998081465293,0.8407357339626624,0.946064023502337,-2.9862499237060547,0.9917125701904297,2.909984588623047,0.9523200988769531,7.724189758300781,-1.964529037475586,1.9749107360839844,12.424934387207031,-3.331167221069336,4.36619758605957,-2.9862499237060547,0.9917125701904297,2.909984588623047,0.9523200988769531,7.724189758300781,-1.964529037475586,1.9749107360839844,12.424934387207031,-3.331167221069336,4.36619758605957
51,1.02,-0.006973323637878615,0.12051836868375694,0.708419347277249,0.9995627796021765,-0.0003868504823023272,-0.0005170548511502002,-0.029560660259143615,-0.0007427942040591559,-0.0010565288763607747,-0.059129554202744496,0.017757227527638857,0.2339797783476079,0.03347402151522086,-1.0561307214560294,0.0894844405141238,0.1622478290783766,0.04832535230873324,-0.01771146988658047,0.3498030642301965,0.5282946434248578,-0.9150851120447456,-0.0260288971444451,0.015518734644719943,0.21112643526543548,0.5387196155286423,-2.434730649983346,0.7924147809592332,-0.06066563054682451,-1.8934745303106415,0.0710898060731483,-11.806067210723093,0.8469684006762608,-0.14295914035056262,-2.4058988529781877,-0.8267239829757345,-9.201481077121217,3.2428550720214844,-2.491438865661621,-2.5512008666992188,-5.512933731079102,-8.140308380126953,2.29803466796875,-0.10190200805664062,-10.385553359985352,-2.6216278076171875,-4.465867042541504,3.2428550720214844,-2.491438865661621,-2.5512008666992188,-5.512933731079102,-8.140308380126953,2.29803466796875,-0.10190200805664062,-10.385553359985352,-2.6216278076171875,-4.465867042541504
