step,time_s,torso_x,torso_y,torso_z,quat_w,quat_x,quat_y,quat_z,roll_rad,pitch_rad,yaw_rad,body_vx,body_vy,body_vz,body_wx,body_wy,body_wz,l_hip_roll_pos,l_hip_yaw_pos,l_hip_pitch_pos,l_knee_pos,l_wheel_pos,r_hip_roll_pos,r_hip_yaw_pos,r_hip_pitch_pos,r_knee_pos,r_wheel_pos,l_hip_roll_vel,l_hip_yaw_vel,l_hip_pitch_vel,l_knee_vel,l_wheel_vel,r_hip_roll_vel,r_hip_yaw_vel,r_hip_pitch_vel,r_knee_vel,r_wheel_vel,l_hip_roll_torque,l_hip_yaw_torque,l_hip_pitch_torque,l_knee_torque,l_wheel_torque,r_hip_roll_torque,r_hip_yaw_torque,r_hip_pitch_torque,r_knee_torque,r_wheel_torque,l_hip_roll_ctrl,l_hip_yaw_ctrl,l_hip_pitch_ctrl,l_knee_ctrl,l_wheel_ctrl,r_hip_roll_ctrl,r_hip_yaw_ctrl,r_hip_pitch_ctrl,r_knee_ctrl,r_wheel_ctrl
0,0.0,0.0005224760239616836,0.0029346083831609873,0.7052656983616978,0.9998707387631197,-0.015391249515495007,0.004250232069625369,0.0018843383452654134,-0.03076848322742133,0.00855747444614856,0.0036374979902304727,0.03363945918167789,-0.009040407539864076,0.06421738776691345,0.3952748719910484,0.5480083195849742,0.42073152320899404,-0.013812951068200857,-0.01086764119144626,0.3288047894081816,0.6007234731238011,0.03253146522367508,0.005783593847439591,-0.007275731445800241,0.31105826748804793,0.5868589663669982,-0.052413769852484485,-0.45361246228981306,-0.5995290588080446,1.0162320372182938,-0.1663390047255788,5.546323222960448,-0.04997894086539771,-0.5731116062032419,-0.7446940001940764,-1.59080626135402,-2.012118146699826,-1.011338233947754,-3.6660776138305664,4.103183746337891,-3.446514129638672,2.4325790405273438,0.21126556396484375,2.140226364135742,-1.0450000762939453,-8.632835388183594,-1.3079633712768555,-1.011338233947754,-3.6660776138305664,4.103183746337891,-3.446514129638672,2.4325790405273438,0.21126556396484375,2.140226364135742,-1.0450000762939453,-8.632835388183594,-1.3079633712768555
1,0.02,0.0010253742107744753,0.0028333117867549596,0.7051701546300857,0.9999187538007441,-0.01026124697125561,0.005746932552623853,0.004915828963403305,-0.02046712913212054,0.011594076091747485,0.009713723365840985,0.014975163473587363,-0.005179955387395788,-0.05640192627459643,0.5952588310243012,-0.15642299464932724,0.2921857492996137,0.0031254674851187224,-0.012749679380871582,0.34936538806644785,0.6063834874406827,0.04667329548274312,0.019226214067305673,-0.008018230537171765,0.3172094076943758,0.596963501134524,-0.06530721375754736,1.593466809364309,0.28080922356992977,0.9939694330652697,0.6421425799530152,-3.1193356843266287,1.0716384964829901,0.3527492909743112,0.8073679705380836,1.70175853098985,0.6594230703882757,4.123111724853516,-1.1328144073486328,4.254341125488281,-3.7886524200439453,-4.421716690063477,2.430631637573242,1.5943794250488281,0.47817420959472656,5.693046569824219,1.2129344940185547,4.123111724853516,-1.1328144073486328,4.254341125488281,-3.7886524200439453,-4.421716690063477,2.430631637573242,1.5943794250488281,0.47817420959472656,5.693046569824219,1.2129344940185547
2,0.04,0.0008721424143647299,0.0033816212396036165,0.7048908379245189,0.9999176749004216,-0.011519138658515195,0.004504007461678855,0.0034156672973738277,-0.023008592029688444,0.009086089447615924,0.006727336065032169,0.0008120323593013037,0.054402709019314446,0.054070101042617974,-0.6608973332101911,0.22300485862790664,-0.4760665054206366,0.013271767912145356,-0.010037300741876535,0.3529099991503798,0.603693478690352,0.1216619098769333,0.03650374744152729,-0.0037485061726274917,0.3046511346951656,0.5898063668045369,-0.11731660262539477,0.0011796442325402723,-0.29791464431983417,-0.3994410535836493,-0.818704502660161,9.297210624509361,0.6929129177563218,-0.27252264909123547,-1.2949439770050983,-0.3544178629769049,-4.764744610861013,-0.3034553527832031,-1.8659734725952148,-6.599864959716797,-0.4355297088623047,6.478288650512695,0.8434085845947266,1.0362586975097656,0.6265144348144531,-8.999916076660156,-2.6716089248657227,-0.3034553527832031,-1.8659734725952148,-6.599864959716797,-0.4355297088623047,6.478288650512695,0.8434085845947266,1.0362586975097656,0.6265144348144531,-8.999916076660156,-2.6716089248657227
3,0.06,0.0005334534947769999,0.003992738506494272,0.704819692104963,0.9999098409445772,-0.012450099331502963,0.004208238396146271,0.0027560367246016776,-0.02487821912302613,0.008484445625586203,0.005407011472058959,-0.02603806234871058,0.012588563009859156,-0.034672225243779324,0.29681194573661224,-0.16834982379514046,0.2535945554054821,0.002564854396393595,-0.010744695392476914,0.3527645667810227,0.6013690335789029,0.1405220594132959,0.03635598794333515,-0.0035051195395130377,0.29491065523885496,0.5946438699487618,-0.22766949984812498,-0.8531351963512757,0.1161326588254192,0.11434092533146802,0.3816805996842648,-5.610042585269905,-0.4037040804659965,0.1748838608336146,0.07397199444033038,0.6823660488423685,-6.207049682412346,-2.499917984008789,-1.2779121398925781,6.851600646972656,-6.836284637451172,-7.851806640625,-1.4151992797851562,1.4798622131347656,-1.9033260345458984,2.231159210205078,-0.42465686798095703,-2.499917984008789,-1.2779121398925781,6.851600646972656,-6.836284637451172,-7.851806640625,-1.4151992797851562,1.4798622131347656,-1.9033260345458984,2.231159210205078,-0.42465686798095703
4,0.08,0.0006335984072370485,0.004330301834346104,0.7044889895952418,0.9999438621988749,-0.007285044365285602,0.0056170892184791,0.0052582210019457105,-0.01451163648732759,0.011310401667443445,0.010434866935794502,0.0253716195503268,0.022002898745686394,-0.0035029725480212777,0.636914094663972,0.3302924002376548,0.24279631934101975,0.010106602700036922,-0.01307106226039998,0.37288951087131283,0.608933284771447,0.15101660177108317,0.031458022602904284,-0.005873234289503151,0.29117578556934093,0.5934947269887151,-0.3771606810150979,1.0876786280640156,-0.2593970531389581,1.6499528839100843,0.2792021752581905,5.323959721836901,-0.14781710714528803,-0.30978498546667144,-0.397722136901113,-0.521923616359318,-8.51337133674671,3.651653289794922,-1.567582130432129,3.095977783203125,-0.06242179870605469,5.196006774902344,0.3331127166748047,2.0878047943115234,0.8123950958251953,-7.518352508544922,-1.5839500427246094,3.651653289794922,-1.567582130432129,3.095977783203125,-0.06242179870605469,5.196006774902344,0.3331127166748047,2.0878047943115234,0.8123950958251953,-7.518352508544922,-1.5839500427246094
5,0.1,0.0009347519098213165,0.0053571052973975936,0.7041152705487275,0.9999264551505953,-0.008143937142139838,0.00787993774356691,0.004320550768992193,-0.01622132868066232,0.015829750114684783,0.008513288027621321,0.006957203052206772,0.07180121668885397,-0.03126170503286604,-0.5655362359729819,0.16282615417983917,-0.34950614235176247,0.02985089261747551,-0.016850205116312824,0.3811508869707757,0.6176778230537828,0.17124230438760663,0.03614100752060795,-0.01063708821041561,0.27669787870832346,0.5915186955173118,-0.5046643652191998,0.9093960342202613,-0.16171088404969056,-0.435014468556586,0.6444634358919972,-2.37080646698624,0.44237350234297174,-0.19141554003926473,-0.887277633332294,0.18108731605692951,-4.654500313101173,1.7558708190917969,-2.3928346633911133,-3.5974788665771484,-0.5828361511230469,-3.4007787704467773,0.8851022720336914,1.5622367858886719,-1.6652450561523438,0.018739700317382812,1.9078350067138672,1.7558708190917969,-2.3928346633911133,-3.5974788665771484,-0.5828361511230469,-3.4007787704467773,0.8851022720336914,1.5622367858886719,-1.6652450561523438,0.018739700317382812,1.9078350067138672
6,0.12,0.0006600303000103543,0.006647331646510192,0.7043750774967991,0.9998980963428596,-0.01283194384822848,0.006049016038180568,0.0015961052507393128,-0.025646663211690752,0.012138059561449059,0.0030368723151365153,-0.02719498473218278,0.059433804942554576,0.040888257638913315,-0.3621642237068599,-0.41567683644783393,-0.20120037659376908,0.031039315308728617,-0.013773876896877833,0.3658701786782056,0.6077123384830775,0.1853711901952455,0.04009845714401655,-0.006998436503550721,0.25357894499459316,0.5923635319472071,-0.6555213031720583,-0.3758470057233481,0.38999487537851724,-0.8668710436214774,-1.2574224160039897,3.087767486081125,0.04413110717151056,0.4426845520728578,-1.3450242308350095,-0.04356708569991526,-9.83934882066,-1.9153928756713867,0.39481067657470703,-1.5295391082763672,-7.069171905517578,2.2082691192626953,0.031734466552734375,2.291349411010742,0.4228706359863281,-5.061254501342773,-2.8813676834106445,-1.9153928756713867,0.39481067657470703,-1.5295391082763672,-7.069171905517578,2.2082691192626953,0.031734466552734375,2.291349411010742,0.4228706359863281,-5.061254501342773,-2.8813676834106445
7,0.14,0.0002600167267556645,0.007576066634451877,0.7035061455403547,0.9999079526223749,-0.010876290268026544,0.0061507977494935,0.005287748063352467,-0.02168890247438274,0.012415804319776569,0.010441721480462806,-0.015527605770454067,0.035111403103640124,-0.09336309879517661,0.5277888236715294,0.24748126378196658,0.7612545361493249,0.017532525127178355,-0.01688804802008436,0.37923191762914255,0.6160532136530373,0.10308339214888942,0.025155283038141994,-0.006964991353494332,0.2402127678396362,0.5978148760341975,-0.862407182778576,-0.8336659615115745,-0.4261950995223009,1.434064543839609,1.9168977943287344,-9.221374903517654,-1.1758051982675468,-0.26103259297756315,-0.2948287249690857,0.4478587126822983,-10.787926703977321,-1.7763261795043945,-4.207695960998535,9.403446197509766,-1.1699256896972656,-6.154287338256836,-2.5097150802612305,-0.04096698760986328,-3.2290687561035156,1.5382499694824219,-0.20894145965576172,-1.7763261795043945,-4.207695960998535,9.403446197509766,-1.1699256896972656,-6.154287338256836,-2.5097150802612305,-0.04096698760986328,-3.2290687561035156,1.5382499694824219,-0.20894145965576172
8,0.16,0.0003213111622881669,0.00836278018370081,0.7024650590888282,0.9999120983310494,-0.004327540304424442,0.009331499493925168,0.008366069764621545,-0.008499777835669362,0.01873486344228666,0.01665359609106571,0.010489888618785389,0.04853544486252806,-0.01447248170713138,0.6867084498958163,0.3150319063619962,-0.005400290808701691,0.03177802624998418,-0.022598943036624006,0.4078606057389186,0.6368452622509682,0.06314204989101992,0.01023326771123873,-0.012859186001289578,0.23584628321241344,0.5940083687907444,-1.0445498828872053,1.5645189787569747,-0.2082034532028256,1.6120545576362184,0.40626025725459464,3.3398677985309906,-0.4981726272192956,-0.2850405311383966,-0.19446388439223067,-0.605764764169932,-7.778056513369983,4.844963073730469,-1.1677379608154297,-0.4395427703857422,-0.762237548828125,5.78019905090332,0.162933349609375,2.1328277587890625,4.2601776123046875,-8.36314582824707,0.8383426666259766,4.844963073730469,-1.1677379608154297,-0.4395427703857422,-0.762237548828125,5.78019905090332,0.162933349609375,2.1328277587890625,4.2601776123046875,-8.36314582824707,0.8383426666259766
9,0.18,0.0002489091855737107,0.009876808185141337,0.7028167090617689,0.9999178421463036,-0.006618092320822845,0.009859405829998733,0.004827207079879356,-0.013142860287368725,0.019782375664071816,0.009525127794023645,-0.012631834429967332,0.09338819605982503,0.03489173223656644,-0.7946948150185151,-0.105710273491269,-0.604263401005518,0.05345173297836264,-0.023181683313557987,0.40218133727723787,0.6336561256142008,0.0542013229983116,0.01401699630985611,-0.013824172654321806,0.2160336688667496,0.5840846462727315,-1.1673993362579862,0.8284075055427548,0.06888748607801091,-1.5065008516366396,-0.41381046087698653,-3.41735412392122,0.5651298110133943,0.10573051757450715,-1.4249593223811858,-0.4005830675315516,-4.817958235880236,1.0726089477539062,-2.074932098388672,-6.124330520629883,-3.7144832611083984,-3.1188535690307617,1.6091880798339844,2.8397388458251953,-2.208311080932617,-2.313631057739258,1.4735126495361328,1.0726089477539062,-2.074932098388672,-6.124330520629883,-3.7144832611083984,-3.1188535690307617,1.6091880798339844,2.8397388458251953,-2.208311080932617,-2.313631057739258,1.4735126495361328
10,0.2,-0.0005830734078806374,0.011352336123793817,0.7034596777634723,0.9999336252451538,-0.010410340442457387,0.004853796960820669,0.0009003171765385428,-0.020813045910018386,0.009725848129812585,0.0016995366776937464,-0.06406401114126581,0.05893987328555492,0.028737832368057808,-0.06277424546531414,-0.7851850489216518,-0.26013226268957185,0.052808479803805944,-0.01417532867971185,0.37462571162495933,0.6150689477295398,-0.017261331654946928,0.01915970433397505,-0.0034045093210798806,0.19283607187424665,0.5836245511198382,-1.342378406001954,-0.5520508071004031,0.746524670611962,-1.2479402481819757,-1.2669680993096208,-3.7523543510462884,0.08238277700408983,0.8300570250054977,-1.0395052743877007,0.18440214532881033,-11.850654658607953,-2.170217514038086,-0.3174419403076172,0.6638317108154297,-8.875938415527344,-0.8678255081176758,0.052765846252441406,1.5331802368164062,0.2079029083251953,-1.8650989532470703,-3.6142940521240234,-2.170217514038086,-0.3174419403076172,0.6638317108154297,-8.875938415527344,-0.8678255081176758,0.052765846252441406,1.5331802368164062,0.2079029083251953,-1.8650989532470703,-3.6142940521240234
11,0.22,-0.0014952391514833883,0.012296814754388818,0.7024502295235205,0.9999737818536557,-0.005162689629505731,0.0033369086033601895,0.003827176773871763,-0.010299980878280915,0.006713209707415556,0.007619943460224862,-0.030931590858282385,0.039310949377091634,-0.10046559516824359,0.8645620436260312,0.2656767434609877,0.6935375345172282,0.041597400005399986,-0.012817685742382942,0.3873664710029571,0.6258023751263558,-0.12217825634094798,0.005714429757907579,-9.991118088654158e-05,0.18411501008850562,0.5861533660229564,-1.5680727916409154,-0.543745301277507,-0.324437111899003,1.7012325500950671,1.7455972739249297,-6.175525486733544,-1.0872046057720786,-0.29704166005140753,-0.09288275367099391,0.08423948871043226,-10.914694791537958,-0.7665929794311523,-4.790641784667969,9.510719299316406,0.17848777770996094,-1.6245965957641602,-2.1869945526123047,0.0745086669921875,-2.4817676544189453,-0.15566444396972656,0.6502895355224609,-0.7665929794311523,-4.790641784667969,9.510719299316406,0.17848777770996094,-1.6245965957641602,-2.1869945526123047,0.0745086669921875,-2.4817676544189453,-0.15566444396972656,0.6502895355224609
12,0.24,-0.00194922463445198,0.013471657448120355,0.7013798078737726,0.9999589408931886,0.0016193259868367163,0.005982823525304723,0.00661060767137763,0.003317861942595522,0.011944030281168035,0.013241380183531838,-0.017425420680773313,0.07448505043449409,-0.019246369218059226,0.5156214780252119,0.27907676677497867,-0.01230959723675653,0.05898585423000143,-0.01712610419983986,0.4183605860320809,0.6438748316210784,-0.13060169392607482,-0.005829226755684012,-0.005961155949938433,0.1824910329549222,0.5807034267430676,-1.723940608429972,1.6892226518155866,-0.17602757749756268,1.5053626997058007,0.33580400851599945,4.115891369345726,-0.28485613226191914,-0.30976364728527156,-0.05932944916510167,-0.4920324331883564,-5.310032513543279,5.086479187011719,-1.8222198486328125,-0.6199207305908203,-1.0243816375732422,5.033748626708984,0.5424585342407227,1.7792644500732422,3.0295448303222656,-6.015647888183594,2.4987640380859375,5.086479187011719,-1.8222198486328125,-0.6199207305908203,-1.0243816375732422,5.033748626708984,0.5424585342407227,1.7792644500732422,3.0295448303222656,-6.015647888183594,2.4987640380859375
13,0.26,-0.002619947109452273,0.015503199422310033,0.7019848173337865,0.999971535015237,-0.0034271729751378637,0.005759974323599077,0.0034650166607813806,-0.006814740815920593,0.011543627528238882,0.00689086884967412,-0.04408902685485171,0.11916015959042464,0.05774093026104903,-1.1340195334660135,-0.2076617195789761,-0.5399877802590727,0.0811357590356603,-0.01722270787912701,0.4072667827783206,0.6325239244773043,-0.09025482818746092,0.0020000354372159993,-0.006616384405898132,0.1597602140314908,0.569617619637022,-1.8087458776063636,0.7951851191896536,0.0882934345976088,-1.8490938747741201,-1.0531037065311022,0.38301857861523037,0.7577400984805883,0.14709367518212318,-1.7492062675781905,-0.554849853913322,-3.347381525209745,0.9636726379394531,-1.7722482681274414,-7.153861999511719,-4.9166259765625,-1.6344118118286133,1.9541378021240234,2.5203723907470703,-2.6128673553466797,-3.0932884216308594,1.089681625366211,0.9636726379394531,-1.7722482681274414,-7.153861999511719,-4.9166259765625,-1.6344118118286133,1.9541378021240234,2.5203723907470703,-2.6128673553466797,-3.0932884216308594,1.089681625366211
14,0.28,-0.004071356486945478,0.01732101230758417,0.7025429747520826,0.9999635996592772,-0.008482587206338384,0.0009138415352555342,9.982181636371601e-05,-0.016965216622256894,0.0018293110570105318,0.00018413319373015963,-0.09558610335040557,0.06962047839630067,0.00767540924237987,-0.053222019370658374,-0.7009994979576515,-0.203310820105585,0.07841808380454417,-0.010130356289917371,0.37984496195677436,0.6127567048238401,-0.13215920056296124,0.00990988909811799,0.0020142109421442183,0.13656440959573016,0.5680594860839582,-1.9548432596199123,-0.7018448539507222,0.5841951733855134,-1.0579963000022246,-0.941891009156025,-4.099113361113679,0.19457371261990167,0.6580369124302121,-0.8507360871856582,0.20372310053302145,-10.386746987588792,-2.583282470703125,-1.157322883605957,1.8576202392578125,-8.204473495483398,-2.8110923767089844,0.20934677124023438,0.7799558639526367,0.9032974243164062,-1.3878593444824219,-3.6179943084716797,-2.583282470703125,-1.157322883605957,1.8576202392578125,-8.204473495483398,-2.8110923767089844,0.20934677124023438,0.7799558639526367,0.9032974243164062,-1.3878593444824219,-3.6179943084716797
15,0.3,-0.0055461095127855055,0.018366567483539546,0.7015406402403827,0.999991952913183,-0.0022819844282891467,-0.0003168401514700184,0.00328424546351714,-0.004566030031352491,-0.0006186860491161001,0.006569932639796513,-0.05683108348925372,0.04129616879143456,-0.08271685988814309,1.0130604134326904,0.2728825201048702,0.6978466649375895,0.06779315412760985,-0.008966229387407449,0.3964838444770818,0.6233628520786876,-0.2069472498545782,5.379520420573363e-05,0.0033143486803280963,0.1329272421271488,0.5674625042661846,-2.135981523818189,-0.44360986407014136,-0.30956759787392313,1.9519694931449276,1.370871728002612,-3.412032862521992,-0.8743198206531673,-0.3727421123013301,0.22515062230113037,-0.16348012093751577,-8.125608629601032,-0.3604440689086914,-4.363325119018555,9.918102264404297,-0.6928367614746094,-0.20576858520507812,-1.5473346710205078,1.0319766998291016,-1.2863216400146484,-1.7387924194335938,1.3712921142578125,-0.3604440689086914,-4.363325119018555,9.918102264404297,-0.6928367614746094,-0.20576858520507812,-1.5473346710205078,1.0319766998291016,-1.2863216400146484,-1.7387924194335938,1.3712921142578125
16,0.32,-0.006498642676578437,0.019713727676578544,0.7006134519124082,0.999973378610404,0.003564436841116287,0.002050917291015755,0.006027486936001188,0.007153527588667904,0.0040587673362441875,0.01206966613798005,-0.0390145344848023,0.086513248525334,-0.02020585403436702,0.26175388382667647,0.24733790421108548,-0.017254562472654666,0.08769729480451754,-0.012628121146688681,0.42619729644312937,0.6370747682143886,-0.18731740781202405,-0.0041843150016661985,-0.0037481296986510045,0.13613710554625574,0.564392245818106,-2.234486748026074,1.8417252480509267,-0.1427898843068937,1.208282956119363,0.23019702679340148,4.480928888132194,0.1556777863123795,-0.3675732205085692,0.13580760977060233,-0.12051046617517568,-2.374642314889919,5.41193962097168,-1.588247299194336,-1.402639389038086,-0.4686565399169922,4.003684997558594,1.4069099426269531,2.062440872192383,2.222412109375,-4.050809860229492,2.9355087280273438,5.41193962097168,-1.588247299194336,-1.402639389038086,-0.4686565399169922,4.003684997558594,1.4069099426269531,2.062440872192383,2.222412109375,-4.050809860229492,2.9355087280273438
17,0.34,-0.007636108741959856,0.02183992811319254,0.7013103716263422,0.999988835598776,-0.0031678933434680073,0.0010379834222934555,0.0033489879042804993,-0.006328819730061154,0.0020971636778927957,0.0066913892367272505,-0.06747475421921427,0.11854127287183672,0.06565132826471633,-1.2383412637520694,-0.32343029204014057,-0.45790818367478575,0.10623309372070112,-0.012387876623967934,0.41013159214172207,0.6202906204558135,-0.12435086712166098,0.0054425091933395925,-0.0038366156791941695,0.11493337356070352,0.5573406014628287,-2.2823997604969053,0.41576693092354416,0.11455906517580489,-2.042966300579486,-1.4389740310173018,2.1088325211991528,0.6692358987959964,0.23626907177534168,-1.7518388105127254,-0.45275390670439203,-2.377071282286237,-0.13174152374267578,-1.428330421447754,-7.420087814331055,-5.745845794677734,-1.0349540710449219,1.6777915954589844,2.3452701568603516,-2.066854476928711,-3.7469310760498047,0.1352529525756836,-0.13174152374267578,-1.428330421447754,-7.420087814331055,-5.745845794677734,-1.0349540710449219,1.6777915954589844,2.3452701568603516,-2.066854476928711,-3.7469310760498047,0.1352529525756836
18,0.36,-0.009296523208464228,0.023510017791911978,0.7017761648212603,0.9999673413813835,-0.007471929598741281,-0.002983539794409939,0.000764806520556126,-0.014948756651259797,-0.005955490755986524,0.0015741772510682313,-0.09642607308320454,0.057610838454290915,-0.0034513260829364158,0.12722914796252488,-0.4881217883780728,-0.1285260635044219,0.0987953993633191,-0.007954283699252182,0.3868398139820761,0.6031792120919527,-0.16121554523921644,0.00693011529612014,0.0034438732689774884,0.096408959539974,0.5551893266523613,-2.3916249697495626,-0.8540872808478484,0.3417479840715942,-0.6407398992765023,-0.476182954491631,-4.9889890787434314,-0.25945155258838476,0.48568215849410373,-0.44847505844057894,0.05914722775760134,-7.903340108287685,-2.725367546081543,-1.5402297973632812,3.8610916137695312,-6.849912643432617,-4.068320274353027,-0.2370147705078125,0.944915771484375,1.13983154296875,-1.842538833618164,-2.729246139526367,-2.725367546081543,-1.5402297973632812,3.8610916137695312,-6.849912643432617,-4.068320274353027,-0.2370147705078125,0.944915771484375,1.13983154296875,-1.842538833618164,-2.729246139526367
19,0.38,-0.010536628789792168,0.02432878820845172,0.7011796615525449,0.9999864558558484,-0.0009571391712051538,-0.0031534921948010905,0.0040283342021048794,-0.0019396987561602237,-0.00629922927310151,0.00806284327093063,-0.03589617020231054,0.029981490825195068,-0.04291100056756447,0.9590020003815743,0.29933318129281067,0.6664994120786142,0.09176573674630102,-0.008065598139431597,0.4038144826803029,0.6116304224586224,-0.2269000731870281,-0.0056489342387457345,0.0033396790923097973,0.09680436765833815,0.5495929753623288,-2.517440149900562,-0.07037306023019987,-0.24396104364355878,1.7634483674794252,0.9001429455616591,-1.9305369466018427,-0.8227199995670599,-0.36470865004284664,0.2929363123317295,-0.49271528259288344,-5.073296486474084,0.7626428604125977,-3.6593685150146484,8.521858215332031,-1.4247608184814453,0.9345979690551758,-1.0561847686767578,2.2191734313964844,-0.6973495483398438,-3.4083023071289062,1.8095569610595703,0.7626428604125977,-3.6593685150146484,8.521858215332031,-1.4247608184814453,0.9345979690551758,-1.0561847686767578,2.2191734313964844,-0.6973495483398438,-3.4083023071289062,1.8095569610595703
20,0.4,-0.010903290111044118,0.025509116435009915,0.7007742424425005,0.9999743678378887,0.002325688347822377,-0.0010478911495121052,0.006690049705519271,0.0046372636914019105,-0.002126848124345369,0.013375311365573784,-0.0034271657707754407,0.07969778725512275,-0.004787545312953917,-0.12483758542228679,0.1884345628660962,0.003428432243115301,0.11558885747044984,-0.009722735640696409,0.4234994733259638,0.6191794089367512,-0.20814457713601572,-0.003842845329602914,-0.0030815505195887004,0.09911887336366947,0.546482726487398,-2.5513789657004122,1.9392974729754962,-0.02635886036826877,0.494645859505975,0.05459783665260359,3.2355603366752317,0.6060156095236306,-0.31329394795692206,0.01672748865479435,0.07024444891318285,0.9888064092036968,5.319246292114258,-1.078444480895996,-3.129537582397461,0.2314929962158203,2.800872802734375,2.1386146545410156,2.445261001586914,1.4419097900390625,-2.752117156982422,3.283170700073242,5.319246292114258,-1.078444480895996,-3.129537582397461,0.2314929962158203,2.800872802734375,2.1386146545410156,2.445261001586914,1.4419097900390625,-2.752117156982422,3.283170700073242
21,0.42,-0.011509399976818794,0.027273072118142082,0.7016170135818647,0.9999683405102665,-0.005624675424243118,-0.003456936866193006,0.004441912990804764,-0.011280210449299923,-0.006863740097733678,0.008922761594199392,-0.049781582788141904,0.09277938320334644,0.06616292764435659,-1.1760397855591906,-0.5295483703507736,-0.43047510365009234,0.13023197994146016,-0.0064318014826429525,0.3989193030723445,0.5974721675814989,-0.15850815940438212,0.009499538195223894,-4.694961192829787e-05,0.07843405892530383,0.5429241094896562,-2.5702479232412068,0.046111044633649095,0.3183342801383082,-2.265814735314262,-1.7351449928227147,1.8807783529537765,0.6820364020102415,0.4862860483805933,-1.6515758691971096,-0.30892115747990284,-2.418022912462798,-1.2162322998046875,-1.1158714294433594,-7.306552886962891,-6.63221549987793,-0.6758708953857422,1.6771736145019531,2.2462844848632812,-0.7337665557861328,-4.07276725769043,-1.6174192428588867,-1.2162322998046875,-1.1158714294433594,-7.306552886962891,-6.63221549987793,-0.6758708953857422,1.6771736145019531,2.2462844848632812,-0.7337665557861328,-4.07276725769043,-1.6174192428588867
22,0.44,-0.01257302134470525,0.028429271602738903,0.7017683189382561,0.9999283462984756,-0.00898470916738821,-0.007184228108078085,0.0033112137448327145,-0.018018527119551923,-0.014308414301768525,0.006751791799590065,-0.057293745465845404,0.03199643426054312,-0.028579241323816902,0.22525566336585728,-0.3002009625999787,0.11242319160402722,0.11848556884953232,-0.001888701038133427,0.3791212335339743,0.5867472772861554,-0.21721583256681998,0.008847627501941503,0.007510699501722148,0.06250520171329325,0.5415062599787556,-2.6632169286605953,-0.9750160535113163,0.21171626796818763,-0.253982530444814,0.2240809579973502,-6.730295149791221,-0.4303015011901681,0.32919277772979133,-0.29823778258142086,0.03886385168404998,-6.4391334801295965,-2.6213254928588867,-2.363062858581543,5.711833953857422,-4.893901824951172,-4.776200294494629,-0.7248010635375977,0.9261493682861328,0.314727783203125,-1.4441604614257812,-1.8361396789550781,-2.6213254928588867,-2.363062858581543,5.711833953857422,-4.893901824951172,-4.776200294494629,-0.7248010635375977,0.9261493682861328,0.314727783203125,-1.4441604614257812,-1.8361396789550781
23,0.46,-0.013244899811065785,0.028902858944620694,0.7011001931013884,0.9999509472124857,-0.0027615035976078376,-0.007408298078502267,0.005966103109484511,-0.0056117762852030345,-0.014783457014279432,0.011974131555745312,-0.015883390306104597,0.018863031572098156,-0.03292637564558142,0.8456743543231994,0.16527423681894002,0.375023750135197,0.1170186939411239,-0.0003274107504484925,0.3963917965862626,0.596251190068641,-0.27017649783115383,-0.0034804969952858984,0.008837656613823481,0.06539363642748515,0.5374662206677101,-2.7660923230821903,0.4412452665781674,-0.02774621806304432,1.579360983922799,0.5406920314638182,0.5682310870271996,-0.7101804874814615,-0.13744756900337532,0.39887843651263555,-0.35864899611313417,-4.157422970278275,2.2170753479003906,-2.9272375106811523,5.504009246826172,-1.5248336791992188,3.1226749420166016,-0.4419088363647461,2.2891464233398438,1.557748794555664,-4.149377822875977,1.3988113403320312,2.2170753479003906,-2.9272375106811523,5.504009246826172,-1.5248336791992188,3.1226749420166016,-0.4419088363647461,2.2891464233398438,1.557748794555664,-4.149377822875977,1.3988113403320312
24,0.48,-0.013247574174707163,0.0298576165022786,0.7007561886539371,0.9999591645015987,-0.002060814087986668,-0.005592177030450159,0.00679337402316022,-0.004197712913952442,-0.011156128992845238,0.013610509252236199,0.013613108850227295,0.06801756586272922,-0.006599435842312975,-0.47234682285811025,0.22887944880810726,-0.10535019638106652,0.13859313517443578,-0.001999965368234533,0.40859863573129274,0.602557393168402,-0.2412036334183208,-0.0004536261077736452,0.004042464472757629,0.06518733473859305,0.5362365547262282,-2.7784226450542273,1.4657726078001663,-0.1732865846181569,-0.018203006254483525,0.20866708977358225,2.1870457415669935,0.6349226222096725,-0.32938668431918516,-0.23944099107897204,0.14995359924539198,2.1860648935291334,3.757068634033203,-2.3489856719970703,-3.4564552307128906,0.3293037414550781,1.1017036437988281,2.040630340576172,2.305166244506836,-0.0023174285888671875,-1.7941856384277344,3.5571041107177734,3.757068634033203,-2.3489856719970703,-3.4564552307128906,0.3293037414550781,1.1017036437988281,2.040630340576172,2.305166244506836,-0.0023174285888671875,-1.7941856384277344,3.5571041107177734
25,0.5,-0.013616654103858742,0.031113919935642508,0.7013932908616735,0.9999165138620466,-0.008666097946310618,-0.008648296087208282,0.004131709953928324,-0.0174056740060404,-0.017224388217098673,0.008413971347171416,-0.04186279688845778,0.058053812537169375,0.05177218626675894,-0.7302531870718506,-0.6658618576356086,-0.4109464816249068,0.14694423109125127,0.0023765973434129307,0.38582215998586955,0.5814386595710977,-0.19098373193743653,0.010655974427895365,0.00936212919359366,0.05186189004611622,0.5382635483942287,-2.7844032535052134,-0.19108519412066,0.5133367094745869,-1.7824612162460949,-1.8222982062025335,2.7344819742082143,0.49792247064386974,0.6910170227598688,-0.9172335140489887,0.06980436951280093,-2.206045563437573,-1.6145267486572266,-0.3585987091064453,-4.447845458984375,-8.20081901550293,-0.06205940246582031,1.4657573699951172,2.2441482543945312,1.1805477142333984,-3.4273548126220703,-2.131047248840332,-1.6145267486572266,-0.3585987091064453,-4.447845458984375,-8.20081901550293,-0.06205940246582031,1.4657573699951172,2.2441482543945312,1.1805477142333984,-3.4273548126220703,-2.131047248840332
26,0.52,-0.01427017350673764,0.031749817605168644,0.7011452648476433,0.9998780135120295,-0.010089076655444968,-0.01112899269223046,0.00427950337461603,-0.020277317538641853,-0.022170733996942627,0.008784797107119538,-0.027598469303713517,0.012056172895968883,-0.0519772597317098,0.24397706393746188,-0.009325081398682836,0.31473569457635114,0.13221129755329586,0.0047320026001008274,0.3776544033338547,0.5776980732534174,-0.23575978775437278,0.007948673651097492,0.014737495180704828,0.041977220300474474,0.5384597277496744,-2.8584622281272782,-1.0461747533454242,-0.06825812469201688,0.34704462431714145,0.9624945238706692,-5.967012000287435,-0.48402886168664794,0.011030228398123447,-0.26285040099603485,-0.04703686632740818,-4.915329409329168,-2.335968017578125,-3.772319793701172,6.850688934326172,-2.571063995361328,-4.658599853515625,-0.8496694564819336,0.5813150405883789,-1.2346534729003906,-1.2693748474121094,-1.025761604309082,-2.335968017578125,-3.772319793701172,6.850688934326172,-2.571063995361328,-4.658599853515625,-0.8496694564819336,0.5813150405883789,-1.2346534729003906,-1.2693748474121094,-1.025761604309082
27,0.54,-0.014506953404479548,0.03184713347162543,0.7003775364789699,0.9999210222692517,-0.0036441598654269485,-0.010226926256892097,0.006330821607405482,-0.007418846644847987,-0.020407512541183025,0.012738177166498695,-1.1097729116973237e-05,0.0006768239089675842,-0.025222763715658177,0.8752964266442259,0.16218461572658519,0.12197946683793168,0.13550081447195012,0.004950741952205082,0.4000862040199297,0.5904856303378734,-0.2573252049216104,-0.003246997314576381,0.01424647936383083,0.048775790609267455,0.5354838268530094,-2.9323701469006114,0.8556573742393222,0.03544850924174894,1.6464746614034853,0.3513337749836629,2.7430163170661155,-0.5918614993014613,-0.07617888283995336,0.6983621073754108,-0.23063891223728072,-2.7579124419887866,3.2496280670166016,-1.9718294143676758,3.4919662475585938,-1.8285293579101562,3.890064239501953,0.03853607177734375,2.0550918579101562,4.195732116699219,-5.022243499755859,1.2143802642822266,3.2496280670166016,-1.9718294143676758,3.4919662475585938,-1.8285293579101562,3.890064239501953,0.03853607177734375,2.0550918579101562,4.195732116699219,-5.022243499755859,1.2143802642822266
28,0.56,-0.014117150127067553,0.032305771359162294,0.7004929790239843,0.9999442711360799,-0.004317990378001544,-0.007878212189458783,0.005544668964458259,-0.008724050600790125,-0.01570830863554839,0.011158364184758155,0.036225003613497835,0.037784482387129496,0.02537630963073343,-0.6940306993191759,0.3170183761841427,-0.21356351419181308,0.152693753359966,0.001398137560388026,0.4065458456217263,0.5923276236477466,-0.20921775227334058,0.0021162529229057933,0.00901616749677256,0.043496782098907706,0.5274263796825275,-2.9245225527360894,0.8837731425329259,-0.3609275190601101,-0.5181736705071449,-0.016219604297813432,2.174635753241608,0.7487552387888008,-0.40112818511561127,-0.8073627986320067,-0.46842589593074474,2.882715998907358,2.016529083251953,-2.981212615966797,-4.208868026733398,-0.2364063262939453,0.03840923309326172,2.4429187774658203,2.8254852294921875,-1.5383892059326172,-3.609935760498047,3.3170852661132812,2.016529083251953,-2.981212615966797,-4.208868026733398,-0.2364063262939453,0.03840923309326172,2.4429187774658203,2.8254852294921875,-1.5383892059326172,-3.609935760498047,3.3170852661132812
29,0.58,-0.014244870345169743,0.032810110735048845,0.7011550170911827,0.9998944985200411,-0.008288905318666454,-0.011706752238395669,0.0022886305951518066,-0.01663495797770692,-0.023375222482228713,0.004772172413160386,-0.039171269529743674,0.015343108353474494,0.033839556383727404,-0.15782763159963847,-0.8708314404858918,-0.41457528042082226,0.15699586307184893,0.007984057730909168,0.3855166047075829,0.5706550208567772,-0.18034163774284495,0.01580704506544886,0.01632359132101842,0.03693977615317437,0.5315325365092954,-2.9348968057454226,-0.18953293059966983,0.8321407348222354,-1.3428710892888922,-1.7294558644967712,0.8159225680563099,0.6295852478442548,0.9165079685107282,-0.0685456914469395,0.5939135536622632,-3.10568253622082,-1.3405933380126953,0.3482685089111328,-1.0606441497802734,-9.965822219848633,-1.3255090713500977,1.6220474243164062,2.000612258911133,2.5139694213867188,-0.6327018737792969,-2.9122867584228516,-1.3405933380126953,0.3482685089111328,-1.0606441497802734,-9.965822219848633,-1.3255090713500977,1.6220474243164062,2.000612258911133,2.5139694213867188,-0.6327018737792969,-2.9122867584228516
30,0.6,-0.014629946214445841,0.03285231857879807,0.7007350921300842,0.9998686643606615,-0.007641554655186407,-0.014052651478222862,0.00260454573951325,-0.015360956786932766,-0.028065490425176247,0.005425338705739659,-0.004753676342955556,-0.006536593444598071,-0.05426894029968201,0.1877270844636786,0.17871322606156412,0.33961833479869197,0.14320746505385296,0.011411972833923052,0.3845195435797041,0.5698594206631684,-0.19310301644117514,0.016235246816920283,0.021173479645685993,0.031138323783770846,0.5322010066572082,-3.003982198966182,-0.9774205014403109,-0.24894999787553612,0.7010293538954093,0.9871875407984358,-1.7250624181294012,-0.30574556221038557,-0.21365497270079892,-0.4242389718459423,-0.2848920177015282,-3.860828418101037,-1.7924385070800781,-4.920657157897949,5.887531280517578,-0.2654838562011719,-1.4603452682495117,-0.5721616744995117,0.5276527404785156,-2.196186065673828,-2.4070358276367188,-0.027614593505859375,-1.7924385070800781,-4.920657157897949,5.887531280517578,-0.2654838562011719,-1.4603452682495117,-0.5721616744995117,0.5276527404785156,-2.196186065673828,-2.4070358276367188,-0.027614593505859375
31,0.62,-0.014639149671245105,0.032739641853720074,0.6999603345958144,0.9999032871379946,-0.0025503862243203856,-0.012862363512382948,0.004633735600406054,-0.005221228818824833,-0.025701432960539804,0.009335401601264967,0.004440283059772881,-0.005192897518390716,-0.024816261648472043,0.6913523313320481,0.10254401805998214,0.12327809213197226,0.14867688181177352,0.011276943017757076,0.40679993803151976,0.5806679634204421,-0.17259932728364707,0.008526828098759293,0.01963342519708175,0.04008463273401128,0.533530381839466,-3.0392742840303493,0.9906961774824414,0.1172751777095595,1.373422054286209,0.20527286330332228,3.189990313290278,-0.4272565467289543,-0.02700042787810372,0.9779029643466044,0.25813141628411285,-0.11545797527262058,3.4963741302490234,-1.6383380889892578,3.0052261352539062,-3.241342544555664,2.0318050384521484,-0.17471599578857422,1.670267105102539,4.232582092285156,-2.630422592163086,2.113800048828125,3.4963741302490234,-1.6383380889892578,3.0052261352539062,-3.241342544555664,2.0318050384521484,-0.17471599578857422,1.670267105102539,4.232582092285156,-2.630422592163086,2.113800048828125
32,0.64,-0.013919363331685771,0.032909403176334076,0.700521535883609,0.999926462145661,-0.005543869265660161,-0.0098708009914877,0.0043477697976316565,-0.011175154576571814,-0.019693216181451353,0.008806166360212057,0.06147625310847354,0.01709199359870987,0.05971090255073881,-0.938335924554288,0.46382650313398754,-0.15421193814534984,0.16462596073635702,0.006008621270552526,0.40843355455376645,0.5752772357366217,-0.07186837289949327,0.014963794292555404,0.012909090707124312,0.029315910311694976,0.520360714217063,-2.9950010512066605,0.7122077020534557,-0.5537666699682695,-0.6974695826027422,-0.5509971755420552,6.520529947653193,0.7388721820509133,-0.5565223943526488,-1.4074224011665715,-1.1720610837824619,4.063412182516805,1.5445327758789062,-3.0046157836914062,-5.111320495605469,0.010950088500976562,2.0159454345703125,2.8133716583251953,3.1913185119628906,-1.9989032745361328,-7.179098129272461,2.662851333618164,1.5445327758789062,-3.0046157836914062,-5.111320495605469,0.010950088500976562,2.0159454345703125,2.8133716583251953,3.1913185119628906,-1.9989032745361328,-7.179098129272461,2.662851333618164
33,0.66,-0.013508153017748728,0.0329990693905215,0.7014395820987775,0.9998697326232324,-0.010311005052718546,-0.0122501911811039,0.0020331686537826783,-0.02067679389697987,-0.0244577010119706,0.004319736516973291,-0.011053335063783074,-0.005754059283753974,0.03599054666996822,-0.13993485486210316,-0.7302702139889244,-0.2597754610532321,0.17064345897588742,0.010053539314499359,0.3874380577390188,0.5525231820972032,-0.024105370849507098,0.030700413212187975,0.017082392295393635,0.02263905359961344,0.5222050203142614,-2.978947069700511,0.03969248640107072,0.7489032144103441,-1.2846622026661165,-1.4364748788073756,-0.906206552366915,0.7917250047901532,0.7645078988050534,0.27272947580946333,0.834248128590801,-1.6623186029350527,-0.7559089660644531,0.2745800018310547,0.6272296905517578,-10.220878601074219,-4.343781471252441,1.6620063781738281,1.7333431243896484,2.3779678344726562,1.5653800964355469,-2.508546829223633,-0.7559089660644531,0.2745800018310547,0.6272296905517578,-10.220878601074219,-4.343781471252441,1.6620063781738281,1.7333431243896484,2.3779678344726562,1.5653800964355469,-2.508546829223633
34,0.68,-0.013366995411806758,0.03252581967698551,0.7013963523227129,0.9998551644678335,-0.009153087717262476,-0.014233040342020355,0.0018142863235872872,-0.018363623522195414,-0.028432575855123945,0.0038901817700973023,0.02506959588625708,-0.03552492647514014,-0.01878517847462825,0.24951683887245008,0.18878626355077902,0.1338325123592891,0.16310588823172553,0.014034901153707962,0.38642348358115797,0.5474723194202326,-0.012408462334347878,0.03344227029574355,0.021937609590394015,0.019396566588446986,0.5195493230735865,-3.0176085214122352,-0.6190056658712543,-0.19448188555252977,0.6969503365201312,0.3985114187332136,1.790130988576784,-0.19163246032248976,-0.14541605378311667,-0.3859372533738229,-0.6463847710640573,-2.46773851803762,-1.1057748794555664,-4.216524124145508,4.020549774169922,-0.02588653564453125,1.1814899444580078,0.20159530639648438,1.5005741119384766,-0.1710529327392578,-5.476369857788086,-0.3158378601074219,-1.1057748794555664,-4.216524124145508,4.020549774169922,-0.02588653564453125,1.1814899444580078,0.20159530639648438,1.5005741119384766,-0.1710529327392578,-5.476369857788086,-0.3158378601074219
35,0.7,-0.012889596262325066,0.031967116846546774,0.7006623855581384,0.9998880597077343,-0.004784452416993285,-0.013528302435574298,0.004238172033166724,-0.009686190309084488,-0.027016307809890158,0.008608093780704455,0.02495998693492813,-0.022560390340600176,-0.04426038873653442,0.5245563240726097,0.007965970084272982,0.37679488347102674,0.16538657228015377,0.015526899617678324,0.40499119403396683,0.5579282292673626,-0.0024521492886000213,0.0320446650479563,0.02090520037725986,0.03178960394175462,0.5268460094137151,-3.0090738575004368,0.5255492542373191,0.23111379039655575,1.022004728630839,0.6041210851982051,-0.515868416192844,0.0007947014967725815,-0.025282233341950507,1.2239648791428113,0.9567659477866914,2.6920218268757616,2.0429248809814453,-1.9427099227905273,4.941902160644531,-3.9738636016845703,-1.6597003936767578,0.03514575958251953,1.7598628997802734,1.2531452178955078,2.3702659606933594,3.115184783935547,2.0429248809814453,-1.9427099227905273,4.941902160644531,-3.9738636016845703,-1.6597003936767578,0.03514575958251953,1.7598628997802734,1.2531452178955078,2.3702659606933594,3.115184783935547
36,0.72,-0.011950066550615805,0.031709117384520404,0.7009138992522073,0.9998941478695269,-0.006008757692555147,-0.012162022217622205,0.005260523057898887,-0.012148074075978815,-0.024260631076344297,0.010669431841596624,0.06478034568590879,-0.006791451670297929,0.044111450871474736,-0.530308337276398,0.25091900062608896,-0.1448633364120232,0.17983477562769343,0.015173485196474212,0.40952197359247394,0.5503824782926855,0.11053732148780018,0.03670034084100268,0.01802127140394159,0.030688382988873667,0.523626689561738,-2.9545632872443988,0.8619399168683565,-0.22058450174653685,-0.18652892794178583,-1.048906496155035,10.514474474863945,0.35552832020018466,-0.23295961378120403,-0.805053793510888,-0.7952371672523508,2.7907949570662205,2.249675750732422,-2.0062713623046875,-5.210805892944336,-0.3969993591308594,5.663045883178711,2.0977134704589844,2.6353607177734375,1.5540752410888672,-8.541379928588867,0.38403892517089844,2.249675750732422,-2.0062713623046875,-5.210805892944336,-0.3969993591308594,5.663045883178711,2.0977134704589844,2.6353607177734375,1.5540752410888672,-8.541379928588867,0.38403892517089844
37,0.74,-0.011247610589684275,0.03145671006273594,0.701386139970876,0.9998472911071676,-0.010283988947688845,-0.013722085812935459,0.0033672537660269183,-0.020666461663898017,-0.02737414170082592,0.007018401700624926,0.0112009735936798,-0.017454276079539158,0.011770702991667041,-0.33280278572298033,-0.46218751782588846,-0.1993007874032776,0.18351932050601358,0.01752228042763817,0.3951759973132436,0.5329926963244247,0.18084251501599988,0.044161516581228216,0.021650110781418295,0.02256883187025335,0.5237289079364668,-2.927440223250345,-0.22168995402484948,0.399583417238781,-1.106196264643943,-0.6173177284066597,-1.9799791589103257,0.38094619886319125,0.5049459852259613,-0.17608387268311465,0.4611969304946434,0.25519547241254914,-1.2326240539550781,-1.6192474365234375,0.3203277587890625,-7.264047622680664,-6.497692108154297,0.928532600402832,1.6562004089355469,0.2621421813964844,0.9016971588134766,-1.018071174621582,-1.2326240539550781,-1.6192474365234375,0.3203277587890625,-7.264047622680664,-6.497692108154297,0.928532600402832,1.6562004089355469,0.2621421813964844,0.9016971588134766,-1.018071174621582
38,0.76,-0.010722128121718095,0.030744406716164015,0.7015276978545036,0.9998192001158406,-0.010277235903240192,-0.01582218638006697,0.00236726003282953,-0.020637430084496384,-0.031595250130737634,0.005061428448894559,0.036163076472865464,-0.04809546388442801,0.003729877503665668,0.22094311444646741,-0.05199134280997256,-0.06182677080489346,0.1811573598940668,0.022165660720175173,0.3892632673036598,0.525677307958376,0.1929001045156423,0.04486321188381047,0.02797182407272492,0.01610946737833175,0.5189648155270914,-2.9551375739274404,-0.059367594217228675,0.12539447481341132,0.2472591468249557,-0.28760139052771727,2.6155870583587575,-0.15369418985407593,0.1931457320898573,-0.418706907726515,-0.6661885357855836,-2.7171070026561623,0.3773651123046875,-2.5652217864990234,2.5363121032714844,-2.5929412841796875,1.8681449890136719,0.7301149368286133,2.029813766479492,1.1136493682861328,-5.995643615722656,-1.2751665115356445,0.3773651123046875,-2.5652217864990234,2.5363121032714844,-2.5929412841796875,1.8681449890136719,0.7301149368286133,2.029813766479492,1.1136493682861328,-5.995643615722656,-1.2751665115356445
39,0.78,-0.00997083910430841,0.02997393173205116,0.7007989380819645,0.9998426127292636,-0.008716645908662815,-0.015078034109260296,0.003379754757606735,-0.01754131139214897,-0.030096945347032524,0.007024544434690424,0.0395339863298132,-0.0313638258068243,-0.059540031827889965,0.08008613382529524,0.16344256417923694,0.2572340385561923,0.17775279418628795,0.021759802593554353,0.39940782395508945,0.5405859072239511,0.17248945012648448,0.04509538298765594,0.02732916375188215,0.01720935106796314,0.5209349605074632,-2.964534992443812,-0.23870693838650836,-0.11859988538925116,0.5832624161939575,1.420427875330436,-3.8470688119986063,0.10584244579348485,-0.19826516913892592,0.3360521872987172,0.5641703009149884,1.2757708518004964,-0.08858489990234375,-3.921278953552246,4.148715972900391,-1.2267913818359375,-3.4631004333496094,0.2191152572631836,1.2161235809326172,-1.1970405578613281,2.1697235107421875,2.514739990234375,-0.08858489990234375,-3.921278953552246,4.148715972900391,-1.2267913818359375,-3.4631004333496094,0.2191152572631836,1.2161235809326172,-1.1970405578613281,2.1697235107421875,2.514739990234375
40,0.8,-0.009171427017713953,0.029348158364501126,0.7004981625045086,0.9998533479786222,-0.0076028662337202894,-0.014928654216890075,0.0035516537337047594,-0.015316946028905322,-0.02980333618687504,0.007332588858251775,0.04079088608501282,-0.03218067276176072,0.010378155002389382,0.1436563426102873,-0.06932747266030106,-0.15491837686266755,0.18622801284810966,0.02390406965729001,0.4071900909682466,0.5406113859035494,0.2336419715334366,0.04370153030791241,0.028862215351529413,0.01951229425680928,0.5216904049027633,-2.9622026301455633,0.8067888549408564,0.23288764776573417,0.37557834920897104,-0.9574658616665678,8.474199059853923,-0.11300223944353455,0.2233482938680724,-0.03879599423442136,-0.2593044247348887,-0.7462595917664561,2.5231189727783203,-0.8120365142822266,-1.9215869903564453,-3.433307647705078,5.716733932495117,0.8087310791015625,2.1431636810302734,4.222751617431641,-6.705196380615234,-0.9217929840087891,2.5231189727783203,-0.8120365142822266,-1.9215869903564453,-3.433307647705078,5.716733932495117,0.8087310791015625,2.1431636810302734,4.222751617431641,-6.705196380615234,-0.9217929840087891
41,0.82,-0.008496705827976098,0.028836424800174953,0.7004326325891627,0.9998395170103789,-0.0100374224309298,-0.014705933251349003,0.0019813890587869263,-0.0201399470913319,-0.02937159323733113,0.004259211418257722,0.0266976163931143,-0.020624190606640447,-0.010108510938395095,-0.4974984472604847,0.07344057671022487,-0.16271168408765138,0.18662037815716412,0.0223966084912772,0.40469529003752147,0.5367029355641874,0.29906688295924183,0.04531394274898876,0.029648593757780436,0.010804120000192513,0.5180615364229101,-2.965867932680767,-0.43035505153137454,-0.25305510474455417,-0.502134450900026,0.38362414474337275,-0.7876764277370448,0.16327783776009427,-0.05815200134164854,-0.6584855963218811,-0.11672408688388083,0.2599621121125865,-1.219106674194336,-4.352778434753418,-0.14364242553710938,-2.440448760986328,-4.549083709716797,0.7716054916381836,1.408294677734375,-1.7088470458984375,-1.0439682006835938,0.871800422668457,-1.219106674194336,-4.352778434753418,-0.14364242553710938,-2.440448760986328,-4.549083709716797,0.7716054916381836,1.408294677734375,-1.7088470458984375,-1.0439682006835938,0.871800422668457
42,0.84,-0.00825247571542504,0.02805575955853432,0.700381707431212,0.999819163023843,-0.008925315645984443,-0.016781148288105945,0.0006107806922888112,-0.0178789167092327,-0.03355161900194457,0.0015217516048720633,0.0009830468897159203,-0.05239915924026367,0.0020478086551171284,0.5260562549678236,-0.39881680177903783,-0.11567630631083109,0.1859676487305893,0.027019407582069922,0.40311470391045773,0.5300036707693933,0.32377470234210287,0.04626331352801521,0.035523175211317454,0.010274691538066327,0.5190174477510967,-2.9931951773508394,0.1820746398707523,0.5497469890974559,0.234361550457031,-0.8425790122826439,2.7724675028563035,-0.008524069682974162,0.5259474645577413,0.3451253251200762,0.11012795935241018,-2.662588572626358,0.9160079956054688,-0.4662208557128906,2.4149818420410156,-6.585803985595703,0.9831705093383789,0.6351346969604492,2.050790786743164,3.8283462524414062,-3.4901504516601562,-1.4189128875732422,0.9160079956054688,-0.4662208557128906,2.4149818420410156,-6.585803985595703,0.9831705093383789,0.6351346969604492,2.050790786743164,3.8283462524414062,-3.4901504516601562,-1.4189128875732422
43,0.86,-0.007948643276360367,0.027297091617702347,0.6999366111974964,0.9998438953048829,-0.00894983057944182,-0.015234315847425446,3.427562672019065e-05,-0.01790717880205708,-0.030467975548590164,0.00034138809315745894,0.025264147333798552,-0.026647976415555528,-0.03769923393062691,-0.38479325859388225,0.532568558162707,-0.03457646809597109,0.1795152313295156,0.022338413009359945,0.4108681388508365,0.537940455305904,0.3643830683314059,0.04647657483336144,0.03274379718466081,0.004041059413658457,0.5136236165784438,-3.0110777067651906,-0.5982036884317743,-0.7562022105304543,0.4288769867304399,1.178670271210585,1.5177893612407243,0.009660286015491858,-0.5858275050721709,-0.7005425077592146,-0.4578345079538891,0.4847018112778921,-0.7585430145263672,-6.133943557739258,1.0510711669921875,2.1089401245117188,-0.41277313232421875,0.5731792449951172,1.1044960021972656,-2.4242935180664062,-2.427854537963867,2.0756969451904297,-0.7585430145263672,-6.133943557739258,1.0510711669921875,2.1089401245117188,-0.41277313232421875,0.5731792449951172,1.1044960021972656,-2.4242935180664062,-2.427854537963867,2.0756969451904297
44,0.88,-0.007910842413359898,0.026614145831803576,0.6997195722374913,0.9998518356418864,-0.007677435342414932,-0.01540005688521043,-0.0004494419259297209,-0.015346636993003914,-0.030807324342980683,-0.0006625992444593765,-0.013674903058434544,-0.04058646558378905,0.008566235200289728,0.47204012194054373,-0.36967847064304205,-0.012583428911206252,0.1799496048801076,0.022838748715036973,0.4161600259329344,0.5353681837417533,0.4116563562308594,0.04371032657749609,0.034304621486092916,0.011610299091069034,0.5198031320237457,-2.9927491068359617,0.36095795045963897,0.5257893144685672,0.1916010071568173,-0.9609764623024937,2.967278264261759,-0.21660008630877436,0.4903240052485905,1.032518124103044,0.7300763964002002,1.2733159334322228,1.3618850708007812,0.6754817962646484,2.385761260986328,-8.598134994506836,-0.220916748046875,0.05245685577392578,2.360715866088867,4.089763641357422,-0.7479286193847656,0.6968307495117188,1.3618850708007812,0.6754817962646484,2.385761260986328,-8.598134994506836,-0.220916748046875,0.05245685577392578,2.360715866088867,4.089763641357422,-0.7479286193847656,0.6968307495117188
45,0.9,-0.007562507943791109,0.025745912073107433,0.7000251209073827,0.9998773683079669,-0.008842564059186212,-0.01292450784245726,-0.00012043015788301016,-0.01768667753743351,-0.025850854713802433,-1.2263298946405554e-05,0.0403341704446996,-0.040889992324860736,0.01985626032050987,-0.516803989448709,0.6439407291961696,0.06805143985467045,0.17903597340088728,0.015097742810721715,0.4181272927017653,0.5332531966468823,0.5084840572588839,0.04339748807565204,0.029104457629240656,0.004933229360982661,0.5089258215331265,-2.9561656405656627,-0.24567528585211773,-0.8660644725568638,0.16180238910575323,0.27951720973072997,6.033460350821841,0.08097733769593718,-0.7354353978486378,-1.1677742607970332,-1.2844207255241868,2.284545334341003,-0.07719230651855469,-4.8936004638671875,-1.1324081420898438,2.4078598022460938,1.8492927551269531,1.3490447998046875,2.0718135833740234,-1.9358978271484375,-7.458772659301758,1.087625503540039,-0.07719230651855469,-4.8936004638671875,-1.1324081420898438,2.4078598022460938,1.8492927551269531,1.3490447998046875,2.0718135833740234,-1.9358978271484375,-7.458772659301758,1.087625503540039
46,0.92,-0.007331700729504994,0.02484423913406087,0.7003666954191085,0.9998710582863123,-0.009223344941378823,-0.013144926741548307,-8.72379534107537e-05,-0.01844944008718929,-0.026291101602538638,6.805049523212904e-05,-0.010224351435417816,-0.04920126076722392,0.021396993191319904,0.2806547034902461,-0.4799896695191688,0.022317989279811885,0.18254272324518836,0.015898090745610407,0.41511633889939265,0.5229451266076932,0.5541149190867598,0.047773283090684696,0.028942799408288346,0.00889459913767101,0.5117524476186278,-2.9030123588574024,0.3862924090545017,0.6281473182038975,-0.38154147011651585,-0.901725744217825,-0.6569129643177574,0.30851987114049306,0.47803352218251954,1.0136118442083752,0.9536437411544808,2.9538127739910283,0.971343994140625,0.7750244140625,2.2574501037597656,-9.086593627929688,-4.0921735763549805,1.0293006896972656,2.319150924682617,3.038604736328125,1.9525794982910156,0.7238883972167969,0.971343994140625,0.7750244140625,2.2574501037597656,-9.086593627929688,-4.0921735763549805,1.0293006896972656,2.319150924682617,3.038604736328125,1.9525794982910156,0.7238883972167969
47,0.94,-0.0070474186970854655,0.02369455504233567,0.7008073752994708,0.9998621443795767,-0.009999370749176503,-0.013237773909374995,0.0006827614650724632,-0.020022407824700383,-0.026461331584044834,0.0016306450831767095,0.030980050882633295,-0.0616997000544594,0.017658526563749805,-0.30223142776824397,0.29084948556539997,0.06708194699953361,0.1831331950844084,0.015636269564057084,0.41093887237345167,0.5137077154484542,0.6158126146897924,0.05403679086559226,0.027804006426541666,0.002465913311583979,0.5042557407009876,-2.8778252528929285,-0.1557880059509731,-0.3935012677267691,-0.008354519743433916,-0.3044199662997621,5.923736757182543,0.3066000971211088,-0.390958895135044,-1.136913587875997,-1.1421378965170677,-0.07706971142140212,0.02616596221923828,-3.650114059448242,-1.7134838104248047,1.4364051818847656,3.4472122192382812,1.5644721984863281,2.3454151153564453,-0.3843193054199219,-8.256694793701172,-1.1822643280029297,0.02616596221923828,-3.650114059448242,-1.7134838104248047,1.4364051818847656,3.4472122192382812,1.5644721984863281,2.3454151153564453,-0.3843193054199219,-8.256694793701172,-1.1822643280029297
48,0.96,-0.007033008157324864,0.02249186186280808,0.7004957405518708,0.9998434336206511,-0.009416457885972866,-0.014904414250172235,0.0015155864890839727,-0.018884640279890567,-0.02978002006524263,0.0033128669325233587,-0.026443703562418715,-0.05950127450816178,-0.038751211618354785,0.31576483222377877,-0.5474490663545067,0.13372568213296193,0.18152162047025086,0.01925378244905815,0.4102047319767192,0.5135443799236766,0.6091775674674772,0.05784651837252612,0.031146374716512052,0.003271821500272481,0.5125158419984565,-2.860115264614605,-0.06358745170904617,0.6350622902855134,-0.10661221370027447,0.307738247524989,-5.231644486332354,0.136028604437064,0.6049958121426731,0.6667021603148794,1.2559346420145059,1.8821837861237993,0.018220901489257812,-0.9498863220214844,3.4560279846191406,-6.459875106811523,-6.16455078125,0.21226787567138672,1.6431465148925781,1.2454147338867188,3.904205322265625,0.9717340469360352,0.018220901489257812,-0.9498863220214844,3.4560279846191406,-6.459875106811523,-6.16455078125,0.21226787567138672,1.6431465148925781,1.2454147338867188,3.904205322265625,0.9717340469360352
49,0.98,-0.007182983416360951,0.02136687036768422,0.700354796433171,0.9998152779305733,-0.009718636561768804,-0.016345222231138982,0.002791384997367173,-0.019536579669330846,-0.03263594204389716,0.005902622716508073,0.009892929352809936,-0.058301824479514916,0.012081888260611797,-0.24412495954366767,0.1813226823332925,0.099070665776085,0.18270334363472565,0.022230757760693606,0.40837861993127317,0.509193504463149,0.6483443665851751,0.05863970062472787,0.03409042630380103,-0.005082811574134069,0.50571254887577,-2.8638322992992675,0.15306466355564916,-0.23432604992768025,0.013341945588646376,-0.681546799102576,7.589621981406558,-0.05570261354021482,-0.2195672036940678,-1.1478279800244342,-1.05837411871308,-1.5556566707465682,1.2221698760986328,-3.2615280151367188,-2.445413589477539,-0.02700042724609375,6.223714828491211,0.8440818786621094,1.9664020538330078,0.6521778106689453,-8.970121383666992,-1.133504867553711,1.2221698760986328,-3.2615280151367188,-2.445413589477539,-0.02700042724609375,6.223714828491211,0.8440818786621094,1.9664020538330078,0.6521778106689453,-8.970121383666992,-1.133504867553711
50,1.0,-0.007538034884135708,0.020359412068219084,0.6998045055595107,0.9997779800098243,-0.010995494922329607,-0.017659072850582002,0.0033536435326713505,-0.02212009118071732,-0.03524385020740622,0.007098606220710476,-0.042979112356634645,-0.044840467147797824,-0.05410570233926071,-0.03856811690464716,-0.4052277192777882,0.055812413514262374,0.1842277987931279,0.023958723119965636,0.4066544177002321,0.5103919519939405,0.662567420266621,0.05872962579764471,0.036562528116521,-0.013003058720543656,0.5108794789281786,-2.868541859478401,0.016854283782923876,0.3677144031370859,-0.225066587803005,0.6566124828336078,-4.65185110872775,0.04582485696062338,0.4064980062121978,-0.008502938369502971,0.9838526763850155,0.9841918672273738,0.13766002655029297,-2.1700077056884766,2.2230148315429688,-4.503423690795898,-6.417024612426758,0.21802043914794922,0.9846153259277344,-0.060214996337890625,3.3020362854003906,1.1332206726074219,0.13766002655029297,-2.1700077056884766,2.2230148315429688,-4.503423690795898,-6.417024612426758,0.21802043914794922,0.9846153259277344,-0.060214996337890625,3.3020362854003906,1.1332206726074219
51,1.02,-0.008152294364089353,0.019395804437235827,0.6995671425973994,0.999726387627862,-0.013006735364899994,-0.01907242558248571,0.003770583256352722,-0.026172106346895475,-0.038045505868283515,0.008041148655424825,-0.017649167008348763,-0.055556865036240834,0.016289015225163076,-0.28899770184654094,0.09989006258195345,0.024411071223167,0.18582186117282556,0.02517495171809748,0.4013944802039681,0.5059683212291718,0.7060934497368407,0.05805821955017397,0.03901095028445126,-0.029540070483982456,0.4993262750645494,-2.8929461724142396,0.1307437257840734,-0.21132488060151908,-0.18663750148646868,-0.8976418660566279,7.506500848756992,-0.12509190580949173,-0.13465910488741042,-1.3912161889206485,-1.2484265430001114,-2.679472762990421,0.9397106170654297,-2.624789237976074,-2.6307849884033203,-1.614358901977539,5.734380722045898,0.7589807510375977,1.6501083374023438,1.3966407775878906,-9.624910354614258,-1.2918472290039062,0.9397106170654297,-2.624789237976074,-2.6307849884033203,-1.614358901977539,5.734380722045898,0.7589807510375977,1.6501083374023438,1.3966407775878906,-9.624910354614258,-1.2918472290039062
