step,time_s,torso_x,torso_y,torso_z,quat_w,quat_x,quat_y,quat_z,roll_rad,pitch_rad,yaw_rad,body_vx,body_vy,body_vz,body_wx,body_wy,body_wz,l_hip_roll_pos,l_hip_yaw_pos,l_hip_pitch_pos,l_knee_pos,l_wheel_pos,r_hip_roll_pos,r_hip_yaw_pos,r_hip_pitch_pos,r_knee_pos,r_wheel_pos,l_hip_roll_vel,l_hip_yaw_vel,l_hip_pitch_vel,l_knee_vel,l_wheel_vel,r_hip_roll_vel,r_hip_yaw_vel,r_hip_pitch_vel,r_knee_vel,r_wheel_vel,l_hip_roll_torque,l_hip_yaw_torque,l_hip_pitch_torque,l_knee_torque,l_wheel_torque,r_hip_roll_torque,r_hip_yaw_torque,r_hip_pitch_torque,r_knee_torque,r_wheel_torque,l_hip_roll_ctrl,l_hip_yaw_ctrl,l_hip_pitch_ctrl,l_knee_ctrl,l_wheel_ctrl,r_hip_roll_ctrl,r_hip_yaw_ctrl,r_hip_pitch_ctrl,r_knee_ctrl,r_wheel_ctrl
0,0.0,-0.0009124253311482638,-0.0005314583814936427,0.706384377676128,0.9997009897543824,0.021488379916216813,-0.0022594919589917733,0.011448812548586646,0.042925892386969686,-0.005009686517382678,0.022795933142164174,-0.0873776571999399,-0.31423751337965017,0.13707816957247201,6.801740253343384,-0.649521972057852,2.070673328487576,-0.03144086357742321,0.00016998491247800687,0.3751881492093572,0.5805215037175585,-0.29637857677458435,-0.0570104768478815,0.00434881482899945,0.368021516148397,0.5836194335032119,-0.3555317127114846,-1.9262080300830247,0.3599257763197693,4.733657539308375,-2.05351688233006,-24.073850952205696,-4.929416776525722,0.32375412582980034,4.082286840702297,-2.679286656554285,-30.16911103345669,-6.192966461181641,-7.147918701171875,30.0,-30.0,-15.0,-9.921895027160645,3.0544700622558594,10.65533447265625,-12.961395263671875,-15.0,-6.192966461181641,-7.147918701171875,30.0,-30.0,-15.0,-9.921895027160645,3.0544700622558594,10.65533447265625,-12.961395263671875,-15.0
1,0.02,-0.0030859134838557337,-0.002314611403819462,0.7090341394533105,0.9990685076298708,0.023007368047302943,-0.005526793156566515,0.03608646055191076,0.04559246044750188,-0.012704140669146498,0.07191915993905537,-0.1225405827660021,0.04862767139731283,0.08231702509079161,-4.061561650407357,0.19199433856206422,2.6844839009811494,-0.14837707419828064,-0.005771024783063306,0.33085154815374074,0.6459015434924351,-0.38814796297970666,-0.17945311395248398,0.010714193373357717,0.3091443127837488,0.6280668859089075,-0.565002828249516,-7.977869428886664,-0.30328926705689896,-6.907144776951372,6.839880719872496,11.759640685083543,-7.0353943205621015,0.7217276181422629,-7.664683235054082,5.301994216710464,5.945546576333998,-14.634007453918457,-1.7175540924072266,-30.0,24.59228515625,15.0,-15.0,1.6744384765625,-30.0,21.089359283447266,15.0,-14.634007453918457,-1.7175540924072266,-30.0,24.59228515625,15.0,-15.0,1.6744384765625,-30.0,21.089359283447266,15.0
2,0.04,-0.004992085036981845,-0.005883893691376985,0.7081676640532261,0.9970740535698789,0.03577233331159721,-0.022985777739528538,0.06352421498047002,0.068555707509874,-0.05040320265486969,0.12552051738220768,-0.07989362599411119,-0.3231722993066779,-0.15514429409091574,4.592835785101773,-3.286088850079596,2.8026687316244363,-0.30797389613529486,0.026404102560179634,0.2783374810682494,0.5921027376540174,-0.0030515552746176247,-0.2649763850459234,0.06828182346819694,0.24566445472518614,0.5629413541413786,-0.18946735178618945,-8.191500374159657,2.543675868223204,0.5423530114953999,-8.483963455356458,25.25376737843805,-2.6518415698717552,4.208390719437198,-0.007314970046362279,-8.440952485945724,29.07439736823733,-14.957345008850098,8.492393493652344,17.95464324951172,-30.0,5.785154342651367,2.229644775390625,15.0,17.273826599121094,-30.0,9.73055648803711,-14.957345008850098,8.492393493652344,17.95464324951172,-30.0,5.785154342651367,2.229644775390625,15.0,17.273826599121094,-30.0,9.73055648803711
3,0.06,-0.004073236896593287,-0.006260662501128472,0.7111783147178735,0.9956752537306383,0.023318441526742437,-0.0060365743599824365,0.08972513116842562,0.045373448923349366,-0.016206145249709123,0.17937647495740142,0.07190695157736318,0.13918952354435857,0.14159441072184087,-4.184025680551105,4.544299883971813,2.6618517224561375,-0.4331308257425501,0.0015619156176004843,0.17557659454552313,0.6084726631289319,0.41550637980972127,-0.35547168462806167,0.040182762976713866,0.21284574160703876,0.5380359860924232,0.4133124801539051,-4.986126221691288,-2.8023870031579285,-8.526664129101846,6.411883001493232,17.48115186639033,-5.979706581233815,-3.6869120078175746,-4.762750579493671,2.236688715893156,38.51439861370975,-1.6597709655761719,-15.0,-30.0,26.603992462158203,-2.642745018005371,-15.0,-15.0,-27.35312843322754,18.49939727783203,10.658344268798828,-1.6597709655761719,-15.0,-30.0,26.603992462158203,-2.642745018005371,-15.0,-15.0,-27.35312843322754,18.49939727783203,10.658344268798828
4,0.08,-0.0019943522431157476,-0.007144646182560752,0.71116152917003,0.9918646353046925,0.024632142671976106,0.0013412249086780328,0.12488396172056074,0.04921866673365668,-0.0034916991103764437,0.25041243891186393,0.12695426724021125,-0.1625434049442025,-0.10593461166303123,2.8672843771084042,-1.9515286901940336,4.218717073726112,-0.5217854486631549,-0.0014349764329157485,0.11940739798175132,0.5713909964036836,0.6850873361088604,-0.44343944646049277,0.0347231452525465,0.23037999497303333,0.5235170100552958,0.769558041317427,-4.265154947092173,1.6445096350017578,1.2768247657832257,-6.919924575899267,10.22519490967902,-3.332718834954161,2.0883186654927957,4.501075181445911,-2.765733866450499,1.1346812979542955,-7.85090446472168,15.0,30.0,-30.0,-2.833085060119629,-1.102304458618164,15.0,18.13037872314453,-13.153545379638672,-15.0,-7.85090446472168,15.0,30.0,-30.0,-2.833085060119629,-1.102304458618164,15.0,18.13037872314453,-13.153545379638672,-15.0
5,0.1,-0.00024991496156182117,-0.007425590390604379,0.7077729785919533,0.9850354015684806,0.011180776389670542,0.010454184880445933,0.1716710747756694,0.025622684077499777,0.016757436873964776,0.34530689024318617,0.05970485161034916,0.08023103367068597,-0.23548373791122718,-3.561068815867109,3.5434177355344874,4.998488415879687,-0.6642785928388171,0.011617639086140831,0.02583932524198799,0.5092692330642679,1.2773602790942529,-0.5499529748362715,0.03536882996430859,0.18664969087236016,0.5105678959164616,1.1851968056554225,-8.63219183658383,0.07940783813543192,-8.551066405137117,-0.6134046527550392,45.2379972338906,-6.58120669794152,-1.4348588449751496,-6.425781796960604,0.9411208579873453,36.60912076175018,-14.162383079528809,-4.953649520874023,-30.0,9.313568115234375,15.0,-15.0,-15.0,-30.0,12.853046417236328,15.0,-14.162383079528809,-4.953649520874023,-30.0,9.313568115234375,15.0,-15.0,-15.0,-30.0,12.853046417236328,15.0
6,0.12,0.0011363151071581562,-0.009330151341054922,0.7066979406923211,0.9760106940027374,0.01738689231625597,0.008685400929015525,0.2168533720710421,0.03771711529514063,0.009413414943177639,0.43744144173220856,0.05581102411076548,-0.21554947492347157,0.4320805791073817,2.177318474457608,-2.769468554637574,4.330859634833153,-0.7627561437502192,0.012749607688505294,-0.0008283027217036373,0.42298101594509846,1.7149856476831156,-0.6578845552155352,0.04593675530464002,0.19456969609107394,0.4755396960468012,1.6567441883633287,-1.2149275995759645,-0.25166446970228834,3.013792158197379,-4.639658540865057,1.979539699345926,-4.658268745398814,1.746054337009621,4.248851145677159,-0.7130990356603424,13.894962439797785,-12.268264770507812,5.379966735839844,30.0,-30.0,-15.0,-1.8776063919067383,15.0,30.0,-26.22985076904297,-9.171648025512695,-12.268264770507812,5.379966735839844,30.0,-30.0,-15.0,-1.8776063919067383,15.0,30.0,-26.22985076904297,-9.171648025512695
7,0.14,0.0023881923686964977,-0.0102243713795729,0.7139906965888343,0.9676727531125348,-0.0029423787185427976,0.010718331658269806,0.25196409001591397,-0.0002933225308679713,0.022228252995408263,0.5094474913204271,0.06612487337598658,0.04818611224451498,0.2813755678546934,-4.496773534386704,3.1264355609729217,3.031229752952225,-0.7553639076386807,0.01822602095734861,-0.04107101999120649,0.49378176412901903,2.1452806223774656,-0.7428143110376041,0.05696805132787261,0.14073652908585427,0.4759873707673777,2.3084768203809873,0.9741086716847075,0.43702166058384656,-5.638315919231791,8.451457960187081,37.27138287256371,-1.798367605509533,-0.35110664274219683,-7.401900943407521,1.0071958698441605,48.16801717812422,-10.570402145385742,3.7682571411132812,-30.0,30.0,15.0,-15.0,-15.0,-30.0,10.56833267211914,15.0,-10.570402145385742,3.7682571411132812,-30.0,30.0,15.0,-15.0,-15.0,-30.0,10.56833267211914,15.0
8,0.16,0.004118209129686765,-0.013254038028884101,0.7169763941735898,0.9593041586275014,0.0028720339984174073,0.009739341124051459,0.2821921825550154,0.011008865605305646,0.017065878178021635,0.5722810624390066,0.10941934452726082,-0.2805679786777992,0.049647186505809515,3.744256034031525,-2.5698817180769957,3.3991579112248473,-0.7359597167966438,-0.0027594752122488495,-0.047191816972772305,0.4747708698711688,2.550351576227703,-0.743594112157383,0.037859402292123014,0.1623541870583038,0.5023804388333633,2.852222755694307,0.8686631960851986,-1.8047667590067256,3.6075843480973955,-6.644006690055161,6.518857951184211,0.685229831790199,-1.1122815853862256,6.499692616778379,0.9872834747118948,10.29671876953498,-10.322815895080566,-4.001521110534668,30.0,-30.0,-12.320733070373535,-4.972216606140137,5.055034637451172,30.0,-6.650487899780273,-15.0,-10.322815895080566,-4.001521110534668,30.0,-30.0,-12.320733070373535,-4.972216606140137,5.055034637451172,30.0,-6.650487899780273,-15.0
9,0.18,0.006243144292547927,-0.016032134883396464,0.7165101003286599,0.9483390357083636,0.0019301956926970742,-0.00045829342491637295,0.31725248251740346,0.0033701841586844207,-0.002093955370028028,0.6456595784380061,0.09136241439996576,-0.0475774450635085,-0.0903432425098283,-3.091113817425378,0.15467214320472972,3.768877237321056,-0.722954211377674,0.013841115611631098,-0.029160402767384925,0.4888426182223065,3.0699115513470554,-0.7300921698496071,0.04750335833310586,0.13100182690974815,0.43623420354364356,3.448178923493015,0.48391825838760083,2.55027399448817,-1.083972796431145,5.074726656439816,41.669835473572086,0.598912836332996,1.3103727805815897,-6.50799466400677,-5.335284997092081,45.484163124174714,-13.675156593322754,15.0,-9.48508071899414,19.182849884033203,15.0,-15.0,-4.919761657714844,-30.0,-5.196229934692383,15.0,-13.675156593322754,15.0,-9.48508071899414,19.182849884033203,15.0,-15.0,-4.919761657714844,-30.0,-5.196229934692383,15.0
10,0.2,0.009686357575406288,-0.019921646223294436,0.7134777007181896,0.9331755589198201,0.026958711608061167,-0.00627139347905052,0.35835355966830523,0.04585780960081267,-0.031031102654399567,0.7325900106784764,0.2880136195540871,-0.2641945432598963,-0.0999869394342314,5.593584068214126,-1.7199575848097568,5.217974277600255,-0.7157128851946375,-0.005479034521570391,0.03472261981569255,0.4235165800403348,3.4895419564954064,-0.7189195419940738,0.033553793512297654,0.19420665300669177,0.4600247903093732,3.9208340364976983,0.27504372704284596,-3.6060934970920644,5.916149415967997,-8.310446890476609,4.296915308209049,0.4717997072161391,-1.9472356647943736,8.741119070057342,5.826830185681561,6.041017137176804,-9.455711364746094,-15.0,30.0,-30.0,-15.0,-6.3488874435424805,2.3966503143310547,30.0,4.404361724853516,-15.0,-9.455711364746094,-15.0,30.0,-30.0,-15.0,-6.3488874435424805,2.3966503143310547,30.0,4.404361724853516,-15.0
11,0.22,0.01523631514628176,-0.020463060128203404,0.7141892974012373,0.9148363075733326,0.015313092396608755,0.00287765244900376,0.4035241735797584,0.030345770949378483,-0.00709330350978994,0.8307300067000368,0.25391449205609,0.12842834821220891,0.10444533390462446,-4.704232151461554,3.4424376070701346,4.420222565034342,-0.7105881797949548,-0.014063667537376957,0.031550893356220834,0.4453856143067788,3.964517526591312,-0.7138499394134217,0.033990092047804496,0.14865934995448696,0.40897810829886205,4.370070203694363,0.2121853569581578,1.5812817082222275,-4.398831111953582,6.828541524378127,39.44351060925231,0.1419172052266937,1.2120582106193343,-8.769910767686707,-7.104888876716315,35.81095732899723,-6.699751853942871,15.0,-30.0,30.0,15.0,-15.0,-1.5188608169555664,-30.0,-16.090576171875,15.0,-6.699751853942871,15.0,-30.0,30.0,15.0,-15.0,-1.5188608169555664,-30.0,-16.090576171875,15.0
12,0.24,0.021077284273372514,-0.0203161245591833,0.7120647465117841,0.8943028834473749,0.010614156098431828,0.010203704674047912,0.4472198304625523,0.028115920942811665,0.008756794755536035,0.9275406803301071,0.32909803006062266,-0.07125193786896354,-0.2596513333301712,2.7982831395764722,-0.7654645150981736,5.292971864119389,-0.7090401571967447,-0.015261534757655126,0.0340483419490898,0.4092427592153167,4.34097142104793,-0.7117776642172335,0.03764398897128111,0.20879780134543985,0.524189291845002,4.858613729794867,0.0234841669193505,-1.0153008969816173,3.372554808939454,-7.021655693714678,2.1900257840804818,0.07053987123096678,-0.26457955594997995,9.77570364831629,12.420133225329046,15.305969638349076,-11.128836631774902,-4.048413276672363,30.0,-30.0,-15.0,-14.937480926513672,1.00714111328125,24.954559326171875,30.0,-7.818561553955078,-11.128836631774902,-4.048413276672363,30.0,-30.0,-15.0,-14.937480926513672,1.00714111328125,24.954559326171875,30.0,-7.818561553955078
13,0.26,0.023373469610114814,-0.02103271480547989,0.7132624595031872,0.8746352599617693,-0.01467904944318907,0.0023581806894697765,0.4845535331858483,-0.02339837349961255,0.01835169658172147,1.0116131613279602,0.008460645398773304,0.010608916755539466,0.13083898952578618,-5.780567320569326,1.8083331617402516,3.333881304305662,-0.7088382787609209,0.008579202671311634,0.05090942658035078,0.47300496074019294,4.659304071909169,-0.7114140972869036,0.07172698542493754,0.1471204185523831,0.4603970040239525,5.524846342894521,0.03125669018420754,2.6436981312297436,-1.8301437467175656,8.012095235450818,29.342329882533054,-0.0007991332123102098,2.220806836110753,-10.493871125556016,-11.42054373514765,47.754749253200785,-9.703096389770508,14.148849487304688,-24.86503791809082,28.728412628173828,15.0,-15.0,-7.201092720031738,-30.0,-30.0,13.84061050415039,-9.703096389770508,14.148849487304688,-24.86503791809082,28.728412628173828,15.0,-15.0,-7.201092720031738,-30.0,-30.0,13.84061050415039
14,0.28,0.025045168700128233,-0.0244081350680764,0.7125146809589379,0.8601912675779557,-0.011340577821774856,0.005566374092574045,0.5098150546588044,-0.013838023237357534,0.021141062155565233,1.069887896261492,0.11527950187541616,-0.3665695229665615,0.01957858450821881,4.094065457707342,-1.7064975558393471,2.600291251991002,-0.7076929940735515,-0.01168523379878986,0.10397666139847761,0.46958083205792656,4.858445021697427,-0.7101136884644409,0.04543142143187537,0.19826262898244804,0.4870081268250571,6.0570136315212935,0.1418222959078396,-2.294419426220837,5.295980522825259,0.24160146525101633,-1.8581654388978128,0.08055425797792522,-2.8638768999176145,10.266172537983927,7.747621742794396,9.627572047023413,-6.8636369705200195,-15.0,30.0,-30.0,-15.0,-11.258119583129883,-9.73621654510498,30.0,21.838703155517578,-15.0,-6.8636369705200195,-15.0,30.0,-30.0,-15.0,-11.258119583129883,-9.73621654510498,30.0,21.838703155517578,-15.0
15,0.3,0.027263665797156587,-0.029075818923205876,0.7157953876933207,0.8379483834015705,-0.007289835510622224,0.0005582673183214496,0.5457005162087755,-0.011608437848059216,0.008891849568101785,1.1544328903309617,0.1632957445081271,-0.024956448459169354,0.4992568558532618,-2.658257833195806,1.4628623132748189,5.665771074375909,-0.7063200151046212,-0.005409807885506794,0.15138973693110924,0.5080759453114841,5.20120315004507,-0.7099308786520779,0.04911722034892961,0.18705695252786209,0.3853176545331657,6.626248526520667,0.026229727421467546,1.2059059342651932,-0.44275526903091084,3.2476522002369035,33.04549812268887,-0.00975940496285135,1.464167085658422,-6.462855941826894,-9.581245693679726,41.7124181042618,-9.44150161743164,15.0,2.584156036376953,6.3321990966796875,15.0,-14.719914436340332,5.473733901977539,-30.0,-30.0,15.0,-9.44150161743164,15.0,2.584156036376953,6.3321990966796875,15.0,-14.719914436340332,5.473733901977539,-30.0,-30.0,15.0
16,0.32,0.03208647866416616,-0.03158845543747392,0.7213039606001858,0.8082288001876811,0.013116702227784667,0.013554602208082581,0.5885664205753072,0.037167495004470384,0.006470383947346989,1.258948244563144,0.30417886131227667,-0.18147846159118486,0.09588258190472565,5.64807873014219,-1.0074183099404086,5.137046182268036,-0.7063289379310689,-0.02914158393988448,0.22479299079180617,0.42100305554271034,5.452521616365031,-0.7094608256776003,0.02415834693883496,0.3025107663643693,0.4739952287785176,7.040256083055017,-0.0012301904926862708,-2.6536710429702524,6.4839837046935624,-9.012847585373896,-3.9485779942797796,0.02614592469231058,-2.923929864163477,12.813118187740686,11.706683081670636,3.8331222487298806,-7.122677803039551,-6.182777404785156,30.0,-30.0,-15.0,-12.932806968688965,-10.758964538574219,30.0,30.0,-15.0,-7.122677803039551,-6.182777404785156,30.0,-30.0,-15.0,-12.932806968688965,-10.758964538574219,30.0,30.0,-15.0
17,0.34,0.03569303869958343,-0.03240497968055777,0.7241835033802934,0.7756202093044168,0.0003609403235486665,0.014397531388238089,0.6310355550447057,0.018736194318808085,0.021880246064696088,1.366148526158597,0.08432817944764678,0.03536548044908158,0.14649803783319054,-5.207558134127303,2.1143838760766895,5.302643269329672,-0.7049954863798944,0.0010550380961080038,0.24115642452054936,0.4318262914792687,5.766884097256244,-0.7086999372674976,0.04409065364238233,0.26730698416806326,0.40438325755690274,7.463243220870357,0.08039116403173781,4.143308159570757,-3.0849138502734097,6.329071027572371,31.586689327471376,0.04614151898285451,3.4200862228041733,-10.20181794698265,-11.475027178283721,35.040944126500335,-4.208125114440918,15.0,-30.0,30.0,15.0,-7.5477495193481445,8.929454803466797,-30.0,-30.0,13.101325988769531,-4.208125114440918,15.0,-30.0,30.0,15.0,-7.5477495193481445,8.929454803466797,-30.0,-30.0,13.101325988769531
18,0.36,0.03911474746628381,-0.034832793987333945,0.7237727390943558,0.7452352228778043,0.005378401979362288,0.023927533259789205,0.6663505147642037,0.03993141944204893,0.028499337070040865,1.4597140774553425,0.20962283394171105,-0.2780019775685658,0.010439474271253026,4.566775346175459,-1.2273497477127646,4.73259714795948,-0.7049080844076298,-0.0021650109384946147,0.269848315048187,0.4138484436682743,6.0153854840375525,-0.708233416826551,0.03265584203849805,0.3384580898547387,0.47275389867159334,7.7472384837882435,-0.002330868770451199,-2.7636590333969924,4.604569551370402,-2.5412200366130078,-0.5156095436420451,-0.00320127601822878,-2.400058063040319,11.531149625133866,11.040041869073967,-2.5293192375815803,-6.879641532897949,-11.45294189453125,27.02450942993164,-30.0,-15.0,-13.1231689453125,-15.0,30.0,30.0,-15.0,-6.879641532897949,-11.45294189453125,27.02450942993164,-30.0,-15.0,-13.1231689453125,-15.0,30.0,30.0,-15.0
19,0.38,0.040317668336363,-0.03840603533177639,0.7255808823406971,0.7101358878874795,-0.009346489579237335,0.013007728503785863,0.7038824211940358,0.005039810872838779,0.03163744662732169,1.5620311560630458,-0.040397601682057444,-0.1286151613803839,0.08927700554602254,-5.944897078953823,1.2365183360970995,5.233632342642711,-0.7044718125736006,0.02180985273121781,0.25277472045530713,0.5009534811790533,6.328326220751241,-0.7085522836606339,0.06717343428147607,0.2894559227217714,0.3965497509449968,8.093805837588274,0.0310982350642449,3.679229749383292,-4.756371971793607,8.728709451113247,29.410050105059568,-0.011261821152990915,4.231052508591192,-10.535736829946353,-11.640974734630591,33.26686207661662,-6.128660202026367,15.0,-30.0,30.0,13.042144775390625,-9.999074935913086,10.263931274414062,-30.0,-30.0,14.90495491027832,-6.128660202026367,15.0,-30.0,30.0,13.042144775390625,-9.999074935913086,10.263931274414062,-30.0,-30.0,14.90495491027832
20,0.4,0.042427311502024966,-0.043032324435216526,0.722286213762031,0.6782049654540385,-0.002161871802689637,0.016253105974347728,0.7346898581646418,0.02095780101754955,0.025225160007557174,1.6509743861923938,0.20949782026127112,-0.28458332056091523,-0.3417323135450246,4.887671836066118,-1.2041297763838594,4.119462543952309,-0.7047871109480474,0.011047085811687153,0.25801077125670013,0.48717644331981097,6.509568048697475,-0.7083248131850896,0.06337284823528398,0.36237602776094385,0.46360344529778774,8.343287101212239,-0.024478193562018212,-3.190482360079166,3.770128593329522,-6.362717430539088,-7.353253410000157,0.009106342547112291,-2.9622626015749467,11.815859583332573,11.123703480821298,-4.21527758728096,-6.128318786621094,-10.26464557647705,30.0,-30.0,-15.0,-13.080192565917969,-15.0,30.0,30.0,-15.0,-6.128318786621094,-10.26464557647705,30.0,-30.0,-15.0,-13.080192565917969,-15.0,30.0,30.0,-15.0
21,0.42,0.04236646057524127,-0.04793367603166921,0.718888619982958,0.6446928588470864,-0.013931801626442612,0.0003336661099220045,0.7643146677396285,-0.017458422028064396,0.021728494708425583,1.7399962945506107,-0.16934005703637703,-0.25014267668393986,-0.06391445645049977,-6.659592845698054,0.43873143974300677,4.303579580183907,-0.7051400305088257,0.03263186946728823,0.2514389849661311,0.4959082469795588,6.673778497104798,-0.7080310825096136,0.09896010088855485,0.31743581086113143,0.38677868118069164,8.539177400621671,-0.012956612973062696,3.9007502802833107,-2.8713711561509987,4.3031858324030745,20.137847144116584,0.023428615447595884,4.79696210792678,-10.478992171505725,-11.717130010347345,21.025847165667457,-5.357295989990234,15.0,-30.0,24.81871795654297,14.7701416015625,-6.872490882873535,11.422470092773438,-30.0,-30.0,10.431583404541016,-5.357295989990234,15.0,-30.0,24.81871795654297,14.7701416015625,-6.872490882873535,11.422470092773438,-30.0,-30.0,10.431583404541016
22,0.44,0.04262579975400368,-0.05513542852823776,0.714700073206874,0.617535690501348,-0.005268990031930626,-0.005917479399451719,0.7865029511315416,-0.015816475842052622,0.0009796431219504026,1.8103241238012913,0.15781336136386054,-0.45856673315244095,-0.196467856623154,4.350983293745303,-2.5001603936681027,3.483364349743072,-0.6967301385482715,0.03236804588316179,0.2951936232270699,0.4818161933447478,6.739351404607761,-0.7070590695929632,0.10432562432675269,0.3743359502397167,0.40173914519936993,8.551000765363195,0.8935445827317922,-1.896653968444919,5.227993193431377,-1.180234572660534,-7.1275368252421005,0.040898448114855795,-2.18909958460632,10.685265138464887,7.047061702587078,-15.820657783644247,-3.130459785461426,-13.801957130432129,30.0,-30.0,-15.0,-9.752084732055664,-15.0,30.0,20.619224548339844,-15.0,-3.130459785461426,-13.801957130432129,30.0,-30.0,-15.0,-9.752084732055664,-15.0,30.0,20.619224548339844,-15.0
23,0.46,0.04319655103156837,-0.0638642030381485,0.7112932097269784,0.5878256871567573,-0.00401878956190049,-0.008021759196934194,0.8089378605483425,-0.01770390565143867,-0.0029288943514390615,1.884823060528817,-0.054686627020720344,-0.42557645800800914,-0.19329584915288256,-2.845778711989892,1.2289704688863825,3.482022486230504,-0.7084550253220793,0.02971491530927636,0.31761751376339714,0.5808313720093881,6.911942336658442,-0.707520987847026,0.07709943549326888,0.3527143323241339,0.302325540757119,8.640448060663093,-0.366672964757622,1.1635970431023135,-1.8513859627960496,8.751777393243009,21.836080622495825,-0.03843171089916579,-1.1370064165503755,-7.827965462739257,-11.244391619930315,20.77146245926817,-5.315418243408203,13.119176864624023,-17.62685203552246,25.879703521728516,12.374202728271484,-9.853584289550781,-11.383705139160156,-30.0,-23.629776000976562,15.0,-5.315418243408203,13.119176864624023,-17.62685203552246,25.879703521728516,12.374202728271484,-9.853584289550781,-11.383705139160156,-30.0,-23.629776000976562,15.0
24,0.48,0.04409130366334768,-0.07059373417819785,0.7062403150165147,0.5506491147326891,0.005981898682217446,-0.0022268690270259356,0.8347124117842012,0.002870490010964756,-0.012439097852395201,1.975264589802852,0.11504115943483958,-0.27866353801501675,-0.32319543189431615,3.6273613118011068,-1.7626762097383624,5.392129979413114,-0.7091412118196713,0.019450373098839367,0.3457656957037094,0.5653009302078633,6.9458246443846665,-0.7022927331977604,0.0746750102108367,0.42230076754407486,0.3974307585458494,8.692963366057727,0.11183364514731967,-1.4884543109387158,4.015193202583151,-6.474085935165925,-14.55601859712595,0.3809492460501448,0.49455791860209775,9.719847199867768,12.715560269610261,-12.35128587734018,-0.6974048614501953,-6.820657730102539,30.0,-30.0,-15.0,0.9134407043457031,7.726432800292969,23.887603759765625,29.51605987548828,-15.0,-0.6974048614501953,-6.820657730102539,30.0,-30.0,-15.0,0.9134407043457031,7.726432800292969,23.887603759765625,29.51605987548828,-15.0
25,0.5,0.04253720493289514,-0.07724606551531506,0.7069925059908009,0.5166440037074245,-0.009161367299282897,-0.010198763349128386,0.8560905489540922,-0.026932073262862802,0.005147682796110382,2.055556593128134,-0.2128953970390111,-0.23515630628586404,0.2729593611667344,-4.210067915720552,3.7980155503854656,3.2274065335447992,-0.7057680488870731,0.017357312765069955,0.3392674374773585,0.6515156844717988,6.927188394317356,-0.7022569792066711,0.08680003982159888,0.34919672197731716,0.3817053764220965,8.40212645820978,0.2054902429694822,0.1524277325978554,-4.536747501368915,8.516203087566057,9.69549009436871,-0.1434315361208149,-0.05186697715478619,-11.93111430224902,-5.271794785641357,-13.317152236617863,-0.7999172210693359,15.0,-30.0,30.0,10.29058837890625,-9.733502388000488,-15.0,-30.0,-30.0,-3.9640722274780273,-0.7999172210693359,15.0,-30.0,30.0,10.29058837890625,-9.733502388000488,-15.0,-30.0,-30.0,-3.9640722274780273
26,0.52,0.041521632374694785,-0.08207997173126197,0.7079342571794887,0.4891880267354313,-0.010026245697537852,0.0013787104848959398,0.8721196294392797,-0.007406019507013221,0.018838182874853813,2.1191483632903325,0.05607729622081451,-0.23247134098462222,-0.11327281062334307,4.224750384293284,-1.4777996120463188,3.3791217204704402,-0.7055418906029525,-0.007533635748850693,0.3530526922035777,0.6327806144610345,6.724634623192671,-0.7032454467958607,0.07131084238556767,0.35728044611726195,0.45911594579741993,8.411181852813097,-0.06219716684994467,-2.0217700750179937,4.374260095234894,-6.688042207482515,-26.12066172299392,-0.014472849792738121,-1.0470492972453296,7.678180668300399,8.465806257313277,11.69519072149038,-11.306017875671387,-5.193033218383789,30.0,-30.0,-15.0,-5.887253761291504,3.5647125244140625,30.0,16.670806884765625,10.354421615600586,-11.306017875671387,-5.193033218383789,30.0,-30.0,-15.0,-5.887253761291504,3.5647125244140625,30.0,16.670806884765625,10.354421615600586
27,0.54,0.03957802215702903,-0.08691526835890863,0.7057287812503666,0.4669505380760427,-0.02037899885339779,-0.0006037752126234561,0.8840483735925996,-0.020113512528565684,0.035475615919233816,2.169338036601711,-0.19574171286214018,-0.2631930465537261,-0.13866787561715174,-3.86248056829802,2.223666419785667,1.7020524344642678,-0.6877909424655073,0.005588946686981523,0.3385923214388633,0.6587362109609184,6.607705304460553,-0.7033121821098866,0.06770597100929569,0.2848472370326035,0.4027059940032427,8.245973679574451,1.567445809465134,2.3766983598278406,-4.286060093330462,6.1892248758971045,10.504542336737558,-0.0029963561851599646,0.2309616297716724,-10.117400438485928,-8.751587569892347,-24.358753847316258,4.123651504516602,15.0,-30.0,27.91793441772461,15.0,-2.309575080871582,-7.419188499450684,-26.714153289794922,-22.630416870117188,-15.0,4.123651504516602,15.0,-30.0,27.91793441772461,15.0,-2.309575080871582,-7.419188499450684,-26.714153289794922,-22.630416870117188,-15.0
28,0.56,0.03802377294092832,-0.09095419845324451,0.705727025469612,0.44315604933782715,-0.01696793704415793,0.008247270403484533,0.8962459414572803,-0.0002559047993236414,0.03773349858927343,2.223179316912402,0.0498846122817207,-0.21043780450639774,-0.06074460407241736,4.0906612605477,-2.405278518486865,3.116737408957316,-0.7217207573208846,-0.009807613616279687,0.3419776848328296,0.6582986401276155,6.462152401948784,-0.7030381758571581,0.0583900050641074,0.2968450811427702,0.43877549359257434,8.2157674449383,-1.3537870695707364,-1.7981674488439965,3.438137311901726,-3.2704180074716875,-20.07948910656996,0.015966276190113222,-0.30941235001290457,7.3549615626984375,4.494649395035682,14.684206538187741,-15.0,-4.492913246154785,29.742935180664062,-30.0,-15.0,-4.6317596435546875,5.248622894287109,30.0,6.548435211181641,15.0,-15.0,-4.492913246154785,29.742935180664062,-30.0,-15.0,-4.6317596435546875,5.248622894287109,30.0,6.548435211181641,15.0
29,0.58,0.03533313473127867,-0.09749147481936829,0.7066298418261788,0.4230199625809001,-0.018435846060091594,-0.008143903436357638,0.9058961903413228,-0.030367864074281027,0.026514964721702464,2.2674491272218904,-0.26267051419035453,-0.4156125139186788,0.08594380212292692,-5.325032343385474,0.7588800830684822,1.4073403588640914,-0.7244029616494522,0.009371500267686935,0.3044453257950662,0.6239525340296188,6.375428163186192,-0.7048598488066485,0.08284315574753069,0.26289057022759155,0.4605735527406436,8.10636137400905,0.4304668250512732,2.736927639520101,-5.275998718763704,-1.0183653564614612,8.10573696328996,-0.11788177432535972,1.9229212194081085,-7.339981248630489,-0.34126993551302387,-21.70314406819086,2.8364486694335938,15.0,-30.0,9.141849517822266,15.0,-11.20827865600586,-7.735150337219238,-30.0,2.7324752807617188,-15.0,2.8364486694335938,15.0,-30.0,9.141849517822266,15.0,-11.20827865600586,-7.735150337219238,-30.0,2.7324752807617188,-15.0
30,0.6,0.034098179341907786,-0.10313009463469933,0.7099478038370945,0.40676475785381166,-0.007029526020469452,0.00409388359946586,0.9134967201085794,0.001761002827643302,0.016174098254650795,2.303757836314,0.05525318656595669,-0.17424405883958413,0.23496429828592827,6.1647151021050615,-1.2604362656972548,1.9838003353297775,-0.7169326099811933,-0.02154796063697311,0.31606076086518203,0.5551536689487726,6.223991891655533,-0.7031688265028853,0.061798187971979966,0.2748965737073832,0.42974199712521166,8.097010876927936,0.2980443129686214,-4.450209921721091,3.9677515968998733,-5.906776050216967,-20.4367232229632,0.16699109921888025,-3.5156187164152897,6.002661130713892,-2.8221133090200605,15.84031908006664,-12.415348052978516,-14.16008186340332,30.0,-30.0,-15.0,3.702390670776367,-6.841310501098633,30.0,-19.786548614501953,15.0,-12.415348052978516,-14.16008186340332,30.0,-30.0,-15.0,3.702390670776367,-6.841310501098633,30.0,-19.786548614501953,15.0
31,0.62,0.030719092898448326,-0.10832035084929387,0.7137673973871976,0.38421975731749236,-0.014172480555278748,-0.005764652355304921,0.9231148832431533,-0.021540321093117893,0.021737580683391648,2.352535956610871,-0.31184730753294,-0.32445089945389954,0.1296709194821668,-6.007684176635281,1.3263394541573958,2.69626788225837,-0.7100644788413516,-0.013981322393563214,0.27542944252305074,0.6175828925919656,6.232995823780846,-0.7029316749142092,0.07924681639457824,0.2488564913027858,0.47225901400752157,8.223615125315982,0.32326366069175216,3.3781751172567223,-6.174718575891087,8.209008798404511,16.668454712325357,-0.05491332099532516,3.5634629187206963,-6.234823185207455,5.4543030843809115,-0.9548839001126845,0.3634786605834961,15.0,-30.0,30.0,15.0,-7.389081954956055,8.325483322143555,-30.0,21.866580963134766,-6.479767799377441,0.3634786605834961,15.0,-30.0,30.0,15.0,-7.389081954956055,8.325483322143555,-30.0,21.866580963134766,-6.479767799377441
32,0.64,0.029173259884635976,-0.11289082167715682,0.7134765520180031,0.36472346124386423,-0.005237007264645453,0.00940261230866054,0.9310536834441822,0.01369087131841879,0.01661134035551038,2.3949894150132347,0.07146434039239878,-0.1565631000660464,-0.13339000337500873,6.7812660531963225,-1.4068332497933729,1.8134301210907984,-0.7071005711354759,-0.04437835292884288,0.27479674314899016,0.5967369140074892,6.166151752458746,-0.703043300911178,0.05188571084481311,0.27419859064328395,0.45935700923983813,8.191584227468907,0.0606540313400611,-4.561086479936188,4.31523406571246,-6.734643797723692,-19.48505104727254,0.012304377837013344,-4.4696993284537925,6.289438304017859,-4.579390469752475,-2.1474291091714806,-9.349620819091797,-11.449761390686035,30.0,-30.0,-15.0,-4.22025203704834,-15.0,30.0,-21.904428482055664,-0.6236658096313477,-9.349620819091797,-11.449761390686035,30.0,-30.0,-15.0,-4.22025203704834,-15.0,30.0,-21.904428482055664,-0.6236658096313477
33,0.66,0.02573023397797245,-0.11779738495105242,0.7109032243947194,0.34189324240674646,-0.007421584822366193,0.00043407786893215426,0.9397093925526818,-0.004259410361250385,0.014245564328869819,2.4436805885678807,-0.40497453718546084,-0.29250448690101744,-0.026376947236124333,-6.2512948758325955,1.4544587400740718,2.809805238005441,-0.7056756896905281,-0.031187471164229326,0.2250540332163173,0.5829850947327646,6.179195223273007,-0.7037869664126167,0.06678559728461535,0.2520347966616598,0.4296633703523893,8.506399441922417,0.0660338455425196,3.690074360738771,-7.577937974302474,3.272603899507268,16.88645273707239,-0.025844539200534276,3.5670829945768734,-4.73687946627862,-0.20782120816182478,25.984615182326433,-5.239660263061523,15.0,-30.0,19.386497497558594,15.0,-7.743496417999268,15.0,-30.0,13.463066101074219,15.0,-5.239660263061523,15.0,-30.0,19.386497497558594,15.0,-7.743496417999268,15.0,-30.0,13.463066101074219,15.0
34,0.68,0.02178880324918171,-0.12235801166995412,0.7078518846077332,0.3179257056416184,-0.0032481814835939554,0.004624420076726067,0.9480987869142556,0.006703781113006719,0.009099763465551611,2.4945306960274913,-0.004169607272831409,-0.24197696255240164,-0.055678214384936295,4.434215193717908,-2.1760948877460455,2.3117985343645295,-0.7047037396297052,-0.04055143248258959,0.20652043297234463,0.5411500092054939,6.123351547090764,-0.7036183759000836,0.05577257425164649,0.34902465287796314,0.4805787112642373,8.61739649661172,0.04421954059270959,-2.2256298569726827,3.958945009946582,-1.4567810946817745,-17.395209784216313,0.010741303441373494,-2.37838756581509,10.739801134842816,3.4082708871497513,-10.8928254421977,-3.9434728622436523,-10.063827514648438,30.0,-30.0,-15.0,-5.454278945922852,-15.0,30.0,3.909313201904297,-15.0,-3.9434728622436523,-10.063827514648438,30.0,-30.0,-15.0,-5.454278945922852,-15.0,30.0,3.909313201904297,-15.0
35,0.7,0.0189371914307487,-0.12815251780210551,0.7069052353809196,0.28620945138630277,0.0035757731514080276,0.0034872445881878127,0.9581540601117878,0.008729689073507484,-0.00485613749152476,2.5610271134865368,-0.27019909305412715,-0.28201356522173515,-0.01695598486894044,-2.572892178264587,0.8264023356819264,4.136091632872747,-0.703962356225704,-0.03626192989790895,0.23443194552764715,0.6025763419810986,6.151749650283815,-0.7055947700725591,0.05168736662014415,0.3958197937096633,0.47499063883004256,8.79481910992022,0.030963020240421857,1.5025552888637819,-0.7473167933832133,5.9932481216510896,17.611823828118343,-0.11857883123217763,1.6614424555545242,-2.4261084841119174,-2.0065399218509907,23.475099268035066,-5.352426528930664,15.0,-2.85284423828125,15.17746353149414,15.0,-13.327125549316406,-6.133185386657715,-30.0,2.87701416015625,15.0,-5.352426528930664,15.0,-2.85284423828125,15.17746353149414,15.0,-13.327125549316406,-6.133185386657715,-30.0,2.87701416015625,15.0
36,0.72,0.015097295417020247,-0.13178891731788858,0.7050846149195704,0.23471452650412064,0.0030296886457559092,0.012435780291353619,0.9719800735628286,0.025599681197717168,-5.187741998317958e-05,2.6677026665624597,-0.16052595833979053,-0.09283294192620184,-0.1291336157672322,3.2103196784449777,0.1657013265497523,6.349532535087639,-0.6939291108093925,-0.05201510547653376,0.2685801646479019,0.5606753273423336,6.102834088258426,-0.7048288351032826,0.05414840883122428,0.40461881920018455,0.47874148486482,8.888860059522964,0.7333034379691974,-2.310869398405936,3.679070412602044,-7.010170961403253,-18.62089370206045,0.09367423269365205,-1.0505884721114338,1.8063847281936252,2.121708976202809,-9.434832339717627,0.4638252258300781,-3.728321075439453,30.0,-30.0,-15.0,-0.6853809356689453,-8.409334182739258,-2.413125991821289,3.244976043701172,-15.0,0.4638252258300781,-3.728321075439453,30.0,-30.0,-15.0,-0.6853809356689453,-8.409334182739258,-2.413125991821289,3.244976043701172,-15.0
37,0.74,0.01039039929344717,-0.13677328333729627,0.7089656888478265,0.18800813507755246,-0.009855515671084666,0.001540494362822394,0.9821168142500339,-0.0006800786478156666,0.019939107417452685,2.7632993815356484,-0.32453979406413286,-0.3060871641744829,0.23384200395007337,-3.881001508800515,2.1111980803850705,3.1499480941944964,-0.7167867016506004,-0.056889510895903106,0.2690659844552071,0.6470976121522354,6.144416483398442,-0.7043638800587142,0.07105239062420576,0.29908062196733665,0.37811298148681416,8.987593635680708,-0.43206096975743125,1.5469723726341067,-3.092305804354283,8.144284710098407,17.80842313801131,0.003168014748095829,1.3156176035557106,-9.208503813153328,-9.438173085766763,16.09612911269706,-10.874403953552246,15.0,-30.0,30.0,15.0,-4.447111129760742,-2.178560256958008,-11.471435546875,-28.704917907714844,9.995223999023438,-10.874403953552246,15.0,-30.0,30.0,15.0,-4.447111129760742,-2.178560256958008,-11.471435546875,-28.704917907714844,9.995223999023438
38,0.76,0.005967303249863706,-0.1415259809815165,0.7093550081347049,0.15661390293821859,-0.0031975595755261836,0.00400710252171759,0.987646598813867,0.006913891032850325,0.007571325946818943,2.827092040143973,-0.15790543254107003,-0.18268129353978393,-0.13721177028189324,3.0149205691657297,-2.3934229485607403,3.423663942706555,-0.716891011631849,-0.04117464658777621,0.29086355351547605,0.6273661916314712,6.099705492082804,-0.7057667189894842,0.08175925981446562,0.36243925917676234,0.46969294603031303,8.953704060294612,0.17753874702236866,0.40271956405308573,4.081774777463781,-6.5076822656521225,-18.405074717386956,-0.10054192265774817,0.16316715916295096,10.236440797783512,11.887991344735644,-15.911157666882307,-7.879295825958252,3.3379592895507812,30.0,-30.0,-15.0,-15.0,-2.1823062896728516,26.506855010986328,30.0,-13.014123916625977,-7.879295825958252,3.3379592895507812,30.0,-30.0,-15.0,-15.0,-2.1823062896728516,26.506855010986328,30.0,-13.014123916625977
39,0.78,0.0008053091369404955,-0.14719743792505255,0.7068060868116713,0.1310911713542878,-0.013940022219800332,-0.00758965601196685,0.9912432484991222,-0.01870846268030017,0.025648844171019685,2.8783802497359816,-0.3155866241237651,-0.3594976599394127,-0.14941366287382207,-4.071427280644914,3.0622458169747633,1.8071694910276626,-0.7106842122154733,-0.012020618341478433,0.26429949097393257,0.6567860084351184,6.133003615673119,-0.7071545370344533,0.06894214485114802,0.32934142613472783,0.48494662223883983,8.761398329092806,0.3243334362617303,2.0751256424709177,-5.101714400794149,6.347493944097082,17.852220380873668,-0.04076423946513728,-1.4127144773922042,-8.604783003483284,-4.97094291952775,-4.5822797025170345,-0.6241922378540039,10.429193496704102,-30.0,27.3270263671875,15.0,-8.561147689819336,-15.0,-30.0,-14.072114944458008,4.382078170776367,-0.6241922378540039,10.429193496704102,-30.0,27.3270263671875,15.0,-8.561147689819336,-15.0,-30.0,-14.072114944458008,4.382078170776367
40,0.8,-0.003272333598570042,-0.15208441786392699,0.7030586694516935,0.10463398214506536,-0.011187041510192876,-0.0019763441031687254,0.9944459130323288,-0.006273360987000408,0.02183796561131582,2.931858860811064,-0.10164633837084067,-0.18709876702959377,-0.053499211985946996,3.230883563866574,-2.6944239844069147,3.275038644990276,-0.7088430628157233,-0.006693863939125187,0.275729420377196,0.6545421810291266,6.100872478607695,-0.7054271903016439,0.057827132003598784,0.3575785375821816,0.49421956872506095,8.817825812956954,-0.005104791687369603,-0.8245712392303808,4.272198921268217,-1.1922721900080309,-15.409828545427892,0.12008036359756229,0.49886500279168855,7.492261335505717,3.428912857691285,9.05250366319222,-13.329156875610352,-8.858661651611328,30.0,-30.0,-15.0,-1.8658294677734375,12.540386199951172,30.0,0.8563766479492188,5.174985885620117,-13.329156875610352,-8.858661651611328,30.0,-30.0,-15.0,-1.8658294677734375,12.540386199951172,30.0,0.8563766479492188,5.174985885620117
41,0.82,-0.006586185112505835,-0.15878603136493083,0.7020845281544217,0.07957619150605742,-0.011980393069691623,-0.01809197711023953,0.9965925849069572,-0.03798487671861775,0.02100130427812228,2.9818352919804503,-0.20130390462514655,-0.4309668986756953,-0.08534297686566203,-4.702167634391486,1.7336293081233065,1.9405851341566793,-0.7060406860283294,0.016557383859691906,0.21948385981154866,0.6617795029780457,6.179639162788423,-0.7066725932290656,0.06942452580737253,0.3482749684942881,0.5613370552925084,8.609411602145686,0.18647587370557478,2.370982950040206,-7.589506463613729,1.6458241700188565,20.134728665803788,-0.12304259109010854,0.2212221423849144,-5.4984062173963055,3.7336543162002473,-26.10275843769987,0.958775520324707,14.510881423950195,-29.091049194335938,10.289562225341797,15.0,-15.0,-15.0,-30.0,14.003990173339844,-14.564184188842773,0.958775520324707,14.510881423950195,-29.091049194335938,10.289562225341797,15.0,-15.0,-15.0,-30.0,14.003990173339844,-14.564184188842773
42,0.84,-0.008596103050083721,-0.16395367637340139,0.7036445899067332,0.05619404449575779,-0.0056906733741807075,-0.005435754324897067,0.9983888511870902,-0.011494474478086145,0.010752302845627264,3.029080047942812,-0.0884120163743619,-0.12415498142129837,0.2707666103813647,5.298097604632814,-1.6132796500263504,2.8085279307236406,-0.7065910802298125,-0.0036642682929748692,0.22396580974763228,0.6137244258349422,6.143414124615685,-0.7049631302193029,0.050098469731558536,0.3656398429657503,0.5379832354204067,8.527697852931343,-0.09228638391767052,-3.482770126972898,4.406207652869272,-5.369113467771692,-17.74244794762132,0.15379822814666128,-2.104720370782185,5.263726228752466,-3.147559952921713,13.786080655000832,-15.0,-15.0,30.0,-30.0,-15.0,0.8933753967285156,2.900545120239258,30.0,-28.439523696899414,15.0,-15.0,-15.0,30.0,-30.0,-15.0,0.8933753967285156,2.900545120239258,30.0,-28.439523696899414,15.0
43,0.86,-0.01220169696780003,-0.17037922090101681,0.7074788316924228,0.035184370907265825,-0.015972155133795202,-0.01228849194124006,0.9991776334916895,-0.025695931742361105,0.031058307615374776,3.0707959926843214,-0.229784024335107,-0.45545849456600446,0.10897078408221049,-4.682839330156688,2.7888448402485393,1.4695764181865767,-0.7053860532410052,-0.010070883535368565,0.18915122397149114,0.6794132267091904,6.199306647233661,-0.7057964386484815,0.03310582830571195,0.3449727677241848,0.601065835449745,8.54343299720549,0.11278834610788617,1.6652118300715695,-6.048210860277492,8.27837537683592,18.956384392307314,-0.11430360431471462,-0.3896262686115435,-5.387471655984386,7.179144061544376,-9.390273391410597,-1.0290632247924805,15.0,-30.0,30.0,15.0,-13.990105628967285,-11.673775672912598,-30.0,27.200881958007812,-9.237794876098633,-1.0290632247924805,15.0,-30.0,30.0,15.0,-13.990105628967285,-11.673775672912598,-30.0,27.200881958007812,-9.237794876098633
44,0.88,-0.01515669973834468,-0.17539667214064958,0.707729752959191,0.012357289493951918,-0.012520164260494274,-0.0008147742251700153,0.9998449274893663,-0.0019393344839464355,0.02501891865396616,3.1168512386202805,-0.10340851686027012,-0.11320933931587894,-0.0733518604773899,4.924565516882855,-2.556411842474165,2.988079619236975,-0.7053662306327135,-0.023411987629789806,0.19006688267443222,0.658704557608603,6.177217757906607,-0.7045251362903745,0.016121870459031934,0.3562714948725324,0.573582638654358,8.569790837190245,-0.04473465051097226,-2.085805334744651,4.438908307278024,-6.778855313954744,-17.288438811285175,0.12886436998010484,-0.823172738659016,4.750735109442292,-6.704339909541966,9.905538665867926,-10.59272575378418,-10.373550415039062,30.0,-30.0,-15.0,1.1505146026611328,10.774652481079102,30.0,-30.0,7.801568984985352,-10.59272575378418,-10.373550415039062,30.0,-30.0,-15.0,1.1505146026611328,10.774652481079102,30.0,-30.0,7.801568984985352
45,0.9,-0.018584655670978143,-0.18174716884151054,0.7038934230248112,-0.006569055738285153,-0.015519033674241981,-0.008108592795272603,0.9998251136190803,-0.016018911616474264,0.031144205345265717,-3.128701906744294,-0.2071859226770323,-0.4542060507624636,-0.28483660404705924,-4.471811965303627,2.3160130167447646,1.0157813371049145,-0.7042773913324288,-0.011138545088089546,0.15679217019229347,0.6887624263078262,6.232126410544137,-0.7058296772868468,0.007851514112386937,0.3378130139544493,0.6000576046312202,8.673780455365113,0.08787923599166479,2.318088275718693,-6.006056279316161,6.622987531045945,18.904631839387726,-0.1344472311600471,-0.47775012253614846,-4.905678210165581,6.290723185918311,1.4418954853900803,-1.0739212036132812,15.0,-30.0,27.764358520507812,15.0,-15.0,-15.0,-30.0,28.44031524658203,-3.2445287704467773,-1.0739212036132812,15.0,-30.0,27.764358520507812,15.0,-15.0,-15.0,-30.0,28.44031524658203,-3.2445287704467773
46,0.92,-0.02288692181120434,-0.18693948139465177,0.6993068027643334,-0.030031428809488395,-0.015291429930457902,0.0002935407431683269,0.9994319382970389,0.0015058983301298053,0.03055260907461509,-3.081490728458663,-0.32072826348341915,-0.1487591208509092,0.01294198773578405,4.032078040479263,-0.6136871748508343,3.449896380130641,-0.704379842387503,-0.018990210403365695,0.14887241912588578,0.6497022856705793,6.208883094566037,-0.6983187738640055,-0.00892433487536346,0.3554950517775187,0.6123019881471494,8.721161867522113,-0.04442270732049992,-2.7626343631168506,2.8224838395483403,-7.203914808398169,-17.348405646294434,0.6879699464744086,-1.7112647657482507,4.94630113738177,0.7428588459013135,4.108328230983339,-8.617311477661133,-11.16355037689209,30.0,-30.0,-15.0,4.4620513916015625,15.0,28.961902618408203,-30.0,0.3430137634277344,-8.617311477661133,-11.16355037689209,30.0,-30.0,-15.0,4.4620513916015625,15.0,28.961902618408203,-30.0,0.3430137634277344
47,0.94,-0.02954235626806039,-0.1949403590715341,0.7010546933624606,-0.05257860337202172,-0.02746300956985725,-0.02150465652019611,0.998007426485777,-0.04011181168871891,0.05710898243925146,-3.037468654572158,-0.3405701879371296,-0.5472564133486151,0.06453373412678631,-6.115329401174412,2.6647061281525266,1.2679585785800789,-0.705122272911846,-0.015346169308055907,0.11799252213678924,0.6853813444475674,6.192192549716622,-0.7080688044137307,-0.0012093089909069312,0.2906812196687387,0.5927582027375828,9.045517874841217,-0.009656562161202796,2.2844674992354204,-5.0596385248052185,6.722693521907014,13.664436377034484,-0.29563269756914645,1.495138523243167,-8.57878143949648,-1.3664155106525313,26.804386648839174,-5.870159149169922,15.0,-30.0,28.0162353515625,15.0,-15.0,-4.448434829711914,-30.0,2.9046554565429688,10.119728088378906,-5.870159149169922,15.0,-30.0,28.0162353515625,15.0,-15.0,-4.448434829711914,-30.0,2.9046554565429688,10.119728088378906
48,0.96,-0.03500600886691595,-0.2018792606354825,0.6998395830720519,-0.07204249774521707,-0.025669229007626235,-0.024386783746962324,0.9967729199668625,-0.04500012340615413,0.0547138488538157,-2.998523674618287,-0.19483568027251336,-0.18143995155841502,-0.06848245276679531,3.2733382142428105,-2.475320221756812,2.328478328596672,-0.7048792786357959,-0.02102531386626695,0.13595918610799973,0.6584489132476159,6.076075255210187,-0.7080988138454192,0.006386716446547583,0.2971542647820614,0.5683252789262774,9.173354449518778,0.3013480474220751,-1.147990787991591,4.409964231250203,-1.6980097261130842,-17.71776248108635,0.11574908143387488,0.1597829998664514,5.937517005752637,-1.737163784172555,-10.043517315556588,-7.705942630767822,-11.902030944824219,30.0,-30.0,-15.0,-2.450119972229004,7.639413833618164,30.0,-10.642404556274414,-15.0,-7.705942630767822,-11.902030944824219,30.0,-30.0,-15.0,-2.450119972229004,7.639413833618164,30.0,-10.642404556274414,-15.0
49,0.98,-0.03970738819130741,-0.20754358326561387,0.700767955134344,-0.1017339871509791,-0.017139576051474786,-0.01796740515683183,0.9945016858422473,-0.032278478805960485,0.03775543533868961,-2.9383184433299947,-0.21722369256429697,-0.36657678338387595,0.0723786943063689,-1.42233353520017,-0.33990999324498605,3.3147950969497226,-0.7039492692710851,-0.02263684105077218,0.1844083276065193,0.65661393147044,6.101191095611684,-0.7082023031360456,0.016383078795053154,0.3277484013696465,0.6041269005647221,9.37461317409498,-0.07216865857926327,0.67224144470277,2.041350203326733,0.3456367342952351,14.848860925686743,-0.05599477860189227,0.6956221773412707,-1.5930349634901289,2.7954926185522244,25.64644539959189,-10.605539321899414,15.0,9.875144958496094,-3.5030899047851562,15.0,-15.0,-15.0,-29.67937469482422,17.148147583007812,15.0,-10.605539321899414,15.0,9.875144958496094,-3.5030899047851562,15.0,-15.0,-15.0,-29.67937469482422,17.148147583007812,15.0
50,1.0,-0.043853095253147845,-0.21109235762214498,0.7051368267100645,-0.1313324185253785,-0.0009580146556435595,0.005905684936078631,0.9913203321518386,0.011960773776139681,0.00034818304890472327,-2.8781599876157333,-0.254805960244531,-0.03443895252275257,0.39283004698661644,4.819901825617113,-2.4888258323949226,2.949738817433627,-0.6939813324417052,-0.03124913936163124,0.24330864714754616,0.5810853594711713,6.076996161305917,-0.6638751628138413,0.022622277957167838,0.36709798256317067,0.5704482884371685,9.509680340267423,0.7734451745095144,-1.5355507809220406,3.029413786463332,-6.315309428332688,-13.326236358858027,3.5167928320544988,-0.2540713359866636,4.18149931815628,-1.934018889150106,-6.039467483499654,-0.8440914154052734,-8.949153900146484,14.999946594238281,-30.0,-15.0,10.615787506103516,8.075958251953125,28.553394317626953,-30.0,-15.0,-0.8440914154052734,-8.949153900146484,14.999946594238281,-30.0,-15.0,10.615787506103516,8.075958251953125,28.553394317626953,-30.0,-15.0
51,1.02,-0.04869604957448113,-0.21649814629760747,0.7118220801162343,-0.1523911254540866,-0.0026528987932393053,0.0012101115046565373,0.9883159629597091,0.0032005449951695037,0.004875003252296827,-2.8356091267701475,-0.21862942615078515,-0.42029706805429445,0.26461041307274397,-3.8470063270394386,2.083503924965926,1.3417459722212177,-0.6900355092528452,-0.019160230899583443,0.19887632702823768,0.6308970444556227,6.20904727940217,-0.6911849327415359,0.012197647111315863,0.31326408246577336,0.5628303961651849,9.77389934685652,-0.009391535094007641,2.004972623338504,-6.01675726375583,7.800882619906984,22.67822448895312,-4.375270816835576,-0.8807222084245148,-7.243579592902726,0.9841209459825995,29.21298322114411,1.2676258087158203,15.0,-30.0,30.0,15.0,-15.0,-15.0,-30.0,11.403118133544922,15.0,1.2676258087158203,15.0,-30.0,30.0,15.0,-15.0,-15.0,-30.0,11.403118133544922,15.0
52,1.04,-0.053334132550879675,-0.22010829603599724,0.7142940310842726,-0.1784530102744038,0.004710027073390485,0.021212609879267295,0.9837084750834888,0.040069411392568643,-0.01683829095406235,-2.783016393555452,-0.2581525460626564,-0.028847422146782042,0.007351800431112724,5.524133392902115,-3.2667125898250746,3.5915802536823813,-0.7121065955401359,-0.027176328760364635,0.19919303017532822,0.6031852297053322,6.259384306582148,-0.7202448607332237,-0.0014790902614577482,0.3129553061347443,0.5016601350856513,9.951237274011808,-0.7798731013404425,-1.9397729206216843,4.352271898339892,-7.0498820917523215,-13.747028172909825,0.42011482454853644,-0.3349660683152268,4.8178837900386,-5.827315549056872,-7.526472876339696,-8.899065971374512,-14.313295364379883,30.0,-30.0,-15.0,6.959543228149414,15.0,30.0,-22.971519470214844,-14.942601203918457,-8.899065971374512,-14.313295364379883,30.0,-30.0,-15.0,6.959543228149414,15.0,30.0,-22.971519470214844,-14.942601203918457
53,1.06,-0.06015025319170224,-0.22585778207489804,0.7161947760901158,-0.2024027723680571,-0.0008087875132189474,0.018453829059434684,0.9791281426828309,0.03647344648468282,-0.005886433087770219,-2.734007764507616,-0.34742058654119556,-0.4392532547196167,0.05974485935494657,-3.801846825193249,2.9094268274631667,1.4589079465523047,-0.7139120296630006,-0.027220403080559428,0.1599358152449524,0.6442647407147425,6.383085660218326,-0.7150993460354067,-0.0033779249860521766,0.29783150183746393,0.5070762720832147,10.137598417929654,0.20097927393056267,1.5176906575236813,-6.192072302275155,7.59401579851151,22.264554930894683,0.15692191754706017,-0.17666857426297866,-4.95826240250061,3.450736179898244,24.38456638190046,-1.216801643371582,15.0,-30.0,30.0,15.0,-15.0,-15.0,-30.0,20.04523468017578,15.0,-1.216801643371582,15.0,-30.0,30.0,15.0,-15.0,-15.0,-30.0,20.04523468017578,15.0
54,1.08,-0.06765739849495332,-0.2315927225570447,0.7158137156439588,-0.2389898348202395,-0.00328746853525336,0.012693513659029852,0.9709335333143109,0.026223465985234083,0.00031658542115470305,-2.6588953676065246,-0.4023253514540701,-0.1864783676081154,-0.08887102412222478,1.6443220138126817,-1.4112210901667908,5.464267625369746,-0.7100000181310278,-0.024066045957323694,0.11968394290762992,0.6243702954752622,6.425263499600365,-0.7100453673571866,0.014660574901298648,0.23938176101858263,0.44254943111487816,10.29270695100863,0.17229770798048247,-0.6665795407085908,1.2625286278648742,-6.214252301052082,-14.148461262697403,0.2637470513546732,1.875232778754292,-1.4290455683110725,-7.197538946064196,-5.655364803824978,-6.035885810852051,-6.703767776489258,28.879051208496094,-30.0,-15.0,-1.5468254089355469,15.0,1.4893417358398438,-20.478689193725586,-12.212457656860352,-6.035885810852051,-6.703767776489258,28.879051208496094,-30.0,-15.0,-1.5468254089355469,15.0,1.4893417358398438,-20.478689193725586,-12.212457656860352
55,1.1,-0.07540572729172346,-0.2389639020768719,0.7130333718216648,-0.2728676820903832,-0.007287591645493609,-0.005998198775589932,0.9620052706145004,-0.007564704757704942,0.01729569463514713,-2.5888876530684684,-0.3564504175882558,-0.47702920045478314,-0.22067761579344897,-3.9121114779568704,2.410217575724027,2.109213623062228,-0.7088559180264612,-0.004115260369325486,0.036525622831915794,0.5671091540805073,6.542908738863695,-0.7085266075391915,0.03586216167073487,0.22105871097145816,0.5018510395927528,10.51340219537985,0.005698375071807038,2.1381689075763033,-7.803338890530484,-0.6217019782772988,22.021356849937114,-0.01486405826417427,0.3668251363084854,-1.2888540528929298,8.865362760404569,25.854312798604575,-12.76568603515625,14.261062622070312,-30.0,9.882823944091797,15.0,-15.0,-15.0,-11.252906799316406,30.0,15.0,-12.76568603515625,14.261062622070312,-30.0,9.882823944091797,15.0,-15.0,-15.0,-11.252906799316406,30.0,15.0
56,1.12,-0.08416790689353865,-0.24514019681008542,0.7076520747541124,-0.315791902503024,-0.012280970180127491,-0.002891447551225518,0.9487445871339729,0.002270690457028852,0.0251318449150033,-2.498928834395496,-0.5555932270567182,-0.23438493959897425,-0.14709235505410131,3.04138503769786,-0.24319814787271987,6.410659955241259,-0.7080006391521306,-0.020513079058233855,-0.0005304882012572881,0.4491770230781026,6.618090194681853,-0.7068422507914647,0.04400197159103688,0.21710654613916636,0.4693368628719798,10.688860293657239,0.046943121148923864,-3.2306094841927564,1.671751378338629,-9.283523650063971,-10.964112373685557,0.08960058629442139,-0.34483725045365565,0.4186498893616762,-3.382412113725495,-2.697100545438907,-8.68978214263916,-15.0,30.0,-30.0,-13.533712387084961,-2.920271873474121,15.0,9.30514144897461,-29.41276741027832,-12.791975975036621,-8.68978214263916,-15.0,30.0,-30.0,-13.533712387084961,-2.920271873474121,15.0,9.30514144897461,-29.41276741027832,-12.791975975036621
57,1.14,-0.09185226807021589,-0.2528267284388292,0.7100091568546751,-0.346131275551789,-0.01575855077039033,-0.018236377236687997,0.9378764538614821,-0.023320753269310324,0.04219602904896764,-2.4349817009403054,-0.2928773904735356,-0.4765257397663131,0.07833263654537757,-3.838951167607225,1.8082707465213075,1.0028491778826683,-0.7087588465895261,-0.017654025959603938,-0.0027608503119565136,0.4839954528675913,6.671790100243664,-0.7075433405455908,0.0515537038345612,0.20330540053694476,0.5156115565635955,11.007053118108,-0.03931800497206182,2.117730161519334,-2.3789929968629124,6.662528477030101,16.53090401658738,-0.08459606349047903,0.28744283014925986,-1.7441081022043063,5.008319294230569,31.748358361081472,-12.687084197998047,15.0,-30.0,29.857501983642578,15.0,-15.0,-11.348723411560059,-1.485982894897461,12.77682876586914,15.0,-12.687084197998047,15.0,-30.0,29.857501983642578,15.0,-15.0,-11.348723411560059,-1.485982894897461,12.77682876586914,15.0
58,1.16,-0.0990194853964995,-0.258927882975066,0.7102376942249298,-0.37191189434216787,-0.014291909368595042,-0.014925681342133268,0.9280379885596776,-0.01708546731464975,0.03763783219382126,-2.3796074612965117,-0.38630916529248877,-0.1360824306229513,0.057835351773390324,2.7429383141414743,-2.168462566215162,3.8822451413503485,-0.7059009284493815,-0.022820201055481687,0.02599651923176876,0.46237101812538617,6.66525643355634,-0.7073420297046592,0.056366560811743974,0.24541107205011273,0.546035929358513,11.231381584694475,0.5497070964650326,-0.9016898635988945,3.7043888071567133,-1.7171383300391796,-10.715837737316024,0.049295096197454494,0.8012215919552522,4.718993250685154,-0.8178291295949176,-5.32485342488245,-4.766918182373047,-15.0,30.0,-30.0,-13.208677291870117,-6.9294939041137695,11.819807052612305,14.362720489501953,-8.162734985351562,-15.0,-4.766918182373047,-15.0,30.0,-30.0,-13.208677291870117,-6.9294939041137695,11.819807052612305,14.362720489501953,-8.162734985351562,-15.0
59,1.18,-0.10546884073560232,-0.2636722905194051,0.71022670166385,-0.40868486042879587,-0.006963527143333625,-0.014000376400158165,0.9125416065071625,-0.019867177781883474,0.02415484905913025,-2.299697861641404,-0.2854448189004753,-0.3002498166073455,-0.07692804144195986,-2.127314390478526,0.36244127338828125,4.102655841851769,-0.703467685266136,-0.00781710684933335,0.061974093578855555,0.4964110729400914,6.814986489668511,-0.7079736375369233,0.07267674334255912,0.25436332418509744,0.5941552970024381,11.52103840249269,-0.05974739395559539,1.7559104448219591,0.16220956359846023,3.9204408944258597,23.424555461182354,-0.05968278514169349,0.4423409473475117,-2.5001021499407026,4.544116962243561,30.440302220872134,-12.699731826782227,15.0,-0.3552284240722656,10.098896026611328,15.0,-15.0,-15.0,-26.71839141845703,20.264739990234375,15.0,-12.699731826782227,15.0,-0.3552284240722656,10.098896026611328,15.0,-15.0,-15.0,-26.71839141845703,20.264739990234375,15.0
60,1.2,-0.11262301603367987,-0.26520742500048367,0.7092986147796867,-0.4468755476406229,-0.003013411691074625,0.02274052991797818,0.8943019806362518,0.04338548850036481,-0.014935128661166619,-2.2151143329005363,-0.4111650630798455,0.09081254914294519,-0.020916219834972043,6.6742902874420755,-3.727916058240606,4.372642652936078,-0.7047196789846183,-0.023956126521737044,0.1549922164868386,0.4631215322941421,6.898229324346826,-0.7058409942529414,0.05261018064781749,0.2977820081256074,0.5243266766874434,11.721796487572155,-0.055086333100577006,-2.166078478982222,7.421263829256968,-4.384382756432146,-10.120521214669095,0.16479914592069186,-1.600555086059624,5.653445050130159,-8.541731746805526,-6.414612366739943,-8.980463027954102,-15.0,30.0,-30.0,-15.0,1.176828384399414,3.0227527618408203,27.033184051513672,-30.0,-15.0,-8.980463027954102,-15.0,30.0,-30.0,-15.0,1.176828384399414,3.0227527618408203,27.033184051513672,-30.0,-15.0
