step,time_s,torso_x,torso_y,torso_z,quat_w,quat_x,quat_y,quat_z,roll_rad,pitch_rad,yaw_rad,body_vx,body_vy,body_vz,body_wx,body_wy,body_wz,l_hip_roll_pos,l_hip_yaw_pos,l_hip_pitch_pos,l_knee_pos,l_wheel_pos,r_hip_roll_pos,r_hip_yaw_pos,r_hip_pitch_pos,r_knee_pos,r_wheel_pos,l_hip_roll_vel,l_hip_yaw_vel,l_hip_pitch_vel,l_knee_vel,l_wheel_vel,r_hip_roll_vel,r_hip_yaw_vel,r_hip_pitch_vel,r_knee_vel,r_wheel_vel,l_hip_roll_torque,l_hip_yaw_torque,l_hip_pitch_torque,l_knee_torque,l_wheel_torque,r_hip_roll_torque,r_hip_yaw_torque,r_hip_pitch_torque,r_knee_torque,r_wheel_torque,l_hip_roll_ctrl,l_hip_yaw_ctrl,l_hip_pitch_ctrl,l_knee_ctrl,l_wheel_ctrl,r_hip_roll_ctrl,r_hip_yaw_ctrl,r_hip_pitch_ctrl,r_knee_ctrl,r_wheel_ctrl
0,0.0,0.00033758008305756905,0.0028619320847191217,0.7040422615709889,0.99990499754236,-0.01370665598252915,0.0014132652294100254,0.00035518020919093473,-0.02741324724944066,0.0028360023989751956,0.0006715534028694069,0.019731823978403513,-0.015449080207631341,-0.03615596013388326,0.651693634718099,0.09454933754117863,0.1656170247479159,-0.008822596139887959,-0.004480506707984898,0.32983017400947845,0.6111510185668171,-0.05215548565805156,0.0016140610791740687,-0.0009875548617915416,0.330321719621791,0.6090632260575262,-0.03722834781317873,-0.06455265099790337,-0.08431758364000937,1.0125260632722788,0.7109951973960605,-2.055122281226518,-0.37650589346096436,-0.06362967925440802,0.8192823361077171,0.22458867622232595,-0.6239732244901403,-0.3387489318847656,-0.33208274841308594,3.963756561279297,-1.2075214385986328,-1.1943130493164062,-0.7194318771362305,2.274190902709961,2.109405517578125,-3.338855743408203,-0.41957759857177734,-0.3387489318847656,-0.33208274841308594,3.963756561279297,-1.2075214385986328,-1.1943130493164062,-0.7194318771362305,2.274190902709961,2.109405517578125,-3.338855743408203,-0.41957759857177734
1,0.02,0.0009922938991862998,0.0027380945407664715,0.7033855068928548,0.9999573223801654,-0.009043282530494275,0.0016544368340515195,0.0009139464564336319,-0.018083854642570934,0.0033252687334381923,0.0017979027319775297,0.042885618594213214,1.210928298134642e-05,-0.03180855235997199,0.35403870262454945,-0.020662721146911457,-0.014535091910271442,-0.0018242880046619387,-0.003834125048547668,0.34317353943122675,0.6224791058721052,-0.10142416844901275,0.0008172907411767901,-0.00017513589569535007,0.3415376873824847,0.6153323928948812,-0.07062309990905245,0.5967298400010697,0.10919294263386536,0.45915270662084157,0.4912041521566417,-2.795675486171073,0.15016115074691092,0.10797951138578278,0.3954335997402062,0.38454192342249927,-2.5010943040458073,1.5611610412597656,-0.37041759490966797,0.2435626983642578,-0.8318767547607422,-0.3852090835571289,0.606806755065918,3.9867324829101562,0.828155517578125,-3.4438629150390625,-1.0336952209472656,1.5611610412597656,-0.37041759490966797,0.2435626983642578,-0.8318767547607422,-0.3852090835571289,0.606806755065918,3.9867324829101562,0.828155517578125,-3.4438629150390625,-1.0336952209472656
2,0.04,0.0018390311724949969,0.002975554094306301,0.702464571905483,0.9999633292100935,-0.00841606579699434,0.0014595769584447472,-0.0006162034314553704,-0.016834179441688153,0.0029086789533985056,-0.0012569351090727433,0.0433537630535925,0.020002099749748852,-0.05866194684734609,-0.12480464551362887,-0.008093990049658,-0.2522284410345538,-0.0007446370596524797,-0.002155552532884865,0.3431363962583713,0.6358816826998401,-0.18528570218902998,0.0017917016382959874,0.001857682105798647,0.34610352307074527,0.6270406124919843,-0.11775784215290551,-0.22960820224386103,0.06082372919570328,-0.3210554942550445,0.8137614866695494,-5.262114404393082,-0.01678069270834924,0.09185125766087612,0.1368247204670899,0.7274755576530872,-2.2319741567190885,-0.9979887008666992,-0.7685222625732422,-2.1649646759033203,0.6047744750976562,-1.097346305847168,-0.27086544036865234,2.928812026977539,1.0525245666503906,-2.086658477783203,0.0008869171142578125,-0.9979887008666992,-0.7685222625732422,-2.1649646759033203,0.6047744750976562,-1.097346305847168,-0.27086544036865234,2.928812026977539,1.0525245666503906,-2.086658477783203,0.0008869171142578125
3,0.06,0.0029874412877391164,0.003516975394609709,0.7012571805651413,0.9999513036564825,-0.009637987432775644,0.0021084442892143635,-0.00023232870117129975,-0.01927738085278684,0.004212217325229127,-0.0005052815983929452,0.06881421332179156,0.03333845481415211,-0.061227118356425865,-0.13761823453725525,0.11227022343982632,0.2604917584131331,-0.008298682382842506,-0.0019743053301529284,0.3407791798077665,0.6540835650874711,-0.28064133176224276,-0.0035666962238276295,0.0025322068929510945,0.34898308552076945,0.6391288207295754,-0.13690701247210454,-0.46747857163815076,-0.02341101162269333,0.009138575561187648,0.964137114269456,-4.375511159917003,-0.41191094459915706,-0.0025853031476926434,0.14932199516949504,0.5297032565157301,0.05042486789687009,-1.0532121658325195,-0.027019500732421875,2.8576278686523438,-1.2345848083496094,0.07229423522949219,-1.017822265625,2.955364227294922,-1.8189945220947266,-1.9507732391357422,1.2521171569824219,-1.0532121658325195,-0.027019500732421875,2.8576278686523438,-1.2345848083496094,0.07229423522949219,-1.017822265625,2.955364227294922,-1.8189945220947266,-1.9507732391357422,1.2521171569824219
4,0.08,0.004236903795261578,0.004137516484256648,0.7003348146573553,0.9999642395672318,-0.008349637147921175,0.0012782621056544204,0.00041132981249115865,-0.01669845642200675,0.00256330450530544,0.0008012868749775932,0.05714800872549579,0.030081395613257976,-0.03443583640298594,0.30158359428056647,-0.21962335151166082,-0.07717393603008299,-0.004882106777621682,0.00187349855932253,0.34667929756403554,0.6649986322945113,-0.3329974189968388,-0.006686422254316211,0.006761834039066794,0.359135979043877,0.6505391075448774,-0.14334134329360243,0.5377120478515239,0.345084056078108,0.49776009464585463,0.2697787067608908,-1.2265890575033143,-0.00372829790658636,0.3592109755306471,0.7193559592906945,0.5757711538155326,-0.6147070102578656,1.8780975341796875,-0.55767822265625,1.5529918670654297,-3.3241729736328125,1.3848419189453125,0.4913291931152344,3.436494827270508,3.187763214111328,-3.6822032928466797,-0.6025514602661133,1.8780975341796875,-0.55767822265625,1.5529918670654297,-3.3241729736328125,1.3848419189453125,0.4913291931152344,3.436494827270508,3.187763214111328,-3.6822032928466797,-0.6025514602661133
5,0.1,0.005456273345750388,0.00481982973449944,0.6989929482090965,0.999976208003999,-0.006855527572844008,0.00019031366087253167,-0.0007409104876677921,-0.01371144151336574,0.0003704596097805808,-0.001484395767942669,0.06386418398158276,0.036440959092890746,-0.09144704173713798,0.054341467712502395,-0.0315782430029606,-0.15234058142627124,0.00010558375062001807,0.006241847041341751,0.35392832525043566,0.6803151452920931,-0.3939426596005793,-0.005425120157812694,0.011483797071777112,0.3698741864135942,0.6677164594965296,-0.188473734225732,0.08913006623589025,0.13224678904293882,0.25404407020835956,1.100156861827821,-4.48572197269694,0.09999242125290735,0.15333744926249487,0.41116857303158183,1.0613002776079639,-3.56029651450101,-0.26097583770751953,-1.811213493347168,-0.11683082580566406,0.7653636932373047,-1.4977970123291016,0.2552518844604492,2.6260223388671875,1.1299114227294922,-1.297250747680664,-1.499612808227539,-0.26097583770751953,-1.811213493347168,-0.11683082580566406,0.7653636932373047,-1.4977970123291016,0.2552518844604492,2.6260223388671875,1.1299114227294922,-1.297250747680664,-1.499612808227539
6,0.12,0.006944986006680401,0.005727893719470716,0.6977359196308748,0.9999660619723028,-0.008027584657446546,0.0009429701825028981,-0.00159486532543465,-0.01605835019351497,0.0018602716000208446,-0.0032047729746700116,0.08364535769812242,0.0517384270397789,-0.044359667855070097,-0.22191568486370022,0.15084307037597394,-0.040699171578194374,-0.001647739931130696,0.006847239883954231,0.35192100214966776,0.6979295497489919,-0.4890038809020312,-0.011465987457090836,0.012469620843136776,0.37100947139745943,0.6792764876837109,-0.23711003220531965,-0.18754043303490772,-0.04092610227221531,-0.31898917036313706,0.7454406769560019,-4.977437911215186,-0.5401017423500735,-0.020781015349003163,-0.13376912400908525,0.28234576483157514,-1.5512699394149838,-0.5704841613769531,0.4855499267578125,-0.10807228088378906,-1.4880409240722656,-0.41654396057128906,-1.4546175003051758,2.1063194274902344,-0.6234569549560547,-4.747348785400391,0.8201532363891602,-0.5704841613769531,0.4855499267578125,-0.10807228088378906,-1.4880409240722656,-0.41654396057128906,-1.4546175003051758,2.1063194274902344,-0.6234569549560547,-4.747348785400391,0.8201532363891602
7,0.14,0.008762981409432513,0.0066734645156790555,0.6963571549557663,0.9999705687206145,-0.007516599602424019,0.001489814838500862,0.00037798774315413083,-0.015032263604256132,0.002985228781582349,0.0007335598881164071,0.09594754131402713,0.04573589969548082,-0.08401286969472027,0.20665535454445694,-0.01844261906713905,0.3881279642590262,-0.004011915257552209,0.008518977852091327,0.35871031746021714,0.7165262252832323,-0.5632087108580763,-0.015415136506411718,0.014529932693886085,0.3769404735785843,0.6920082751771143,-0.27020990141082535,-0.09007449021007219,0.17576953337263546,0.7627840466416975,1.0340436241172777,-2.7059124416994007,0.009269967724393077,0.19143877857757352,0.5323346593013033,0.8490758385850229,-1.735412795583715,-0.18295669555664062,-0.9684009552001953,5.025840759277344,-1.9674358367919922,0.7289676666259766,0.5676107406616211,3.8325767517089844,-0.39382171630859375,-0.6285934448242188,0.06850910186767578,-0.18295669555664062,-0.9684009552001953,5.025840759277344,-1.9674358367919922,0.7289676666259766,0.5676107406616211,3.8325767517089844,-0.39382171630859375,-0.6285934448242188,0.06850910186767578
8,0.16,0.0103449035500329,0.007653741489502626,0.6953541308729285,0.9999841691805524,-0.005621788748553787,-0.00023212617832452686,5.474472541312e-05,-0.011243663028234633,-0.00046362949720078235,0.00011209765847620461,0.06616523344980663,0.05057608488241766,-0.02754629586002972,0.19659150560909283,-0.27893508406656803,-0.35374686221634916,0.0039948828074443865,0.014955412026281712,0.36701858030079126,0.7256346165705061,-0.6010991214821126,-0.01596543532804218,0.02129314165836497,0.3861498999726894,0.705512180459689,-0.32256706325655227,0.6938197370408644,0.42565223006444936,0.21718282971946115,0.09403828620234132,-1.254286137869924,-0.05425255896040209,0.44051362012841777,0.4251867141424263,0.5585032122123033,-3.3199201131184224,2.0649871826171875,-1.0034427642822266,-1.6583175659179688,-3.6915626525878906,0.8445043563842773,-0.00543212890625,2.3457603454589844,4.096412658691406,-4.927494049072266,-1.277043342590332,2.0649871826171875,-1.0034427642822266,-1.6583175659179688,-3.6915626525878906,0.8445043563842773,-0.00543212890625,2.3457603454589844,4.096412658691406,-4.927494049072266,-1.277043342590332
9,0.18,0.011978928227407346,0.008672740626821848,0.6938437427630424,0.9999900052160827,-0.004360342867464201,-0.00015257890290421383,-0.0009765232697627196,-0.008720411533220764,-0.0003136707135141845,-0.0019516977616412755,0.09530755400620457,0.050720313525677255,-0.11201295289149843,0.0813029485055846,0.21691973399512351,0.08303038057770681,0.004128959647109526,0.01662606643548251,0.37475138645594946,0.7436146270813827,-0.6850458073793784,-0.01847540769026695,0.024025952798666154,0.3923476021706431,0.7203017580498429,-0.3985032333327345,-0.3731730935992366,-0.14845020559107341,0.43958923274001127,1.4066862275735375,-6.482704689217003,-0.16439652184976164,-0.08116044572170486,0.24017353024252638,0.8810889538608564,-4.190520983551696,-1.7809858322143555,-2.099665641784668,2.3196182250976562,1.2974624633789062,-2.5595550537109375,-0.35535621643066406,2.168581008911133,-0.9663257598876953,-0.8791923522949219,-0.31192684173583984,-1.7809858322143555,-2.099665641784668,2.3196182250976562,1.2974624633789062,-2.5595550537109375,-0.35535621643066406,2.168581008911133,-0.9663257598876953,-0.8791923522949219,-0.31192684173583984
10,0.2,0.013840767396740353,0.00986799827376709,0.6929631442166511,0.9999831174806637,-0.005489914432065443,0.00032941015812663476,-0.001875388527701953,-0.01098110196803253,0.0006382177919453044,-0.0037543401842193773,0.09045650902665457,0.06652063757759766,0.0029394662427679272,-0.22939580837056064,-0.07397356413977837,-0.23203968843328526,0.006336272516452179,0.018417518957970176,0.37082050091346386,0.7547484168438865,-0.7719120478396763,-0.02444395597633603,0.026346163119362817,0.3890289427301596,0.7274474755360513,-0.47308475855619386,0.35915106191601326,0.22826187072847698,-0.5270349547879559,-0.041473140446371445,-2.8015510621168027,-0.38723005557507806,0.2578830602207589,-0.39988766832564815,0.019654018406663823,-3.3652370228382757,1.4465065002441406,0.6054010391235352,-1.431539535522461,-4.866525650024414,1.5894756317138672,-0.8293752670288086,2.782583236694336,0.3675804138183594,-6.421483993530273,0.07919502258300781,1.4465065002441406,0.6054010391235352,-1.431539535522461,-4.866525650024414,1.5894756317138672,-0.8293752670288086,2.782583236694336,0.3675804138183594,-6.421483993530273,0.07919502258300781
11,0.22,0.01572798317773885,0.010974137113624025,0.6915862106717338,0.9999915729631765,-0.003987656419117048,0.0006685966107626385,-0.0007110397229237572,-0.007976288074602982,0.0013315115821626016,-0.001427401479116731,0.09669530853573985,0.04898494463138134,-0.11700788502092666,0.3678934034998931,0.10200963554582917,0.38025383981714,0.0035094406324630303,0.02060099983240402,0.38007779408770115,0.7716880334247901,-0.8344900835803857,-0.028147098657511263,0.02888790734986022,0.3938442019566764,0.7396913779970475,-0.5436769947994701,-0.4469943549071364,0.037243753815684934,1.0577296207722602,1.4050060430244258,-3.3854458310551365,-0.05176739543583647,0.043071007274500334,0.6025916676555936,0.9805219576512599,-3.662735251415589,-1.7379350662231445,-2.987900733947754,5.9886627197265625,-0.7606201171875,-0.6114444732666016,0.38085174560546875,2.311603546142578,-0.21756744384765625,1.4647941589355469,0.07815933227539062,-1.7379350662231445,-2.987900733947754,5.9886627197265625,-0.7606201171875,-0.6114444732666016,0.38085174560546875,2.311603546142578,-0.21756744384765625,1.4647941589355469,0.07815933227539062
12,0.24,0.017392712097291485,0.012062081469043149,0.6908151002828312,0.9999978876333299,-0.0016799619362684814,-0.0001035410525536914,-0.0011797186195222256,-0.003359678871710698,-0.00021104543399332184,-0.002359086605696709,0.07291799497529469,0.05652528972107566,0.01493041444789025,0.17580599780742895,-0.20004016041578826,-0.36774063540693486,0.01099575265309224,0.025004927868158257,0.38825626923667855,0.7796349663604695,-0.8756091439842296,-0.0313224686130356,0.03354129844579691,0.3973468630419422,0.7473147226946513,-0.6321382785490028,0.8677038267581813,0.34591997167860206,0.04209809163353809,-0.24941461206099136,-0.9989976877431748,-0.23396792030682484,0.3600912735188582,-0.06828657438134086,-0.004584435300613393,-5.036684877750796,2.8721656799316406,-0.2772407531738281,-1.8850860595703125,-5.911930084228516,1.2972908020019531,-0.39531993865966797,1.9556503295898438,2.8960189819335938,-7.55695915222168,-1.228245735168457,2.8721656799316406,-0.2772407531738281,-1.8850860595703125,-5.911930084228516,1.2972908020019531,-0.39531993865966797,1.9556503295898438,2.8960189819335938,-7.55695915222168,-1.228245735168457
13,0.26,0.019058098973138565,0.013103622002074,0.6896921346463284,0.9999976818012034,0.000783701599033025,0.0005829430650109884,-0.001918953205612892,0.0015651639918744524,0.0011688914668350348,-0.003836995843667632,0.09331958665629354,0.04900969251689765,-0.10646178160811359,0.2756932541752013,0.258971762199632,0.15526586403272763,0.009985193673608107,0.024591028125723707,0.39937273516075794,0.7938309059213775,-0.9440844841430229,-0.03456045606009144,0.03477980325188665,0.399789212394185,0.755516990784057,-0.7340913995371581,-0.5296466942843852,-0.22334650293254255,0.8094222345067943,1.4382203808427225,-5.1837708360440224,-0.1107954497544325,-0.14304961395400814,0.2249354894827896,0.6900052182848005,-5.159075690785116,-2.3867502212524414,-3.0730504989624023,3.7709732055664062,1.0341873168945312,-2.1169471740722656,-0.010260581970214844,2.0021419525146484,-0.9408187866210938,0.1565723419189453,0.11912727355957031,-2.3867502212524414,-3.0730504989624023,3.7709732055664062,1.0341873168945312,-2.1169471740722656,-0.010260581970214844,2.0021419525146484,-0.9408187866210938,0.1565723419189453,0.11912727355957031
14,0.28,0.020792933776638337,0.014244004936697242,0.689029314124804,0.9999950272525759,0.0011250656194751096,0.0009677712306639557,-0.002782645560726441,0.00224474023810204,0.0019417953743460056,-0.005563125017292444,0.07918360631090669,0.06219299189936799,0.019999609240481345,-0.11070312076043243,-0.13127441624071196,-0.2768969425273426,0.012955133887650329,0.026268006074151917,0.39909251593691064,0.8015601503250114,-1.015318122380711,-0.03933799519145242,0.03704147300656095,0.3954579147693275,0.7593601941944427,-0.8327473523164998,0.521581680467754,0.2752632600620458,-0.46935108294408956,-0.2648047926263225,-2.3716226309457085,-0.32765105916898296,0.30521988976710235,-0.47729192277102744,-0.13335962937383905,-4.748041485792494,1.9813880920410156,0.2694673538208008,-1.8035163879394531,-6.335063934326172,1.2790489196777344,-0.7082271575927734,2.3772201538085938,0.6335697174072266,-6.613641738891602,-0.11530876159667969,1.9813880920410156,0.2694673538208008,-1.8035163879394531,-6.335063934326172,1.2790489196777344,-0.7082271575927734,2.3772201538085938,0.6335697174072266,-6.613641738891602,-0.11530876159667969
15,0.3,0.022481552366340612,0.015327497209722244,0.6879239874507022,0.9999930120280859,0.0025112630780445744,0.0014689289870316623,-0.002347701083964621,0.005015636694598333,0.002949633111626287,-0.004688029187889158,0.08813597482025655,0.04997271155933888,-0.10683951195449416,0.26985656641658484,0.17282948582554525,0.2829374700911386,0.01004415963408003,0.027741155009279515,0.4057883921150778,0.8148931062243634,-1.0746707025506068,-0.04272834045623172,0.03881640324595982,0.39582938323476846,0.7673963926261284,-0.9219993719263332,-0.5466150193123989,-0.05683445451671901,0.807023929967586,1.2624432316964251,-3.438620631263207,-0.06351663882570815,-0.0564321708670152,0.3016744230081972,0.7435022609803382,-4.242386056189027,-2.064955711364746,-3.2651710510253906,4.825359344482422,-0.3740653991699219,-0.772038459777832,0.2516164779663086,1.8893718719482422,-0.7050609588623047,1.1452274322509766,0.4700193405151367,-2.064955711364746,-3.2651710510253906,4.825359344482422,-0.3740653991699219,-0.772038459777832,0.2516164779663086,1.8893718719482422,-0.7050609588623047,1.1452274322509766,0.4700193405151367
16,0.32,0.02397468982575579,0.016429522566217394,0.687343309419503,0.9999876732242095,0.0035459297138149483,0.0009624418126858245,-0.0033396837953532403,0.007085416241017468,0.001948545698821492,-0.006672521933552967,0.06438218104240923,0.057131716254225,0.024489139817438096,0.022295117618312703,-0.20365776774050975,-0.3825317387611265,0.0154373722326751,0.03126861477209326,0.4090238369987363,0.8203833227646353,-1.1135480292009172,-0.04608292849275964,0.04266216463151976,0.39446649368796677,0.7717565855149316,-1.0120049295458524,0.7604366354933612,0.3342066723785264,-0.2069752523158071,-0.36357170405363015,-0.7500773621581562,-0.24153808720741876,0.35988640731546667,-0.27822592576965377,-0.12525525554950667,-4.705513370353984,2.7173690795898438,-0.23041915893554688,-1.8885746002197266,-6.635318756103516,1.4578666687011719,-0.4181499481201172,1.9344730377197266,2.113372802734375,-7.189313888549805,-0.64361572265625,2.7173690795898438,-0.23041915893554688,-1.8885746002197266,-6.635318756103516,1.4578666687011719,-0.4181499481201172,1.9344730377197266,2.113372802734375,-7.189313888549805,-0.64361572265625
17,0.34,0.025449328565343245,0.017415507163244925,0.6863050620126283,0.999976670343592,0.005404084703866715,0.0016055472485255946,-0.0038570526427908237,0.01079579871157388,0.003252712997388822,-0.007696688997590207,0.0828780297603301,0.04384461566397125,-0.10676430949760286,0.2775361576590719,0.2598804949273011,0.2073660465357363,0.014089772103491573,0.031516392587070265,0.41797019021158477,0.8330151832113319,-1.1633747481166963,-0.04866041985923347,0.04368709300715743,0.3951897561984377,0.7782463710052018,-1.1035587433601712,-0.5183966079852982,-0.17163509443519248,0.7920466402296125,1.3035888271728546,-3.7620585881265036,-0.052853134601946475,-0.16814986298332696,0.21800885335533873,0.6223627057515885,-4.489158091501985,-2.328372001647949,-3.4175214767456055,4.4021148681640625,0.28574371337890625,-1.6644353866577148,0.18610095977783203,1.7196617126464844,-0.9692478179931641,0.5503177642822266,0.33873462677001953,-2.328372001647949,-3.4175214767456055,4.4021148681640625,0.28574371337890625,-1.6644353866577148,0.18610095977783203,1.7196617126464844,-0.9692478179931641,0.5503177642822266,0.33873462677001953
18,0.36,0.026879061559834685,0.018405421503267096,0.6857769904892942,0.9999686234977515,0.0058123740159969,0.0016633137788041915,-0.005118761137620623,0.011607682281775653,0.003386033958402512,-0.010218101839773393,0.06258624492822525,0.05197170298844096,0.02934702366598783,-0.0888674421234465,-0.17199732381596927,-0.374355059823437,0.018475050013922287,0.033636588040705795,0.4181084555479552,0.8383129046789752,-1.211128834548486,-0.05203989023836567,0.04623019863036546,0.3909918952720839,0.7805628762116087,-1.1936152013296055,0.6583888725382023,0.2926077888586477,-0.4433169511001912,-0.3967269106811793,-1.3132053873571272,-0.2513991538835015,0.3301413702676016,-0.45636685446033526,-0.21664199729292405,-4.508960574727099,2.4116783142089844,0.046502113342285156,-2.189861297607422,-6.873371124267578,1.3086223602294922,-0.49379825592041016,2.1491317749023438,1.371194839477539,-7.192102432250977,-0.3326425552368164,2.4116783142089844,0.046502113342285156,-2.189861297607422,-6.873371124267578,1.3086223602294922,-0.49379825592041016,2.1491317749023438,1.371194839477539,-7.192102432250977,-0.3326425552368164
19,0.38,0.02829069399339913,0.019252192715758447,0.6847870989098908,0.9999566281280717,0.007291355780902222,0.002429602626681877,-0.005260705721740242,0.014557207680434097,0.004935729894902483,-0.01048584479553052,0.0770096787863273,0.03651206655168561,-0.10457034881180678,0.2762551200929848,0.2508894616843834,0.25603820333160277,0.015924580527638385,0.033988022895959855,0.42474443309932175,0.8502522942599954,-1.2602671001781272,-0.054664412056515024,0.046907029704203,0.39055448574718404,0.78602014918866,-1.27629288813506,-0.5939564557538709,-0.16425116142883434,0.7764550399490276,1.231103449122874,-3.3519834088880627,-0.04769382758961324,-0.17049285428680533,0.23110591239615824,0.591596400581865,-3.8503813525131685,-2.376577377319336,-3.5277929306030273,4.875205993652344,-0.26479339599609375,-1.2469244003295898,0.22989749908447266,1.6256217956542969,-0.9893531799316406,0.8729019165039062,0.5878686904907227,-2.376577377319336,-3.5277929306030273,4.875205993652344,-0.26479339599609375,-1.2469244003295898,0.22989749908447266,1.6256217956542969,-0.9893531799316406,0.8729019165039062,0.5878686904907227
20,0.4,0.029568493689486667,0.020057675556441137,0.6843281905371597,0.9999443806506202,0.008002422056291756,0.002261449377000218,-0.006487117479803859,0.015975463845217575,0.004626489001838279,-0.012937818589777718,0.053891583905572644,0.04111536217309246,0.03343842479981284,-0.03488820983471601,-0.20098567723366279,-0.4019731978446379,0.020653471923476517,0.03638016310342088,0.425807750843072,0.8544368754118921,-1.2975664766042065,-0.057243911171863095,0.04968446588728617,0.3874362356163148,0.7878260670901034,-1.3569213233836077,0.7354324416156033,0.3111145632659873,-0.36316324511863984,-0.45369017469010564,-0.6803231198707446,-0.1904394612917521,0.34809044829190167,-0.3775596150311702,-0.23932196748025936,-4.167726544639455,2.7076473236083984,-0.16181468963623047,-2.159616470336914,-7.192483901977539,1.4864692687988281,-0.2976980209350586,2.0516223907470703,1.882863998413086,-7.3628997802734375,-0.4827718734741211,2.7076473236083984,-0.16181468963623047,-2.159616470336914,-7.192483901977539,1.4864692687988281,-0.2976980209350586,2.0516223907470703,1.882863998413086,-7.3628997802734375,-0.4827718734741211
21,0.42,0.030806860617496733,0.020692165347965315,0.6833976950129452,0.9999237733871573,0.009696902706269564,0.002996761758694504,-0.007031138745407807,0.019351757114244632,0.006129465569003101,-0.01400380771326465,0.06915134861169318,0.025646355594503126,-0.1026464474932638,0.27909192366492724,0.26732891063553466,0.21184316107125453,0.018535508360491358,0.03611620400194574,0.4330204616076638,0.8651950061736516,-1.340844668292884,-0.05905748138050207,0.050111899804863774,0.3874038559947553,0.7924796375911958,-1.4343971078734177,-0.5803694276765685,-0.20571197311779968,0.7639676576277508,1.2216203517072417,-3.274380813037645,-0.020330683956486337,-0.2040809960235393,0.21447431789445812,0.5432618534469307,-3.656889013327856,-2.4358768463134766,-3.6767139434814453,4.614238739013672,-0.1293487548828125,-1.4764232635498047,0.24299240112304688,1.4970626831054688,-0.9583778381347656,0.7191963195800781,0.5218524932861328,-2.4358768463134766,-3.6767139434814453,4.614238739013672,-0.1293487548828125,-1.4764232635498047,0.24299240112304688,1.4970626831054688,-0.9583778381347656,0.7191963195800781,0.5218524932861328
22,0.44,0.031967317850945205,0.021266891702629746,0.6829796914727218,0.9999090453359739,0.010162616460290912,0.0030400498059290288,-0.008329488529369261,0.020274524909998204,0.006248886061181385,-0.016596758076231746,0.04926838362373432,0.02911842516560666,0.03586719658144968,-0.0787473406961884,-0.17886063496747706,-0.38392402428143285,0.022786436704740176,0.03781906307080841,0.4328592762599677,0.8691502100919071,-1.3779438800511645,-0.06142999827705277,0.05228048039541917,0.3832330032312285,0.7932258589983537,-1.5094766346883923,0.6844362249395742,0.27620937481340163,-0.45131707514397834,-0.4637242406202442,-0.7389465920162422,-0.19039101709107603,0.3211409931889637,-0.45235656270795366,-0.293603889449746,-3.8223137414110115,2.5523948669433594,-0.11146259307861328,-2.1913509368896484,-7.311016082763672,1.4108524322509766,-0.33278560638427734,2.059253692626953,1.5032463073730469,-7.374349594116211,-0.3406047821044922,2.5523948669433594,-0.11146259307861328,-2.1913509368896484,-7.311016082763672,1.4108524322509766,-0.33278560638427734,2.059253692626953,1.5032463073730469,-7.374349594116211,-0.3406047821044922
23,0.46,0.033101101549037344,0.021648723838602772,0.6820841878946508,0.9998873894968228,0.01165765558178605,0.0038705416712467374,-0.008621270134782644,0.023248774949848613,0.007941302679524488,-0.017151737440003062,0.06278205941636368,0.012810115061293662,-0.10138636159331028,0.2722874879603264,0.26795383966290137,0.23663208071634018,0.020445930258033453,0.03754367672631387,0.43894305357120933,0.8796275423388459,-1.4163581804779681,-0.0629919263747208,0.05234421332485327,0.38257971392256174,0.7971804862967605,-1.5777613783339355,-0.5927618000285989,-0.206604377310463,0.7356406801156448,1.156491384928353,-2.847316552857485,0.0004298060357146548,-0.21672332334832906,0.21272542884002135,0.5198616585063106,-3.107411853397826,-2.3991498947143555,-3.732731819152832,4.73406982421875,-0.4102611541748047,-1.2615861892700195,0.30322933197021484,1.4528121948242188,-0.9621925354003906,0.8494224548339844,0.6420011520385742,-2.3991498947143555,-3.732731819152832,4.73406982421875,-0.4102611541748047,-1.2615861892700195,0.30322933197021484,1.4528121948242188,-0.9621925354003906,0.8494224548339844,0.6420011520385742
24,0.48,0.034115634326002287,0.021945421254997075,0.68171885139681,0.9998696347086017,0.012094293076087675,0.003845741153729879,-0.009982581712959447,0.02411174665727135,0.007932027319287199,-0.019871470469612604,0.041497966309082,0.014245775453635314,0.03928635512533517,-0.07727256195183715,-0.18970256327743026,-0.4116080061700868,0.025031791427004513,0.03915760127583697,0.4385965181650898,0.8826522667888843,-1.4446318189996161,-0.06470157685716965,0.05446079769043482,0.3786890128155286,0.797491121451762,-1.6424292083038945,0.7244519760878856,0.2740365954922225,-0.4536581163728094,-0.5026291431446339,-0.26811335773667283,-0.1498661933919689,0.3240560627893968,-0.4287902528122634,-0.3161162718589706,-3.3210728254948605,2.6907196044921875,-0.22754287719726562,-2.3315486907958984,-7.469207763671875,1.4973564147949219,-0.2245502471923828,2.013620376586914,1.7794628143310547,-7.512502670288086,-0.3535585403442383,2.6907196044921875,-0.22754287719726562,-2.3315486907958984,-7.469207763671875,1.4973564147949219,-0.2245502471923828,2.013620376586914,1.7794628143310547,-7.512502670288086,-0.3535585403442383
25,0.5,0.035096547259950546,0.022022910569097335,0.6808730099826782,0.9998420642114355,0.013559311614509337,0.004672053933701966,-0.010495885574688653,0.027020805588565913,0.009627414786909457,-0.020864236696811894,0.05576083511924966,-0.0029432906028616862,-0.09981477243527109,0.26831622318783865,0.27606984173325094,0.22293043679157443,0.022977304896221604,0.03842830517061258,0.4445839479522299,0.8923286983593419,-1.4761133725707745,-0.0655883328456569,0.054310295381266784,0.3781078346997169,0.8009045965188816,-1.7017520316010462,-0.579064930191442,-0.22862117700817908,0.7230543381178685,1.1386616493536659,-2.5659366258354366,0.029434268713898017,-0.23775243481564184,0.20292713534422252,0.49004589667453957,-2.7030655210744965,-2.4292869567871094,-3.796924591064453,4.731170654296875,-0.4286174774169922,-1.3446855545043945,0.34389305114746094,1.4046592712402344,-1.0052452087402344,0.8036613464355469,0.6146068572998047,-2.4292869567871094,-3.796924591064453,4.731170654296875,-0.4286174774169922,-1.3446855545043945,0.34389305114746094,1.4046592712402344,-1.0052452087402344,0.8036613464355469,0.6146068572998047
26,0.52,0.03598656670622301,0.02198218525267523,0.6805483261592931,0.999821213166691,0.013894429635103692,0.004740319786427046,-0.011917042222141376,0.02767577430188753,0.009810262926473454,-0.02370145457905068,0.03573218616931111,-0.003444553639412021,0.041948983698872136,-0.09212704750691324,-0.18151592539107367,-0.4129524069643131,0.027572637978824626,0.03961429803207022,0.4436020671137434,0.894913082111597,-1.4996078355203692,-0.06697307062184835,0.05607878665131941,0.3739354073477898,0.8005597025683365,-1.7573610013642613,0.7158052840322189,0.25318819432488077,-0.49571453785587427,-0.5227373330715716,-0.06850619462280982,-0.14091672028304567,0.31061506695768365,-0.4459514107597331,-0.3514782555570072,-2.827458882701948,2.6506290435791016,-0.22967147827148438,-2.3869552612304688,-7.597372055053711,1.4749984741210938,-0.2214345932006836,2.0078811645507812,1.7322998046875,-7.592845916748047,-0.2702674865722656,2.6506290435791016,-0.22967147827148438,-2.3869552612304688,-7.597372055053711,1.4749984741210938,-0.2214345932006836,2.0078811645507812,1.7322998046875,-7.592845916748047,-0.2702674865722656
27,0.54,0.036847403073023734,0.0217028054641992,0.679741471455154,0.999791024444646,0.015250678299849435,0.005591088076355475,-0.012412251425252919,0.030362879599334886,0.011558687236144744,-0.02465292316331059,0.049364563121588885,-0.0208328625431006,-0.09807419443200169,0.2576064995959628,0.2728462044588062,0.2264518756573098,0.02560240472405991,0.03864544335877297,0.4489830693371864,0.9039823460011789,-1.5247824017075182,-0.06740683232136313,0.05572448971502899,0.37316699868719394,0.8035118168482754,-1.806516849777181,-0.5697056515613547,-0.23439562905185196,0.7035605975945748,1.1068416261885505,-2.166187951604738,0.06011809208791211,-0.24391569134364474,0.19628788546801945,0.4740856001140539,-2.1831794607801043,-2.3924331665039062,-3.8235912322998047,4.7683258056640625,-0.5527935028076172,-1.2450370788574219,0.4149503707885742,1.407003402709961,-1.0453529357910156,0.8654098510742188,0.6494884490966797,-2.3924331665039062,-3.8235912322998047,4.7683258056640625,-0.5527935028076172,-1.2450370788574219,0.4149503707885742,1.407003402709961,-1.0453529357910156,0.8654098510742188,0.6494884490966797
28,0.56,0.03761252703876952,0.021281886319539367,0.6794596420380159,0.9997675117276374,0.015493074264073895,0.005650279505095213,-0.013891057745609786,0.030828971170629237,0.011728631039369318,-0.027605980803357515,0.029560791993910342,-0.023307517214624117,0.044544250290300555,-0.10050391544865009,-0.18174302792088443,-0.42609719601417434,0.030407452743558112,0.03963559345998602,0.44758398145900724,0.9060070925683886,-1.54048532139781,-0.068301155488836,0.05738147733926901,0.3690614918249382,0.802804716698803,-1.850879399873611,0.7273093426229855,0.24110462312319833,-0.5179147932079912,-0.5467136958241106,0.31391916096710837,-0.11957350689545529,0.3060031268277254,-0.43632001375828816,-0.37166356013775353,-2.2291342354511072,2.6742630004882812,-0.28807640075683594,-2.476003646850586,-7.7049713134765625,1.5017528533935547,-0.1818561553955078,1.9761524200439453,1.8484134674072266,-7.676856994628906,-0.20691394805908203,2.6742630004882812,-0.28807640075683594,-2.476003646850586,-7.7049713134765625,1.5017528533935547,-0.1818561553955078,1.9761524200439453,1.8484134674072266,-7.676856994628906,-0.20691394805908203
29,0.58,0.0383513754350543,0.0206000551818047,0.6786877279771683,0.9997338259294773,0.01677028866403587,0.00648598230617236,-0.014455682068320447,0.03335333264955221,0.013453769594454832,-0.028692658235261674,0.043369861828983045,-0.04123323778109638,-0.09708963932642621,0.25035206417332745,0.27085775976128695,0.2245864769014494,0.02878764792927174,0.03849120076027864,0.4526137301519211,0.9145269217186157,-1.5574591474244845,-0.06812328265396443,0.056920462960110066,0.36833574285716636,0.805473550023598,-1.889138230331289,-0.5482765125961011,-0.24100875918197776,0.689052361983775,1.0764487739099051,-1.7329661495520294,0.09570152376108043,-0.25038944108555844,0.1932120378673406,0.4646634034675353,-1.6819702869209627,-2.357698440551758,-3.8387746810913086,4.804698944091797,-0.618316650390625,-1.2163982391357422,0.4883842468261719,1.4212970733642578,-1.094991683959961,0.8959693908691406,0.6249780654907227,-2.357698440551758,-3.8387746810913086,4.804698944091797,-0.618316650390625,-1.2163982391357422,0.4883842468261719,1.4212970733642578,-1.094991683959961,0.8959693908691406,0.6249780654907227
30,0.6,0.03900299262757274,0.01975066276706149,0.6784361900651318,0.9997071034822786,0.01691943217035441,0.006567523758765675,-0.016009612543191033,0.033628146689819054,0.013673373475787329,-0.03179593822442785,0.024156192379236028,-0.04553617421921319,0.046507652911014864,-0.11083835517204133,-0.17706132715753062,-0.4384281815074055,0.03381976671183726,0.039232448146095,0.4507633529186478,0.9161318043273551,-1.5655633237473952,-0.06861294451694001,0.05843179381015562,0.36427366055191246,0.8044781785328671,-1.922174194631748,0.7330335447838453,0.22446755953226064,-0.5470390920662589,-0.5624746249832682,0.6522518613520794,-0.10796647250410896,0.29817749057275894,-0.4297783428988763,-0.3896522516748679,-1.6096758975794785,2.665670394897461,-0.3197050094604492,-2.576122283935547,-7.769933700561523,1.4880237579345703,-0.17464923858642578,1.945709228515625,1.9337444305419922,-7.765893936157227,-0.12238121032714844,2.665670394897461,-0.3197050094604492,-2.576122283935547,-7.769933700561523,1.4880237579345703,-0.17464923858642578,1.945709228515625,1.9337444305419922,-7.765893936157227,-0.12238121032714844
31,0.62,0.03963701834602288,0.01861978375257713,0.6776905905254718,0.999670669377095,0.018102380704546357,0.007402295133277551,-0.016615132462251696,0.03595887075722411,0.015401870493471349,-0.03296119962873966,0.038238845600866544,-0.06390018973072203,-0.09630273169845198,0.24127676757002964,0.26726315274628293,0.22695747732785992,0.032531121662547936,0.03791803893974502,0.4553664479000591,0.9242073968261295,-1.5745011744326811,-0.06788612096282676,0.057879520756225496,0.3635489351474482,0.8069316846278614,-1.949036960186205,-0.5255250280966443,-0.24399535516495174,0.6738118639568265,1.050260042289436,-1.2811343618820694,0.13203245776969327,-0.2528382588786456,0.1880771529197902,0.4589830730138634,-1.1524008090735705,-2.3124771118164062,-3.8274459838867188,4.8683929443359375,-0.6902351379394531,-1.1601018905639648,0.5714550018310547,1.4686298370361328,-1.172128677368164,0.9360275268554688,0.6070680618286133,-2.3124771118164062,-3.8274459838867188,4.8683929443359375,-0.6902351379394531,-1.1601018905639648,0.5714550018310547,1.4686298370361328,-1.172128677368164,0.9360275268554688,0.6070680618286133
32,0.64,0.04018974195376356,0.017296710674883968,0.6774599494210716,0.9996405486582589,0.018168857188133918,0.0074934887961805195,-0.018234959071890947,0.036063595024725836,0.015644845438258382,-0.036196845197675825,0.019384589258376213,-0.07000640475573329,0.04783650920680173,-0.11845367514543209,-0.173397713737115,-0.45224978241740205,0.037822947918292556,0.038462280659332465,0.4531209147689356,0.9254731856104932,-1.5744809844151482,-0.0679507227343838,0.05930619887470398,0.35962821946451806,0.8057883649560977,-1.97002196735401,0.7404959624351507,0.20987516869817552,-0.5711657293159329,-0.573712965828711,1.0227592109129648,-0.09502868654932277,0.2928953432024496,-0.41410965063374244,-0.3986769679683173,-0.9477128616388288,2.659585952758789,-0.3588600158691406,-2.6755409240722656,-7.816282272338867,1.4822101593017578,-0.16457366943359375,1.9143600463867188,2.055389404296875,-7.835254669189453,-0.03403472900390625,2.659585952758789,-0.3588600158691406,-2.6755409240722656,-7.816282272338867,1.4822101593017578,-0.16457366943359375,1.9143600463867188,2.055389404296875,-7.835254669189453,-0.03403472900390625
33,0.66,0.040731848827010544,0.015672136981125885,0.6767283912119194,0.9996011427224343,0.019276163215298726,0.00831049197970617,-0.01889234561284804,0.03823800719144439,0.017343567910015137,-0.037463627683309235,0.033763938072549585,-0.08880610789221484,-0.09615318918226864,0.23384513354634728,0.2615102552925326,0.22854447120102742,0.036924204343368926,0.037040021962382354,0.4573753037575256,0.9332038685525785,-1.5748772278598318,-0.06664787540137321,0.05873280063333519,0.3590201307429173,0.808185558353837,-1.9850605121757998,-0.4989484477913001,-0.2431839078126713,0.661724516795654,1.0289596736477726,-0.8089383316139114,0.16966061813904362,-0.2511871892597759,0.18655952219470634,0.4607587905255834,-0.6180932193553969,-2.261643409729004,-3.806403160095215,4.935855865478516,-0.7496337890625,-1.1087837219238281,0.6569995880126953,1.5287094116210938,-1.2470817565917969,0.9808616638183594,0.5705881118774414,-2.261643409729004,-3.806403160095215,4.935855865478516,-0.7496337890625,-1.1087837219238281,0.6569995880126953,1.5287094116210938,-1.2470817565917969,0.9808616638183594,0.5705881118774414
34,0.68,0.04120125706853892,0.013831527141173298,0.6765009205886265,0.9995672397880189,0.019274182262001227,0.008417838618019832,-0.020566454086516653,0.03820065222876304,0.017622106637233702,-0.04080827342237135,0.015498115402765059,-0.09663344917254028,0.04809425462882549,-0.12490610730718962,-0.16702691569247843,-0.4635147058202863,0.04246316801914868,0.037397340181121605,0.4548124649583897,0.9342961823524352,-1.5665405020911887,-0.06632737415866838,0.060095257276669395,0.3552990924440982,0.8070401146241617,-1.993769724899887,0.7446502045467888,0.19349324569421383,-0.5911255582106368,-0.5743936500259017,1.3941319400278718,-0.08600394087720564,0.2864809989279323,-0.3958368258350415,-0.4003227021409128,-0.2697391811100981,2.639524459838867,-0.39525604248046875,-2.758817672729492,-7.824398040771484,1.4654674530029297,-0.16770553588867188,1.8777618408203125,2.1635169982910156,-7.887693405151367,0.060812950134277344,2.639524459838867,-0.39525604248046875,-2.758817672729492,-7.824398040771484,1.4654674530029297,-0.16770553588867188,1.8777618408203125,2.1635169982910156,-7.887693405151367,0.060812950134277344
35,0.7,0.041668057509442226,0.011670610902285182,0.675766144195773,0.9995252119620647,0.02031385884870164,0.009217189441327928,-0.021254204517392246,0.04023495874840463,0.019290332635401752,-0.04213405552372631,0.030000448832614768,-0.1158009301747834,-0.09662718622733538,0.226599236512144,0.2532680283966126,0.2316398158327555,0.041963890793824066,0.03590389480855742,0.4587757533372115,0.941828919858643,-1.558119746254238,-0.0644793855790911,0.059538470439883986,0.3548499559436587,0.8095266358076719,-1.9967622239184397,-0.4703097368650546,-0.23809648204780673,0.6527095048966236,1.0144641793619427,-0.31493998078027663,0.2071562999005053,-0.2449321160652546,0.1863638470501497,0.4694461772735611,-0.07616124735814642,-2.2022781372070312,-3.773435592651367,5.009342193603516,-0.8156661987304688,-1.04669189453125,0.7457313537597656,1.6050682067871094,-1.321187973022461,1.0342884063720703,0.5296878814697266,-2.2022781372070312,-3.773435592651367,5.009342193603516,-0.8156661987304688,-1.04669189453125,0.7457313537597656,1.6050682067871094,-1.321187973022461,1.0342884063720703,0.5296878814697266
36,0.72,0.04206854932455125,0.009271604919068404,0.6755227660580261,0.9994875674660901,0.020248257245598877,0.009331806521628678,-0.02296797653859029,0.04006549766119975,0.0195854242964944,-0.04555900193697046,0.01233549005304898,-0.12526059511094945,0.04718043750337628,-0.13090299787985882,-0.16045384354105444,-0.47335244133016874,0.04774333309291161,0.03611563897219835,0.45597593328756214,0.942902221795598,-1.5410309742048318,-0.06379393266044592,0.060889515742607356,0.3513815810738693,0.8085596264057718,-1.993029163838216,0.7469969960224956,0.17781561985070637,-0.6063978666265539,-0.565825227470988,1.7869486511275712,-0.07847217592065309,0.28149522088320766,-0.37422134357990317,-0.3914946219267158,0.4169383478236534,2.612253189086914,-0.4368762969970703,-2.832315444946289,-7.804586410522461,1.4485359191894531,-0.17600154876708984,1.838674545288086,2.2713699340820312,-7.912820816040039,0.15579700469970703,2.612253189086914,-0.4368762969970703,-2.832315444946289,-7.804586410522461,1.4485359191894531,-0.17600154876708984,1.838674545288086,2.2713699340820312,-7.912820816040039,0.15579700469970703
37,0.74,0.04247452857523502,0.006533638138746253,0.6747625239257227,0.9994431045163635,0.021233804704926168,0.01011116255111511,-0.023672151662059004,0.04198703711091279,0.021217955095170833,-0.04691630688684234,0.026679008060228816,-0.14472857051029675,-0.09767551326275538,0.21890123701473654,0.24172532627360988,0.23446900373766139,0.04764928454845743,0.03458858983273423,0.45972319737927814,0.9503438155116071,-1.5233018377075926,-0.061442518609205944,0.0603875462522188,0.35116586782399967,0.8113204484912527,-1.9838701147886941,-0.4419945484300505,-0.2298168158186082,0.6517939895389961,1.018144175513092,0.19683733508858722,0.24261380738052588,-0.2335442159718495,0.1880081876241438,0.4863742025891361,0.46868229866967664,-2.1387739181518555,-3.734121322631836,5.089817047119141,-0.882354736328125,-0.9828681945800781,0.8306751251220703,1.686126708984375,-1.3866939544677734,1.0937118530273438,0.48497962951660156,-2.1387739181518555,-3.734121322631836,5.089817047119141,-0.882354736328125,-0.9828681945800781,0.8306751251220703,1.686126708984375,-1.3866939544677734,1.0937118530273438,0.48497962951660156
38,0.76,0.042817687470984585,0.003536732357470342,0.674483080928695,0.9994021108435625,0.0211137540954069,0.01022044043505002,-0.025400252493711476,0.041704784138390245,0.021502905888545414,-0.05037148651668009,0.009812935821939836,-0.15587202745341228,0.045028258775721516,-0.13545525541906298,-0.15385384932745289,-0.47873290878780694,0.05363429152868237,0.03469829914578693,0.4568260463916676,0.9516259413740492,-1.4970157821259382,-0.060445416337642895,0.06178250535968844,0.3479895761277798,0.810709600867112,-1.9677206065008923,0.7459858912461452,0.16292149386233096,-0.6144339015301944,-0.5476230363986576,2.203685437007163,-0.07393785224425879,0.27783060763997347,-0.35062198910639253,-0.37273629935758607,1.0982306158760688,2.5734615325927734,-0.4832754135131836,-2.873950958251953,-7.772754669189453,1.4301872253417969,-0.19130897521972656,1.8010139465332031,2.3613243103027344,-7.909526824951172,0.24791336059570312,2.5734615325927734,-0.4832754135131836,-2.873950958251953,-7.772754669189453,1.4301872253417969,-0.19130897521972656,1.8010139465332031,2.3613243103027344,-7.909526824951172,0.24791336059570312
39,0.78,0.043175879950455714,0.00018090175101791156,0.673676693879137,0.9993562912412294,0.02206185947901181,0.01096585912130123,-0.026077335880714803,0.043548743991210885,0.023070276066795698,-0.05167398312655375,0.0243721941495407,-0.17592960882105232,-0.10089981311711801,0.21880625688007,0.23467459049181405,0.24172427358864865,0.05407450771892264,0.03333715080850757,0.4603858141670141,0.9593336565389669,-1.4690900459118197,-0.057655955190645855,0.06139318023304712,0.34804328041003385,0.8139071079315008,-1.9464522765768295,-0.4095919836703522,-0.22097931267017779,0.6420127503941722,0.9865349549133963,0.763398084148929,0.274128989100185,-0.2256357015520748,0.19866968837382373,0.5129081620879645,1.0122210471291475,-2.066927909851074,-3.692366600036621,5.1605987548828125,-0.9510459899902344,-0.9131555557250977,0.9113912582397461,1.7677478790283203,-1.4333419799804688,1.16253662109375,0.4401683807373047,-2.066927909851074,-3.692366600036621,5.1605987548828125,-0.9510459899902344,-0.9131555557250977,0.9113912582397461,1.7677478790283203,-1.4333419799804688,1.16253662109375,0.4401683807373047
40,0.8,0.0434733167778236,-0.0034498437862163236,0.6733293448419538,0.9993115968512353,0.021865871793732436,0.011085086465870643,-0.027844872191832945,0.043109437098937387,0.023374744244595173,-0.055209754956168214,0.007836269832690278,-0.18806220776307309,0.04118328480830981,-0.14677973255971713,-0.14555608151422514,-0.4905131129106863,0.060318812615619784,0.03331854596779784,0.4573177296580029,0.9608673038926078,-1.433261011295454,-0.05636692592514851,0.0628328889025041,0.3452042261079625,0.8139020192430197,-1.9178269123625347,0.7500702441586544,0.14587903092656698,-0.6284635124639468,-0.5167953778290646,2.61944120177271,-0.06907360564669504,0.2743416623421452,-0.32752189233269513,-0.33969548417238227,1.7862439437490514,2.5521888732910156,-0.5348997116088867,-2.969280242919922,-7.673986434936523,1.4022693634033203,-0.20691680908203125,1.7525157928466797,2.4580001831054688,-7.881275177001953,0.34211254119873047,2.5521888732910156,-0.5348997116088867,-2.969280242919922,-7.673986434936523,1.4022693634033203,-0.20691680908203125,1.7525157928466797,2.4580001831054688,-7.881275177001953,0.34211254119873047
41,0.82,0.04379329116227727,-0.007457843580951875,0.6724530900139749,0.9992641815591908,0.022735521595712484,0.011814399219541622,-0.028541399434747056,0.044792055765052255,0.024911795759922317,-0.05655125818771927,0.022384808185892467,-0.20887801444295231,-0.10413035203000923,0.2133292010990091,0.22480756812193656,0.24674112385873528,0.06116845041094263,0.03193523400017973,0.46072930736363094,0.9688792446430626,-1.3956075411758144,-0.05318698224803626,0.06255792022636252,0.3455139269999735,0.8177039433227586,-1.8842525667958598,-0.3804253921869595,-0.21129655912993345,0.641483402887596,0.99292723139786,1.302674928919478,0.30193789624351486,-0.2129124805690415,0.20351629040121927,0.5412856426753153,1.5697474547058161,-2.015030860900879,-3.6353092193603516,5.269031524658203,-1.0369415283203125,-0.8518486022949219,0.9835195541381836,1.8516960144042969,-1.4901142120361328,1.2028846740722656,0.3999300003051758,-2.015030860900879,-3.6353092193603516,5.269031524658203,-1.0369415283203125,-0.8518486022949219,0.9835195541381836,1.8516960144042969,-1.4901142120361328,1.2028846740722656,0.3999300003051758
42,0.84,0.04405640716522904,-0.011764306389275373,0.6720156219459773,0.9992166337849595,0.02249706957776555,0.01192921590165259,-0.030293471835371517,0.04426464681782095,0.025205439411868296,-0.060057900257580024,0.006371586599418954,-0.22248626383688436,0.035872400473310584,-0.15084528342527287,-0.1395713215625304,-0.49177998573115234,0.06760380273205781,0.03183013259506906,0.4576808601556399,0.970931416304514,-1.3501748852617397,-0.0516610636699039,0.06409064908908971,0.34306342090287517,0.8184647150211223,-1.8432805270640304,0.748097007890923,0.1321978656045387,-0.6281115533470945,-0.4769438811228619,3.0524678721538687,-0.0660795130901186,0.2738606894141523,-0.29862504044752086,-0.294999783209668,2.4514516026520097,2.5092601776123047,-0.5941133499145508,-2.970266342163086,-7.614326477050781,1.3807868957519531,-0.22318458557128906,1.7189197540283203,2.526348114013672,-7.79631233215332,0.42214202880859375,2.5092601776123047,-0.5941133499145508,-2.970266342163086,-7.614326477050781,1.3807868957519531,-0.22318458557128906,1.7189197540283203,2.526348114013672,-7.79631233215332,0.42214202880859375
43,0.86,0.044342209007550176,-0.016464722498578884,0.671044770800233,0.9991683482401148,0.023319421561362342,0.012603063159375885,-0.030983531951126183,0.04585140064246809,0.026633348235893833,-0.06138804345124662,0.02036693901462833,-0.2436824320510104,-0.10847123125087019,0.208378491126828,0.21024592143130016,0.24848774232357052,0.06886405021312454,0.030511437654497903,0.4610705187976505,0.9793581144682058,-1.3022425490939742,-0.04814803000910668,0.0640265790489674,0.34372799034870505,0.823101082052852,-1.7976649529313733,-0.34754699809282286,-0.19683587500039573,0.6419939958462273,1.0022556851358966,1.8778066341601511,0.32630786114712246,-0.19423335115610982,0.21305739459888592,0.5812406026079173,2.121888611111473,-1.9450645446777344,-3.5876760482788086,5.318347930908203,-1.1168594360351562,-0.7734203338623047,1.0485820770263672,1.9229717254638672,-1.4993839263916016,1.2551517486572266,0.36197853088378906,-1.9450645446777344,-3.5876760482788086,5.318347930908203,-1.1168594360351562,-0.7734203338623047,1.0485820770263672,1.9229717254638672,-1.4993839263916016,1.2551517486572266,0.36197853088378906
44,0.88,0.044573804498518915,-0.021480951810250358,0.6704881777927926,0.9991193394690705,0.023003514588708453,0.012703029726726014,-0.032711112044971125,0.04516713320942534,0.02689186755208924,-0.06484905448858039,0.005188391382872366,-0.25850190016794017,0.02883452030274781,-0.16120720978225306,-0.13209270032902265,-0.48900454927824566,0.07545411130520409,0.030331832537297456,0.45805922422905054,0.9821107918300462,-1.2465783897707219,-0.046438977414005704,0.06569635849094219,0.34165128174809206,0.8248697221080543,-1.7443263192790057,0.7412252346907341,0.11603137453198312,-0.6274063859900287,-0.4241886859835445,3.5143215789002085,-0.06546077811721948,0.2727837392010638,-0.27374246742868946,-0.23733118823297764,3.122380507906271,2.4510231018066406,-0.6621332168579102,-2.9538421630859375,-7.520755767822266,1.3556232452392578,-0.24714946746826172,1.6731986999511719,2.5447921752929688,-7.670215606689453,0.512364387512207,2.4510231018066406,-0.6621332168579102,-2.9538421630859375,-7.520755767822266,1.3556232452392578,-0.24714946746826172,1.6731986999511719,2.5447921752929688,-7.670215606689453,0.512364387512207
45,0.9,0.04482757795056449,-0.026907695229382984,0.6693994702383453,0.9990723285391673,0.023737116673641742,0.013316602082920992,-0.03337214030167677,0.04657673192367075,0.028196550186337908,-0.06612461088916664,0.01834266707483939,-0.28026808222802413,-0.11360578350454598,0.20103277370108588,0.19379111674702743,0.2512722281176383,0.07711543311074447,0.02906814334220434,0.461442746512203,0.99109298725548,-1.1875106336470806,-0.04265995221945849,0.06587005644080204,0.34261658617763613,0.8305150995382383,-1.6864565701962246,-0.31226953945684466,-0.18122048871628732,0.6436104653301498,1.0142243041480776,2.5077775467639847,0.3467876345069306,-0.17309322411722725,0.22091433479360145,0.6270249488270571,2.6887220944152683,-1.8662042617797852,-3.5324935913085938,5.372886657714844,-1.2337493896484375,-0.680811882019043,1.10821533203125,1.9871196746826172,-1.4937114715576172,1.2932853698730469,0.3263225555419922,-1.8662042617797852,-3.5324935913085938,5.372886657714844,-1.2337493896484375,-0.680811882019043,1.10821533203125,1.9871196746826172,-1.4937114715576172,1.2932853698730469,0.3263225555419922
46,0.92,0.045025141047538804,-0.03267111664024418,0.6686965308956044,0.9990226130356242,0.0233593510546878,0.013384486030130314,-0.035057308731393955,0.04576899940406263,0.02838445167619817,-0.06950470553754977,0.0037989316904378477,-0.2964538631123569,0.02002960155737982,-0.16743261884347915,-0.125925527754995,-0.4835830931284152,0.08388111375867542,0.028828570883725722,0.458650471143906,0.9947176419912046,-1.1206357152269086,-0.04078694505115608,0.06771132777147487,0.34100521401032996,0.8335185653232536,-1.6206721916488804,0.7346234220712622,0.10022611579292334,-0.6129811672904512,-0.35961210607085514,4.0210536204605365,-0.06399851246477144,0.2727779537601573,-0.24054187385227238,-0.16481784761664092,3.788299510309406,2.386810302734375,-0.7488851547241211,-2.8906383514404297,-7.422046661376953,1.3254127502441406,-0.2642936706542969,1.6221275329589844,2.5775527954101562,-7.503931045532227,0.5923404693603516,2.386810302734375,-0.7488851547241211,-2.8906383514404297,-7.422046661376953,1.3254127502441406,-0.2642936706542969,1.6221275329589844,2.5775527954101562,-7.503931045532227,0.5923404693603516
47,0.94,0.04524175648198979,-0.03886253952690227,0.667468592133246,0.9989772845422257,0.024001492393046473,0.013926490863969868,-0.03569826583691473,0.046997386829512156,0.029542416389472467,-0.0707448398997651,0.016029540415310017,-0.31877989372674226,-0.11937179990669322,0.1911585062172724,0.17631089862018,0.2504338376092965,0.08597074058252151,0.02761281340716802,0.46207191176564344,1.0043562117260174,-1.0497382436954175,-0.03679480461846356,0.0681481852201908,0.34227472937059783,0.840311197708732,-1.550595513209918,-0.2747428051629831,-0.1664207044495292,0.6402655283011363,1.0268589087121809,3.1646767837460703,0.362419706850983,-0.1506589263948292,0.2244159112338276,0.674827711012095,3.255556618462557,-1.7822227478027344,-3.477720260620117,5.380943298339844,-1.3628864288330078,-0.592137336730957,1.1558723449707031,2.0455799102783203,-1.4749870300292969,1.2931365966796875,0.29054737091064453,-1.7822227478027344,-3.477720260620117,5.380943298339844,-1.3628864288330078,-0.592137336730957,1.1558723449707031,2.0455799102783203,-1.4749870300292969,1.2931365966796875,0.29054737091064453
48,0.96,0.045400832267092545,-0.045412649338290055,0.6665909197824501,0.9989279484369723,0.023565846235429292,0.013968332291140908,-0.03731608789400543,0.046075249859538814,0.0296698382809203,-0.07399385340004284,0.0022415956276826453,-0.3364088101844309,0.009251551945921305,-0.17169215231051468,-0.11784980998338995,-0.4709084116235526,0.09285139327333763,0.027266691600911896,0.4595747742877564,1.0090283791818342,-0.9713225545660432,-0.03480528292192942,0.07014100892106999,0.34112625686608444,0.8447084037853552,-1.4724031629859273,0.7217755278782186,0.08096356341167495,-0.5895169916055066,-0.2812194221474091,4.536072383079232,-0.06338510337203337,0.2701007162233932,-0.2051229326306218,-0.08047721027647856,4.450335424429169,2.299234390258789,-0.8496570587158203,-2.760293960571289,-7.308322906494141,1.2810001373291016,-0.280487060546875,1.5671749114990234,2.5763626098632812,-7.283660888671875,0.6749763488769531,2.299234390258789,-0.8496570587158203,-2.760293960571289,-7.308322906494141,1.2810001373291016,-0.280487060546875,1.5671749114990234,2.5763626098632812,-7.283660888671875,0.6749763488769531
49,0.98,0.045572691974314704,-0.05240764949542449,0.6652012363600687,0.9988858706281531,0.024101560941587583,0.014431674820595155,-0.037919111032400366,0.04709448211665541,0.03066381681658028,-0.07516413308532463,0.01314396532503588,-0.3591847681579749,-0.1256266802394148,0.1774739158453904,0.15598152974964333,0.24708401667663266,0.09535236921148992,0.026071124512396075,0.4630173218428617,1.019409604393538,-0.8881406639369875,-0.030648212409653985,0.07084709786006554,0.342679238980758,0.8527856704756628,-1.3898592119108817,-0.2352041954391354,-0.1515242257371863,0.6307543264041284,1.0383989099582625,3.853847600707923,0.37467655732068317,-0.12563012813143645,0.2250370694442378,0.72619170225845,3.8493165455798093,-1.6837396621704102,-3.4197826385498047,5.343212127685547,-1.5311336517333984,-0.4852333068847656,1.1961593627929688,2.0984764099121094,-1.4350528717041016,1.2675971984863281,0.26727867126464844,-1.6837396621704102,-3.4197826385498047,5.343212127685547,-1.5311336517333984,-0.4852333068847656,1.1961593627929688,2.0984764099121094,-1.4350528717041016,1.2675971984863281,0.26727867126464844
50,1.0,0.04568129379244699,-0.05978494814446356,0.664122820452255,0.9988387966201098,0.02361766548441344,0.014433385511871816,-0.039432748144440366,0.046080197616388846,0.030700692247395474,-0.07820867242204221,3.436039488631049e-05,-0.3784682415054154,-0.003372484453257267,-0.17214408288418395,-0.11021315548851415,-0.44985738442191686,0.10229543274733442,0.025598587225734135,0.4609108600560292,1.025248664615935,-0.797560824136414,-0.028550898173645083,0.07299558061374332,0.34202093067454425,0.8587485497588576,-1.299076250162547,0.7032256970895874,0.060062236182472147,-0.5541137064407743,-0.19204612617588498,5.080182271422055,-0.061382683998717144,0.26614568403968125,-0.16632695832053182,0.015651260812761435,5.1070876168678705,2.1890411376953125,-0.9724941253662109,-2.552457809448242,-7.199024200439453,1.2292804718017578,-0.28987693786621094,1.5078907012939453,2.5511436462402344,-7.010860443115234,0.7450571060180664,2.1890411376953125,-0.9724941253662109,-2.552457809448242,-7.199024200439453,1.2292804718017578,-0.28987693786621094,1.5078907012939453,2.5511436462402344,-7.010860443115234,0.7450571060180664
51,1.02,0.04579097909227202,-0.06762484857240672,0.6625519926532272,0.9988015102320885,0.02405295423145713,0.014798470433368384,-0.03997504000836946,0.04690555833803255,0.031489708801818624,-0.07926459741462293,0.009213648637109308,-0.40163792344037585,-0.13222566280407472,0.16252071880685243,0.132721727424119,0.24139072435192277,0.10520576620164468,0.024399766620938217,0.4644193911117061,1.0364175631433952,-0.7013827362745152,-0.024301475272890463,0.07398199253448247,0.3438691829721066,0.8682264030539628,-1.2038028212911789,-0.19243530250128416,-0.13756878074114837,0.6175752784489585,1.0467860473430242,4.583439869096851,0.38032966891794356,-0.09873654070919405,0.22494760582794782,0.7794371249687212,4.471136334958012,-1.5692815780639648,-3.361720085144043,5.258567810058594,-1.7412872314453125,-0.36509132385253906,1.2194747924804688,2.1347618103027344,-1.3626155853271484,1.2064437866210938,0.25701332092285156,-1.5692815780639648,-3.361720085144043,5.258567810058594,-1.7412872314453125,-0.36509132385253906,1.2194747924804688,2.1347618103027344,-1.3626155853271484,1.2064437866210938,0.25701332092285156
