step,time_s,torso_x,torso_y,torso_z,quat_w,quat_x,quat_y,quat_z,roll_rad,pitch_rad,yaw_rad,body_vx,body_vy,body_vz,body_wx,body_wy,body_wz,l_hip_roll_pos,l_hip_yaw_pos,l_hip_pitch_pos,l_knee_pos,l_wheel_pos,r_hip_roll_pos,r_hip_yaw_pos,r_hip_pitch_pos,r_knee_pos,r_wheel_pos,l_hip_roll_vel,l_hip_yaw_vel,l_hip_pitch_vel,l_knee_vel,l_wheel_vel,r_hip_roll_vel,r_hip_yaw_vel,r_hip_pitch_vel,r_knee_vel,r_wheel_vel,l_hip_roll_torque,l_hip_yaw_torque,l_hip_pitch_torque,l_knee_torque,l_wheel_torque,r_hip_roll_torque,r_hip_yaw_torque,r_hip_pitch_torque,r_knee_torque,r_wheel_torque,l_hip_roll_ctrl,l_hip_yaw_ctrl,l_hip_pitch_ctrl,l_knee_ctrl,l_wheel_ctrl,r_hip_roll_ctrl,r_hip_yaw_ctrl,r_hip_pitch_ctrl,r_knee_ctrl,r_wheel_ctrl
0,0.0,-0.000751906506983284,0.0007318781646674113,0.7054609911736373,0.999919329253556,0.008904530734768313,-0.004562573108809509,-0.007824783967572824,0.017880701625280104,-0.00898517892684433,-0.015730844372931686,-0.0777630230887037,-0.19962737614992931,0.08068138827118604,4.545789119313013,-0.9133146303330163,-1.2924019229229653,-0.03131381635360838,0.0048840146327170635,0.349489344211132,0.5840266205213758,-0.16477840566910948,0.0039876643186606,0.01077241298602861,0.3809983263813672,0.6001556469035291,-0.05146460860038225,-1.895152793821626,0.6431872351022901,2.635631967308888,-1.6292397903106464,-12.30624693541338,-0.17500299255194424,0.9212075930854126,5.040647220622878,-0.7033043510564171,-1.9214599491884083,-5.926848411560059,2.0635509490966797,6.476856231689453,-12.504182815551758,-6.761176109313965,0.9225473403930664,1.3293018341064453,24.108436584472656,-14.516780853271484,-2.8899145126342773,-5.926848411560059,2.0635509490966797,6.476856231689453,-12.504182815551758,-6.761176109313965,0.9225473403930664,1.3293018341064453,24.108436584472656,-14.516780853271484,-2.8899145126342773
1,0.02,-0.0014975390032653472,-0.0009570514438610292,0.7066427515449584,0.9996437352572315,0.024563412699547767,-0.0021030298816944962,-0.010228322581841509,0.0491724945890134,-0.003702084731424466,-0.020554260461766272,-0.0013618568760763866,0.0009159625077182834,0.044100818413504335,-0.4426762456316738,1.1965660241426939,0.4193042217040196,-0.049814086663053925,-0.010962601753394164,0.356729677888613,0.5814373012550743,-0.27975309978978447,0.0008354987951713657,0.0038728616394863103,0.386294194894284,0.5766415497279195,-0.05813738091539036,-0.23151497549669472,-1.9594771531100745,-1.2166422857837267,0.8612181987394978,-0.13461336466887652,-0.11713791001627309,-1.3155999093084794,-2.3161937973417976,-1.5940506675151667,-0.3098038115149462,3.471284866333008,-11.619112014770508,-0.05887031555175781,2.0007171630859375,5.072179794311523,-1.6113958358764648,-2.0026321411132812,-24.115428924560547,6.364261627197266,2.2611865997314453,3.471284866333008,-11.619112014770508,-0.05887031555175781,2.0007171630859375,5.072179794311523,-1.6113958358764648,-2.0026321411132812,-24.115428924560547,6.364261627197266,2.2611865997314453
2,0.04,-0.0018928867766522179,0.0005232405902391629,0.7078084738839621,0.9999630284122493,0.0033305331505898675,0.0011696996476378368,-0.007840992301316612,0.0066425446634376115,0.0023915444532885224,-0.015674300002530398,-0.02914760495908292,0.13012329227910507,0.06946567823924647,-3.3152351181297557,-0.19098516283291583,0.03822691990038231,-0.05879570929091945,-0.020043709085022714,0.2817429923322177,0.5643853431493289,-0.35774405170162266,-0.007119297239864449,-0.002400701914232425,0.31938004435443307,0.5628999259877692,-0.05688524773959058,-0.5953086921170412,0.3796684228658504,-5.486564484501548,-1.6825389106182347,-6.553421552395988,-0.5457177359796577,0.19377108753958633,-3.8057311119045942,-0.01493188332320039,0.026141240828823367,-0.9252023696899414,4.2009735107421875,-15.332571029663086,-2.9269542694091797,-1.8070106506347656,-2.463977813720703,4.044843673706055,-8.129384994506836,1.6803932189941406,1.2124443054199219,-0.9252023696899414,4.2009735107421875,-15.332571029663086,-2.9269542694091797,-1.8070106506347656,-2.463977813720703,4.044843673706055,-8.129384994506836,1.6803932189941406,1.2124443054199219
3,0.06,-0.0027899319900967453,0.0017520115106939174,0.708661111452491,0.9998958238889029,-0.00646733387045038,-0.007167578990111154,-0.010730366888438845,-0.01278118529282307,-0.014472963591620534,-0.021369652148264716,-0.05818026245002983,0.01836995845938515,0.044033145639767735,0.5086079587726626,-1.2812442508437891,-0.5340092403287275,-0.05256492824584224,-0.0007989404794245935,0.22898963641822156,0.5207287369668543,-0.41877067127986156,-0.0011184252891703016,0.015843285323491583,0.31965590099124525,0.5764419904160861,0.06918593116223407,0.7664209264414342,1.357306523534964,-0.8823034881238423,-2.6232778369292684,-0.3654347330224009,0.8029732574473909,1.3980923898844968,2.424578825805435,0.9135368257100164,11.256663398059734,1.2312164306640625,3.81591796875,6.055484771728516,-11.40787124633789,2.2000503540039062,3.0943241119384766,2.545757293701172,12.394527435302734,-3.281108856201172,4.768241882324219,1.2312164306640625,3.81591796875,6.055484771728516,-11.40787124633789,2.2000503540039062,3.0943241119384766,2.545757293701172,12.394527435302734,-3.281108856201172,4.768241882324219
4,0.08,-0.003192221111820857,0.0018838272676727458,0.7107264633694972,0.9999372730262744,-0.00027269808050176496,-0.009841007682777327,-0.005341368394074215,-0.0004403183778318867,-0.01968496522311527,-0.010678971348957544,0.0010303568952543998,-0.0035363012831355063,0.1433161233137289,0.7561769314951762,0.36673575990500906,1.2759397624562805,-0.03483694510114439,0.003533353391753219,0.23267934190614872,0.48473994164366946,-0.3758274901864546,0.008223080881445884,0.02151615552911381,0.32833981043219995,0.5526752153557876,0.1686207089301181,0.9727446164953663,-0.4741422453758296,0.9496045889118796,-1.3365030101730544,4.173918031769364,0.2758238757694321,-0.40063662506805753,-0.8776811672653335,-2.4712282080289567,-0.09140876961515154,1.9180469512939453,-3.697000503540039,10.487552642822266,-8.378923416137695,1.5437641143798828,0.35802650451660156,-6.066872596740723,-8.167030334472656,-8.090587615966797,-5.213417053222656,1.9180469512939453,-3.697000503540039,10.487552642822266,-8.378923416137695,1.5437641143798828,0.35802650451660156,-6.066872596740723,-8.167030334472656,-8.090587615966797,-5.213417053222656
5,0.1,-0.0038542753931798523,0.0029259495870862513,0.7115184106604254,0.9999988853218805,-0.001106940268820761,-0.0009854579366567876,-0.00018141359328582816,-0.0022135266275249317,-0.001971316581185268,-0.00036064580455804094,-0.05689992512640869,0.08372818400786416,-0.05354845000032741,-0.6240158992686198,1.2696648775287704,-0.1270920796828064,-0.010360777555353265,-0.022451264569414993,0.2385107050612538,0.49980347493462396,-0.36993591647527513,-0.025710891597245326,-0.0050068256515281625,0.32094392871836236,0.5426830011085256,0.28728534547564816,1.3813807404525822,-2.0320024642528733,-0.3995672047350822,2.0307766168003902,-2.438100747143044,-2.8424347416404068,-1.972720195936849,-0.13047258660017624,0.6565209298073325,10.912997199452693,3.203662872314453,-7.657729148864746,-8.773815155029297,8.620750427246094,-2.417621612548828,-6.987441062927246,-3.406888961791992,3.4699058532714844,2.2113876342773438,4.697330474853516,3.203662872314453,-7.657729148864746,-8.773815155029297,8.620750427246094,-2.417621612548828,-6.987441062927246,-3.406888961791992,3.4699058532714844,2.2113876342773438,4.697330474853516
6,0.12,-0.005447363011636166,0.003788315951011933,0.7106642741568561,0.9999899085114848,0.0005587072383658776,-0.000839202414316757,-0.00437795165812052,0.0011247529876932403,-0.00167349668559914,-0.008756876871805264,-0.06832912214484387,0.013587249990683916,0.010531964676755792,0.7085774840775141,-0.410202808006477,-0.7777524402494239,-0.014259680346747908,-0.026693057133532438,0.24223594280556535,0.5085933062757777,-0.3889985654932091,-0.042182632689157465,-0.01094036129948968,0.33529662558670575,0.5297214709402955,0.39573991492899946,-1.1629586503365232,0.3766791900355314,0.2873889771970257,-0.6480568187679516,0.8941445707042663,0.14697976416617833,0.33787989038891947,1.5881301062635174,0.24960484019536655,2.0688102381445823,-4.719904899597168,6.185213088989258,0.4416389465332031,-4.989204406738281,1.9502277374267578,3.4244308471679688,3.791318893432617,9.371768951416016,-8.290946960449219,-4.174257278442383,-4.719904899597168,6.185213088989258,0.4416389465332031,-4.989204406738281,1.9502277374267578,3.4244308471679688,3.791318893432617,9.371768951416016,-8.290946960449219,-4.174257278442383
7,0.14,-0.006075347306092365,0.0046110010548724035,0.7112559200093921,0.9999929052101038,0.0006809134299112857,-0.0027394202412144917,-0.0024942860900318423,0.0013755040462903798,-0.005475432184608213,-0.004992362977163301,-0.01041390710798048,0.06017492768737101,0.035885229479226025,-0.4421868793242215,-0.10949426111904224,0.965413813896162,-0.017501717861639104,-0.023381482568521125,0.24052043366937292,0.4935105082871742,-0.3504131254784632,-0.029560466757867655,-0.0066933231398172595,0.33713619170901893,0.5302069415778656,0.4249270997510129,0.43617633573603537,0.11514971082597916,-0.24425357652629903,-0.7311776631019473,2.7690216907973144,0.9120655683264359,0.21208051249885757,-0.9181849948278844,-0.18590458190447726,0.8910319935668574,2.1806201934814453,-2.358022689819336,6.905250549316406,-7.33213996887207,0.22669315338134766,1.0736274719238281,1.6682701110839844,-11.883644104003906,2.5479278564453125,0.21722984313964844,2.1806201934814453,-2.358022689819336,6.905250549316406,-7.33213996887207,0.22669315338134766,1.0736274719238281,1.6682701110839844,-11.883644104003906,2.5479278564453125,0.21722984313964844
8,0.16,-0.006675643308588046,0.005294411134916196,0.7099503096168158,0.999969231473846,0.004136264248470274,-0.006426124804689248,0.0017698428365712495,0.008250304023311256,-0.012866850267320394,0.0034867121446140693,-0.04242836425768559,0.016317348801639625,-0.1309332039881572,0.846191650976534,-0.5274366576917173,0.014205839270152315,-0.020661446916062916,-0.016054305186868165,0.2511051449835145,0.501593953829145,-0.41143513745979293,-0.006261363443803067,0.0019665999302739302,0.36075904830773264,0.5561593080978522,0.47177989899890654,-0.5240469346460761,0.5117766780584814,0.8869272468813995,1.1002560955231382,-7.696082725813424,1.319081659166776,0.5904464342160672,2.4909165354071865,2.151238418676808,3.5647690736959294,-2.100137710571289,1.4896049499511719,0.6176776885986328,1.3354320526123047,-4.8076066970825195,2.6718578338623047,0.7699317932128906,10.342491149902344,1.6140708923339844,1.0202064514160156,-2.100137710571289,1.4896049499511719,0.6176776885986328,1.3354320526123047,-4.8076066970825195,2.6718578338623047,0.7699317932128906,10.342491149902344,1.6140708923339844,1.0202064514160156
9,0.18,-0.006189701022681556,0.006309310357936065,0.7101611784960833,0.9999605965369608,0.0024863004035536296,-0.003479342640143027,0.007779322498860255,0.004918411244506056,-0.006997151646095006,0.015541736662476732,0.07009151859869546,0.07382372628336568,0.100368549537637,-0.7679253343803297,0.8106753696927294,1.0108279936777098,-0.027178585143988694,-0.02212369954114742,0.2507436304893698,0.5077772762132935,-0.4511429298893308,0.012372750561860442,-0.0024595201189474654,0.3444160927169723,0.5455504910397978,0.45800604872640865,-0.18022952039904372,-0.8015462432396079,-0.4182576910192224,-0.17134944046124248,2.551372750451532,0.6823207350023048,-0.7520568436238425,-2.891718774842885,-2.1186065549901,-4.162263708461842,0.4821643829345703,-0.5596246719360352,1.4505023956298828,-3.1058273315429688,4.609050750732422,0.6423797607421875,-1.3081855773925781,-11.842367172241211,-11.285743713378906,-3.891932487487793,0.4821643829345703,-0.5596246719360352,1.4505023956298828,-3.1058273315429688,4.609050750732422,0.6423797607421875,-1.3081855773925781,-11.842367172241211,-11.285743713378906,-3.891932487487793
10,0.2,-0.006195754462901332,0.008112610522121842,0.7107905027788638,0.9999775934134997,-0.001791940244171898,-0.0032241077857579257,0.00558630021506906,-0.0036199045470746605,-0.006428094725157736,0.011184369147195028,-0.05093240220377233,0.10011085584541404,-0.023873468649036486,-0.24246472321658197,-0.528980323634065,-1.1643550624290586,-0.02345612954379839,-0.022650079192154875,0.23327632393520648,0.49718274552990194,-0.4802045519683733,-0.017846748523659785,-0.00507310404219647,0.3427664010505077,0.5481328468964466,0.5368474589197301,0.3921564964501609,0.5376413302996952,-1.2910737070414662,-0.7080222844153905,-4.666034836256978,-2.8435663489163026,0.30536939589245526,1.6101456755080885,1.3289655420355984,10.714930596737695,1.0771102905273438,1.7797794342041016,-10.510540008544922,0.017076492309570312,-2.6126604080200195,-7.534982204437256,2.2744979858398438,14.0057373046875,0.42913246154785156,6.304887771606445,1.0771102905273438,1.7797794342041016,-10.510540008544922,0.017076492309570312,-2.6126604080200195,-7.534982204437256,2.2744979858398438,14.0057373046875,0.42913246154785156,6.304887771606445
11,0.22,-0.005922834263186095,0.009627825651841379,0.7113040930652276,0.9999902785722266,-0.0026123997013788314,-0.0035485578493843085,0.0001608291973379684,-0.005226045405012171,-0.007096265961993192,0.0003402043429890247,0.07513547826142412,0.05977636572695834,0.0881753097704192,0.06502407797631325,0.5089222186972417,-0.1394648873958716,-0.03959735149181483,-0.02045365138592747,0.2210980473697314,0.48765956593636534,-0.520040831409816,-0.03144203052876391,-0.005024377873180649,0.344159703427702,0.5236364085568735,0.6433663861565491,-1.5112748229585287,-0.416634747664199,-0.17545655429744514,-0.460905113395757,0.2676631470981106,0.4721931185634005,-0.4459649458144647,-0.8291517887769202,-2.0070933245725464,1.5722794953828139,-4.232105255126953,1.6654987335205078,6.079010009765625,-4.0809783935546875,1.8049964904785156,4.131916046142578,-0.6751747131347656,-5.3212738037109375,-11.201559066772461,-4.2802534103393555,-4.232105255126953,1.6654987335205078,6.079010009765625,-4.0809783935546875,1.8049964904785156,4.131916046142578,-0.6751747131347656,-5.3212738037109375,-11.201559066772461,-4.2802534103393555
12,0.24,-0.004934009276922221,0.011284497084525271,0.7113553519682609,0.9999899762795312,-0.0005238516165736978,-0.0036809630074385036,-0.0024946805975855895,-0.0010293551731489624,-0.0073645324766152594,-0.004985610479778955,0.029916205548825663,0.09568197161863835,-0.06060092969574442,0.2604812592466425,-0.3838590500397808,-0.317168958349298,-0.03179931517022768,-0.01891602607210849,0.22465401171215502,0.4882643726750445,-0.5600410466057372,-0.05010915564484016,-0.003664649661551711,0.3647797767320841,0.5522124688349391,0.7515941811873215,1.492986043997596,0.4621817551225084,0.32848527768360886,0.3302350208183799,-3.853333393343557,-1.7998096179192167,0.4365485019860925,1.9665739354359904,3.3633222291609775,8.700248543919734,4.779666900634766,-0.49475765228271484,1.6378326416015625,-1.8951282501220703,-2.0004920959472656,-4.958126068115234,2.360342025756836,3.7159271240234375,9.203819274902344,3.149690628051758,4.779666900634766,-0.49475765228271484,1.6378326416015625,-1.8951282501220703,-2.0004920959472656,-4.958126068115234,2.360342025756836,3.7159271240234375,9.203819274902344,3.149690628051758
13,0.26,-0.004413078709326336,0.012400779361907378,0.7110405311060882,0.9999697845090054,0.003147756409944095,-0.006613344643333347,-0.0026048745123825666,0.0063303710928395715,-0.013210274835356816,-0.005251708378948917,0.07361313713513544,0.04223776538772732,0.1103555182466003,0.4051704540059863,0.3744614936530769,0.04887815434360391,-0.049078230947885826,-0.011748335288354105,0.2320600637197282,0.4855676482243837,-0.5682373166468146,-0.03993444313514694,0.004848288749515693,0.35997899763638436,0.5239215768332061,0.785088722648435,-2.1940438304818484,-0.3275827468761519,0.2714499565841742,-0.6881978103073719,2.411061068857443,1.7303107038189256,-0.191994629967925,-0.9727953457182096,-1.7863553555352003,-2.9987415425359623,-6.760756492614746,0.21359825134277344,4.168308258056641,-6.246612548828125,2.614480972290039,6.612031936645508,-2.6368417739868164,-3.3189144134521484,-13.278631210327148,-5.392151832580566,-6.760756492614746,0.21359825134277344,4.168308258056641,-6.246612548828125,2.614480972290039,6.612031936645508,-2.6368417739868164,-3.3189144134521484,-13.278631210327148,-5.392151832580566
14,0.28,-0.0031475599977729292,0.01454799745647404,0.7118074023699763,0.9999776588505119,-0.0012702468674465485,-0.002185100608815229,-0.006188182938013902,-0.002513420192546216,-0.00438583868297514,-0.012370972659428471,0.0471520956520821,0.14570140544810084,-0.02372671922595108,-1.03703119394637,0.40220204035059687,-0.6616715764220811,-0.05146666368062214,-0.01961838402679931,0.2178540792219569,0.4870738635821739,-0.6211574218599788,-0.04288438183165262,-0.004034728818043047,0.35214693859352825,0.5320365674545005,0.8659816885177376,1.109934623825484,-0.3490940169724783,-1.4085926714170929,0.7142054636698069,-6.673112953898491,-1.3876995711244149,-0.5179494304196766,-0.3292325191723981,1.7566180742771438,10.315288158767395,5.039262771606445,-3.274446487426758,-7.082956314086914,2.6954078674316406,-3.6837024688720703,-5.447134971618652,0.17350006103515625,-0.29700660705566406,5.605075836181641,5.933103561401367,5.039262771606445,-3.274446487426758,-7.082956314086914,2.6954078674316406,-3.6837024688720703,-5.447134971618652,0.17350006103515625,-0.29700660705566406,5.605075836181641,5.933103561401367
15,0.3,-0.0024996029500920346,0.016163174228311403,0.7112633155812111,0.9999314890131545,0.0016037978729140216,-0.004579142390644439,-0.010652538067715813,0.003305078541477768,-0.009123614877325837,-0.021320807131008087,0.0530789420794415,0.04527828233203187,0.039754605973976315,1.121321757295681,-0.2769335997795022,-0.39154057943590104,-0.05208599655391196,-0.013428629329929519,0.22364886239771592,0.4887290032089777,-0.6473935875165602,-0.03381007241011394,0.002602237473019046,0.3551456814066905,0.5121798965401754,0.9330273675520395,-0.7136754416774764,0.36181577415665794,1.2886863723517223,-0.569641780950319,2.9590262037481123,1.4130688999932324,0.45590655675016106,0.7999605242032695,-0.9253444798337152,-1.313328041285484,-3.4414358139038086,3.656038284301758,8.9300537109375,-7.563657760620117,3.903301239013672,5.525922775268555,0.6527194976806641,3.9195175170898438,-9.712976455688477,-5.286994934082031,-3.4414358139038086,3.656038284301758,8.9300537109375,-7.563657760620117,3.903301239013672,5.525922775268555,0.6527194976806641,3.9195175170898438,-9.712976455688477,-5.286994934082031
16,0.32,-0.0016110142534466166,0.018171793033479107,0.7117579467939286,0.9999128452419608,0.002513559430881995,-0.005959975406887624,-0.011509241167973182,0.005164256544587765,-0.011861331738843713,-0.023050100040350387,0.02835593443236637,0.13124041101201966,0.001540989229177817,-0.5734187387533359,-0.12835384054252827,0.16677857529695045,-0.0357330306375558,-0.009374194053519238,0.22365923254221506,0.4781563105807872,-0.6559294082515239,-0.034352923668193175,0.006198116847839587,0.3597088058816247,0.5306674596904032,0.8885051029266736,1.7354382029691953,0.18957606974702687,-0.8074004609141803,-0.3468139952715511,-3.1208785724221184,-1.0152081178648296,0.06937832124461911,-0.41428215060627815,2.0720133456850296,-2.4756981600329535,5.219385147094727,-4.587183952331543,-0.22558212280273438,-4.744606018066406,-2.9486026763916016,-4.266937255859375,-0.3873615264892578,-6.742895126342773,8.140716552734375,-0.13626861572265625,5.219385147094727,-4.587183952331543,-0.22558212280273438,-4.744606018066406,-2.9486026763916016,-4.266937255859375,-0.3873615264892578,-6.742895126342773,8.140716552734375,-0.13626861572265625
17,0.34,-0.001063313626045484,0.019853455331682226,0.711086201083923,0.9999396895534248,0.006214088082147416,-0.003925926430706257,-0.008160236930811238,0.012492199653022765,-0.007750040032239893,-0.016369504303282476,0.05785471879759841,0.06398668414405288,-0.0015316941365560305,0.9045903507999461,0.7653488732055008,0.4338980232064845,-0.026751248828246484,-0.014062687501685621,0.24230283898930552,0.4971489863153201,-0.7185680327449022,-0.02177304646536616,0.000746171776411499,0.3534037468085362,0.5200662983779804,0.8903621757951877,-0.3001637983081956,-0.8357856276834543,1.8664554061377638,1.563187811400899,-3.0833468217480204,1.797579210630884,-0.6937872577853081,0.2466829754671721,-1.2363478418857161,1.8856804113693286,-2.6358718872070312,-4.796683311462402,8.174423217773438,-1.3715496063232422,-0.26198768615722656,5.322858810424805,-2.968057632446289,1.71929931640625,-7.188882827758789,1.9225597381591797,-2.6358718872070312,-4.796683311462402,8.174423217773438,-1.3715496063232422,-0.26198768615722656,5.322858810424805,-2.968057632446289,1.71929931640625,-7.188882827758789,1.9225597381591797
18,0.36,-0.00044440856023720594,0.02326157263416153,0.7106753269173446,0.9998871962638436,-0.011621696276277623,0.0007759800712193376,-0.009483078520159215,-0.02325760526075788,0.0013313665522014983,-0.018983210937935015,0.010744260518634932,0.23669113833923297,-0.06759482905765582,-3.505040534443112,0.25761125164726884,-0.5731624588170202,-0.0326217501470344,-0.022753909669759802,0.1934573385063599,0.5076443527752784,-0.8649020073306823,-0.009544114274840344,-0.006286241719898745,0.32266008973383825,0.542736899141874,0.9630196436929606,-0.22984692428027848,-0.17274217468380723,-5.175039379646803,0.09316812976562668,-10.571976188296585,-0.28985402989439074,-0.13233744450252302,-2.8320772400188816,2.707664008581345,5.616536390091782,0.8960494995117188,-1.5691595077514648,-20.68433380126953,3.3854331970214844,-2.6501245498657227,-3.737887382507324,2.7374420166015625,-6.8998565673828125,7.950977325439453,1.9899463653564453,0.8960494995117188,-1.5691595077514648,-20.68433380126953,3.3854331970214844,-2.6501245498657227,-3.737887382507324,2.7374420166015625,-6.8998565673828125,7.950977325439453,1.9899463653564453
19,0.38,-0.0006367025194884083,0.025572448396106773,0.7089355805483551,0.999798094189927,-0.011580886822254532,-0.0052840345491714435,-0.01554776168718275,-0.022996186644960354,-0.010926266481660408,-0.030973658232766023,0.010056142089079189,0.03970531221869973,-0.010357602451561186,2.241280833496798,-0.7095792310418069,-0.7004334044943492,-0.026343901186184425,-0.00901779656325186,0.182003968804415,0.5079908835943678,-0.9964646210105775,-0.0012397480136764345,0.009564541565944641,0.3428747361569127,0.5498760912272489,1.0426955692379438,0.5230808932248032,0.7909246463914427,2.0942982973347695,-0.4531170423910217,-3.3052092632506187,0.7799047944697098,0.8484784119770838,3.757485536882579,0.7186027114283515,3.6861681882853765,-0.07017326354980469,6.751806259155273,16.64870834350586,-10.39306640625,2.2354354858398438,3.6817283630371094,1.2763175964355469,15.5032958984375,-11.180913925170898,-1.5050458908081055,-0.07017326354980469,6.751806259155273,16.64870834350586,-10.39306640625,2.2354354858398438,3.6817283630371094,1.2763175964355469,15.5032958984375,-11.180913925170898,-1.5050458908081055
20,0.4,-0.00025659216606653095,0.027398151575948507,0.7095015247031443,0.9999033260640361,-0.0008378003952483994,-0.007493860047229146,-0.011682408919693466,-0.0015005156408046155,-0.015006409441215045,-0.023354754782827895,0.020900777867446842,0.12738607824528614,0.05548665954527335,0.29631173031417873,0.11782705079687764,1.1481331161631494,-0.005534661672904567,-0.005558581279653343,0.21537568284349576,0.5020867913986846,-0.9591617346638783,-0.006542537247914313,0.014998541374148995,0.3654381427785484,0.5448765242847433,1.0208699980940692,1.3636306921206658,-0.19057162208533313,1.4894223865756337,-0.1571663289134099,6.020700987691572,-0.9216508112674369,-0.0971851861682327,-0.5884979610008092,-0.6908076525268907,-4.931791497861581,3.3750362396240234,-6.312333106994629,7.621623992919922,-5.73015022277832,4.230791091918945,-3.2773818969726562,-2.3902320861816406,-12.07060432434082,1.6715164184570312,-3.2396059036254883,3.3750362396240234,-6.312333106994629,7.621623992919922,-5.73015022277832,4.230791091918945,-3.2773818969726562,-2.3902320861816406,-12.07060432434082,1.6715164184570312,-3.2396059036254883
21,0.42,-0.0003664476130267518,0.02965848669692439,0.7094400012296667,0.9999796257923284,0.003356763835314271,-0.0026733088747534816,-0.004725839232092852,0.00673880432194433,-0.00531480678529582,-0.009469708503402136,-0.024226427474174254,0.10183706022789046,-0.04628561964025989,0.5235805532271088,0.739073841343583,0.35049559472685043,-0.0054376289103665945,-0.01783419407893058,0.2394588298590663,0.5212551052412151,-1.007899543283358,-0.02113198798498516,0.001848939541494626,0.36704053751662247,0.533312360403384,1.0045367358531516,-0.7839245866821178,-0.9228771373554849,0.898312795159196,1.7057973855532602,-9.142057038410705,-0.5779381222728577,-1.0215892116703797,0.5793611210503373,-0.571231987323358,2.4517195749078757,-3.2584753036499023,-5.482043266296387,-0.07367897033691406,0.4135246276855469,-6.956838607788086,-0.38259410858154297,-4.501346588134766,4.722984313964844,-1.7937030792236328,3.1836299896240234,-3.2584753036499023,-5.482043266296387,-0.07367897033691406,0.4135246276855469,-6.956838607788086,-0.38259410858154297,-4.501346588134766,4.722984313964844,-1.7937030792236328,3.1836299896240234
22,0.44,-0.0005468905306716126,0.032558416023791704,0.7084668296730856,0.999989841263959,-0.004325919097271795,0.00033073427127546174,-0.001222459687158597,-0.008652668722837863,0.0006508853454120681,-0.002447758959225548,0.003378388046294241,0.17819804526855465,-0.05405143627103375,-1.63257408149512,0.031586104953459954,0.3474240576024025,-0.02803011730341081,-0.0246416351923577,0.22399472598756442,0.5392226393721804,-1.1169769502439506,-0.0034450715103289662,-0.0036970181593083216,0.35211355623247487,0.5407330565371097,1.00251617256149,-1.3222131260891274,0.031365314341748676,-1.7464042397890023,0.43933176884161745,-2.5274838019209676,1.6580426116151183,0.09225521874518938,-1.6016684836077444,1.1109255163162373,-2.0270416045874384,-1.9774389266967773,2.6152610778808594,-6.100770950317383,1.0913410186767578,3.3584136962890625,3.5476512908935547,3.5482616424560547,-5.947200775146484,1.7301902770996094,-1.7906646728515625,-1.9774389266967773,2.6152610778808594,-6.100770950317383,1.0913410186767578,3.3584136962890625,3.5476512908935547,3.5482616424560547,-5.947200775146484,1.7301902770996094,-1.7906646728515625
23,0.46,-0.000881406813955819,0.034613791567220276,0.7081244447678984,0.9999565020867769,0.002973945209652206,-0.008388029164004402,-0.0027911558555297287,0.005995334171604937,-0.01675951167633589,-0.005632780805259981,-0.026047266649129652,0.048723325508473546,0.014543720997199307,2.3299210496628766,-1.4507857160045763,-0.47265782197271594,-0.03083787171512776,-0.005286463152408754,0.22485554819491418,0.5177080022065932,-1.1971960935853796,0.007116010804224795,0.016661263568779738,0.3870907195868987,0.5614407868141412,1.0209159398192433,0.4846805831147558,1.5658129994967094,1.146894389298007,-2.1721094658703506,-5.2528947294585695,-0.02987380453839998,1.6465425995014566,3.9103700446601883,0.843005932135558,3.2671804518367664,1.0743999481201172,8.679771423339844,8.477741241455078,-12.918899536132812,-2.254868507385254,-0.8382511138916016,3.5325164794921875,15.231910705566406,-7.511173248291016,1.4695777893066406,1.0743999481201172,8.679771423339844,8.477741241455078,-12.918899536132812,-2.254868507385254,-0.8382511138916016,3.5325164794921875,15.231910705566406,-7.511173248291016,1.4695777893066406
24,0.48,-0.00023834926935432395,0.037149873799236725,0.709584506376844,0.9999151563226366,0.006093751596090116,-0.00935771487862102,0.006706677270538459,0.012063374370846067,-0.018796686362298726,0.01330091107609829,0.06619308778538227,0.18198656377493955,0.1077626651981959,-1.0190727578016214,0.7610783672896009,1.982554856532764,-0.031287474798765987,-0.0030645375291020265,0.2294202808932241,0.4969741368354135,-1.205278649616736,0.008728090813574646,0.021426585674153106,0.3820761731351212,0.5434581968530989,1.0115870747966869,-0.2695907079773554,-0.776786092615457,-0.23761687536422432,-0.23143860358482496,3.5104650244575124,0.11738581795822198,-0.6365012365812013,-2.9586106271103167,-1.8594276741757518,-3.4812964332988647,0.019136428833007812,-7.302433967590332,5.450389862060547,-2.8741188049316406,3.9507179260253906,-0.41089439392089844,-4.228060722351074,-21.900474548339844,0.41282081604003906,-1.9759807586669922,0.019136428833007812,-7.302433967590332,5.450389862060547,-2.8741188049316406,3.9507179260253906,-0.41089439392089844,-4.228060722351074,-21.900474548339844,0.41282081604003906,-1.9759807586669922
25,0.5,0.00047671353989977455,0.04069841229887491,0.7094545747292764,0.999863506056312,0.0002651544827488321,-0.002220395921723933,0.01636975234475447,0.0004575464628052302,-0.004448881404454388,0.032740031141087984,0.019715444783542188,0.17075361976804518,-0.08497420316330322,-0.27533486402069307,0.7464684179355322,0.19724594340688284,-0.02879881890421173,-0.01871411059072417,0.22728964157421727,0.520366289386774,-1.3288439917614845,-0.013083812909338523,0.004452633151233959,0.3611363450484759,0.5258268716960022,1.0048222190740064,0.3467118082152263,-0.8412247101054238,-0.2346330652755776,2.0556667569398894,-13.862721064344562,-1.755173383518008,-0.9259562944149589,0.1451550650632921,-0.22035513969334053,2.400903309778489,0.8748226165771484,-0.058528900146484375,-6.171985626220703,5.6924285888671875,-7.594758987426758,-3.983668327331543,-2.6684913635253906,9.421775817871094,-3.584310531616211,2.1439437866210938,0.8748226165771484,-0.058528900146484375,-6.171985626220703,5.6924285888671875,-7.594758987426758,-3.983668327331543,-2.6684913635253906,9.421775817871094,-3.584310531616211,2.1439437866210938
26,0.52,0.000690344489327135,0.04370476527701305,0.70933278262587,0.9998617513904134,-0.00024145482893822223,-0.0012286618946660921,0.016580416038514487,-0.0005235879410881225,-0.0024489796726575143,0.033163018768822265,0.000766682797752394,0.13843090406458097,0.05177165300921019,0.132247810306256,-0.35604869120590676,-0.1670836633940477,-0.03403874190319696,-0.02057143323287848,0.21755218717553187,0.5211652160144004,-1.457897245011489,-0.019918562772635744,0.0022659121743676194,0.3618014881804665,0.5219623513418138,0.98575398922988,-0.6314284090342771,0.43387049568366176,-0.47358436267588006,-1.23388343464939,-0.6733025828811658,0.36570608514952246,0.42937418498118,-0.04227080697115318,-0.1859073726739529,-3.5986999991744426,-1.974618911743164,4.015983581542969,-0.06921768188476562,-7.5855865478515625,5.995859146118164,2.711048126220703,1.6650199890136719,2.874744415283203,-6.289194107055664,-3.520237922668457,-1.974618911743164,4.015983581542969,-0.06921768188476562,-7.5855865478515625,5.995859146118164,2.711048126220703,1.6650199890136719,2.874744415283203,-6.289194107055664,-3.520237922668457
27,0.54,0.0006807140614927064,0.04692352119466605,0.7104298744333437,0.9997898564003069,-0.0014721534967201484,-0.004248976550211799,0.020000550027728586,-0.0031137678666598207,-0.008437379658924899,0.04001730805062007,-0.0028255661255682583,0.17691362627969684,0.05490902629101306,-0.318501537475287,-0.2650231424879629,0.7482176823080671,-0.02925481549598924,-0.013962779673305406,0.20825392952669503,0.4971102952238643,-1.4657493342639782,-0.021633663986142224,0.009715711029215608,0.3552133767191528,0.5166776404773585,0.9485703485274136,0.7547318770230458,0.2680788298099868,-0.48093421200174646,-1.17466748735292,-0.10897221573661356,-0.3688789864055708,0.34169698940293375,-0.5211581471876857,-0.3201578710090514,-0.4827339777053217,2.2923812866210938,-1.9792165756225586,5.2022247314453125,-8.017375946044922,-0.17762088775634766,-1.5002326965332031,-0.4993257522583008,-7.160123825073242,2.3301963806152344,2.095243453979492,2.2923812866210938,-1.9792165756225586,5.2022247314453125,-8.017375946044922,-0.17762088775634766,-1.5002326965332031,-0.4993257522583008,-7.160123825073242,2.3301963806152344,2.095243453979492
28,0.56,0.000623975966308948,0.04969741672563201,0.709500551451207,0.9995202504514592,0.004120224693352911,-0.004091880450429558,0.030422840109162717,0.00798789159888468,-0.008430632487686076,0.060822424558329945,-0.0033589960336691187,0.11187250425251777,-0.11108139860160637,1.1344568522936187,0.184885524668466,1.2431024757146212,-0.03854393623881661,-0.015033287685821376,0.23445411286698434,0.5145055690223969,-1.5403553422690692,-0.010648591592970737,0.010881185038545724,0.36994907548657513,0.5298170425182223,0.8945696876439969,-1.1972385302370898,-0.28404269402252535,2.3404726283242225,2.081267317840939,-6.582129658702356,1.1177253484411005,-0.09299474156322171,1.46041320306218,1.269410538273669,-4.3800651795652685,-3.9908809661865234,-2.2861757278442383,9.812950134277344,0.10293960571289062,-3.403230667114258,3.5861568450927734,-3.2883243560791016,2.7847213745117188,2.7288970947265625,-1.7338733673095703,-3.9908809661865234,-2.2861757278442383,9.812950134277344,0.10293960571289062,-3.403230667114258,3.5861568450927734,-3.2883243560791016,2.7847213745117188,2.7288970947265625,-1.7338733673095703
29,0.58,0.00014601347691049586,0.053457256849642164,0.7077448777113179,0.9993653065934891,-0.0042270049206710025,-0.002080423675222611,0.03530988875702579,-0.008595733071213219,-0.0038597059242293646,0.07065183325947394,-0.038123569897779555,0.2393783476163338,-0.08643756879651543,-2.1038700238266617,0.29123242221161866,-0.05379458432512116,-0.038515337865878484,-0.020743706760661534,0.2170506397718038,0.538789425989983,-1.7304057734248837,-0.00012835099796773406,0.006375181747170491,0.3588528852264709,0.5533167881012282,0.820266408345565,0.751381710200077,-0.3239403283741121,-2.8994631579154198,0.8167780139710837,-11.816041015829668,0.13050029382381245,-0.36800572639624973,-1.7667006392254443,1.2232974184518286,-3.1439583920306307,3.759113311767578,-2.1920433044433594,-14.618627548217773,2.657184600830078,-1.6967811584472656,-1.4708518981933594,-0.27645397186279297,-3.7441444396972656,0.8243293762207031,0.5574502944946289,3.759113311767578,-2.1920433044433594,-14.618627548217773,2.657184600830078,-1.6967811584472656,-1.4708518981933594,-0.27645397186279297,-3.7441444396972656,0.8243293762207031,0.5574502944946289
30,0.6,-0.0006129487654100438,0.05652678101922917,0.7075732079202793,0.9993867595038223,-0.0005268655246694644,-0.0028119619857103896,0.03489871360035669,-0.001249372372244747,-0.005583730310311214,0.06981537682151026,-0.03927440338904696,0.09612675698348816,0.05908288854241819,2.013397859544936,-0.3613454336067065,-0.05584177006267828,-0.0229284335119336,-0.02063628164947678,0.2170566242913442,0.5356084252875623,-1.8611986554009572,0.002125146567279577,0.00770877397392798,0.37302024498052183,0.5523472624039965,0.8206729024350063,0.7367070802454249,0.28135781126578324,1.895924013029889,-0.9414625857872128,-2.44269569912007,0.15206070622051038,0.3832029932108402,2.309900067790804,-1.0172195289547492,2.429410666962574,-0.05098533630371094,4.0833740234375,12.732749938964844,-11.398582458496094,3.4275474548339844,1.2212791442871094,0.7091941833496094,10.916690826416016,-12.029630661010742,1.3235950469970703,-0.05098533630371094,4.0833740234375,12.732749938964844,-11.398582458496094,3.4275474548339844,1.2212791442871094,0.7091941833496094,10.916690826416016,-12.029630661010742,1.3235950469970703
31,0.62,-0.0015032291228280557,0.06005063881709986,0.7088534310857948,0.9990959802564601,-0.0006055680215476362,-0.0031908930837335364,0.04238718820686579,-0.0014805772775084674,-0.00632472242232976,0.08480491193967972,-0.050643506620010326,0.23192019181520698,0.059749751680238807,-1.3639768883041241,0.17016464755342486,1.3522522537912018,-0.009744252672412817,-0.02195922924880383,0.2200077050236543,0.5196184100854703,-1.852659952587495,-0.0077888893023788245,0.007759692265808345,0.3624245243955085,0.5397172053729099,0.7833288193568719,0.6583442423234498,-0.29639344494292313,-0.8919765152251221,-0.6005479275244633,2.791584523708037,-0.9047198678441319,-0.22007602853439898,-2.3878935969995614,-0.3082670405816719,-5.344375973685132,1.8052349090576172,-4.846585273742676,-0.41463470458984375,-3.388071060180664,2.6337623596191406,-3.0643415451049805,-1.341750144958496,-15.853713035583496,5.502285003662109,-2.4456262588500977,1.8052349090576172,-4.846585273742676,-0.41463470458984375,-3.388071060180664,2.6337623596191406,-3.0643415451049805,-1.341750144958496,-15.853713035583496,5.502285003662109,-2.4456262588500977
32,0.64,-0.0025393294013216464,0.06281732787511442,0.7083860815926835,0.9986501884229753,0.008605548571914992,-0.0016196380468062558,0.05119689901870095,0.017022990857557922,-0.00411607010613672,0.10240747827980022,-0.04563580002927683,0.07330771471278724,-0.07631297816864814,2.494785300985998,0.13884472370932,0.49283457642459355,-0.015379292464375624,-0.026541594916408347,0.24864457207640248,0.5323126519277316,-1.983028567262475,-0.017518815379316953,0.003909398247013166,0.3799492133544909,0.5408207931204692,0.715105275333946,-0.8697041317019569,-0.25995162714582154,2.7633744895783035,1.0733670572077698,-14.12415496619085,-0.24657242166641735,-0.2546512687972924,3.0134099455187053,0.23197131535144114,-1.7952745917395874,-3.9564762115478516,1.9093170166015625,9.535064697265625,-2.513895034790039,-8.407888412475586,1.5903854370117188,-1.6926164627075195,14.562263488769531,-6.271600723266602,0.6042871475219727,-3.9564762115478516,1.9093170166015625,9.535064697265625,-2.513895034790039,-8.407888412475586,1.5903854370117188,-1.6926164627075195,14.562263488769531,-6.271600723266602,0.6042871475219727
33,0.66,-0.0033812258477612647,0.06661576497791155,0.7078523236081246,0.9981116348029738,0.0032296543380394413,0.0006945676115388287,0.06133719409645341,0.006532366460277381,0.0009903163203464327,0.12275534590922713,-0.04489123300053452,0.27497122804190466,-0.007797150107501262,-2.561089587610498,0.3246359822536521,1.4525938010990558,-0.025372216843041105,-0.03380651675453323,0.24129538465982434,0.5442506614019506,-2.098648696570883,-0.01027748151102014,-0.0006879212051800716,0.3613329080663401,0.5489828799710779,0.6367606585758755,-0.24222409881493023,-0.3720044870456434,-2.1047735777251972,0.2769739704421238,0.5321249001096449,0.6216430194801875,-0.19495925960284344,-3.532676358060394,0.6761932509072244,-5.484321805455657,1.6739063262939453,-3.809708595275879,-7.231182098388672,0.7424812316894531,7.175195693969727,0.21741485595703125,1.5158119201660156,-18.993444442749023,6.635688781738281,-0.6031503677368164,1.6739063262939453,-3.809708595275879,-7.231182098388672,0.7424812316894531,7.175195693969727,0.21741485595703125,1.5158119201660156,-18.993444442749023,6.635688781738281,-0.6031503677368164
34,0.68,-0.004445050206778886,0.07049715464315574,0.7081496953171958,0.9978479118148484,-0.0010049739540102035,-0.0015153978064541775,0.06554569767412194,-0.002204288942250742,-0.0028925336690748533,0.13118884911795045,-0.05024001672987594,0.13412453614613337,0.03767090308740397,1.0345038376679967,-0.48879228213298676,-0.299191547918211,-0.032542813800703944,-0.02997300699778037,0.22239687935365776,0.531105539415992,-2.1964429237763206,-0.0070677269884326715,0.0036494809729885505,0.35261533484281904,0.5519736881848003,0.5961216670918502,-0.4843388567046925,0.5115703761883372,-0.2847661620317385,-1.3397186712574012,-9.207690951445608,0.02336276566877877,0.499177655295532,1.5738006753576554,-0.21657554301992638,0.899940618996001,-2.1022262573242188,8.373680114746094,1.412343978881836,-7.744510650634766,-5.07058048248291,0.757568359375,0.2917957305908203,15.201393127441406,-12.170026779174805,1.5690784454345703,-2.1022262573242188,8.373680114746094,1.412343978881836,-7.744510650634766,-5.07058048248291,0.757568359375,0.2917957305908203,15.201393127441406,-12.170026779174805,1.5690784454345703
35,0.7,-0.005250297439494348,0.07440704460668159,0.7089274553668778,0.9974968262425598,-0.0030905720364974563,-0.004320081164113261,0.07051146643805647,-0.006775180768007972,-0.008182784284557614,0.1411697676296306,-0.03710824183224866,0.2406860872818415,0.03752408291777994,-1.1138454985670811,-0.156920949959809,1.100252179726243,-0.037453783583083274,-0.02454217535433641,0.2046625806714168,0.5092161123841134,-2.2857649356458287,-0.006436945313633041,0.00990161871949848,0.3494920537551504,0.5489233438515324,0.6009539575595292,-0.08087566032931587,0.1643430567644378,-1.2036813247280218,-0.8761204007357158,-0.6919818072219952,-0.002507169262473529,0.23039544382604824,-1.328079187350291,-0.058665915396813345,-0.259847769921361,0.7173995971679688,-1.9274635314941406,1.7391128540039062,-3.9163646697998047,3.8324203491210938,-0.7156524658203125,0.4775123596191406,-12.50309944152832,4.081295013427734,0.5315151214599609,0.7173995971679688,-1.9274635314941406,1.7391128540039062,-3.9163646697998047,3.8324203491210938,-0.7156524658203125,0.4775123596191406,-12.50309944152832,4.081295013427734,0.5315151214599609
36,0.72,-0.005651582090720092,0.07740085049234711,0.7086646961780706,0.9967906242285832,0.010015053814490898,-0.004998107746807692,0.07926644350565873,0.01917591365982721,-0.011552106215200126,0.15859857024241475,-0.0058285280150049265,0.08534994971967473,-0.040288002289192916,2.9413825862434266,-0.15537839673084425,0.6684795014267693,-0.04250830273330393,-0.022267900528263634,0.24033294273407582,0.5141436459049022,-2.378251003522588,-0.0013112547517555315,0.014753244889658686,0.37939463019096703,0.5508586236146467,0.56086448638199,-0.3922482748858355,0.044040624706160506,3.5693543472361955,0.7728870708679941,-7.76014782437026,0.449504347131425,0.2506403934559733,3.273631788642094,0.10161946872981606,-3.4104606101834456,-1.9917869567871094,5.271236419677734,12.567756652832031,-3.454244613647461,-3.964358329772949,2.371896743774414,-3.242863655090332,14.134754180908203,-8.344892501831055,-2.6678524017333984,-1.9917869567871094,5.271236419677734,12.567756652832031,-3.454244613647461,-3.964358329772949,2.371896743774414,-3.242863655090332,14.134754180908203,-8.344892501831055,-2.6678524017333984
37,0.74,-0.0061831618466791334,0.08159055071544734,0.7086578124689379,0.9959941675266086,0.006371389243148356,-0.003135968554533974,0.08913579165136573,0.012133307324402891,-0.007382717492999223,0.17846822226070122,-0.044972033661196814,0.29593096701203997,0.014708054999316277,-2.534439908758327,0.47018501697682746,1.2383821371989039,-0.040524824171004364,-0.02781563006670604,0.23717937558358873,0.519338927303033,-2.472314091790041,-0.00480140073707536,0.010714600037194192,0.358574819567658,0.55442625744467,0.44955733772440765,0.4629741218905751,-0.46888461294725636,-2.3953938356373317,0.15288624871662762,-2.2560690454191383,-0.6074059532495804,-0.4863236879095373,-3.801266135089876,0.38470948360448387,-7.290618448040924,3.175374984741211,-5.999881744384766,-10.645952224731445,1.2842979431152344,3.3408470153808594,-3.21737003326416,-0.6548643112182617,-18.268396377563477,5.929840087890625,-0.9230756759643555,3.175374984741211,-5.999881744384766,-10.645952224731445,1.2842979431152344,3.3408470153808594,-3.21737003326416,-0.6548643112182617,-18.268396377563477,5.929840087890625,-0.9230756759643555
38,0.76,-0.007014923765712418,0.08581962728349907,0.7086837005885376,0.9956057264443331,0.004426925798279493,-0.00047669863065355944,0.09353829460517973,0.008725890712307977,-0.0017773828877817699,0.18734457853888356,-0.0341951486125196,0.1516085664149247,0.007102335073114124,1.4210837428969272,0.21138030864049154,-0.1580598207987271,-0.0337928551563455,-0.03482181037795958,0.2341073293558555,0.5254596175181325,-2.5984545434436352,-0.013572925805305726,0.0040147284860979375,0.34922988029577934,0.5450301477453309,0.3990069911573381,0.20935789593523624,-0.3173638461738959,1.145875238292947,0.26654226686428256,-9.546102123075901,-0.28750987048458737,-0.2924916940244363,1.695135494680913,-0.9315906774508743,1.5387369348734075,-1.0648565292358398,3.8433361053466797,4.7010650634765625,-3.956575393676758,-3.8157501220703125,0.8573446273803711,-1.403029441833496,15.68585205078125,-12.391548156738281,2.824127197265625,-1.0648565292358398,3.8433361053466797,4.7010650634765625,-3.956575393676758,-3.8157501220703125,0.8573446273803711,-1.403029441833496,15.68585205078125,-12.391548156738281,2.824127197265625
39,0.78,-0.008080803860407689,0.09063601853976087,0.7091423445312692,0.9953871095126738,-0.004887370274839346,-0.000832878975077797,0.09581191022213795,-0.009889413964903952,-0.0007215374897699946,0.1919241539999236,-0.06773673338203062,0.30537671377275255,0.021545519783534833,-2.517768303938388,-0.06872727436185452,0.5344782516041418,-0.0384405768686027,-0.03595468111987879,0.20627761581458376,0.5158160571177243,-2.6781526594429668,-0.01549882174676242,0.0030178717238411625,0.32858529561860256,0.5407655885011666,0.3766505105615828,-0.44514921374380495,0.14150018299977046,-2.8771900445660883,-0.8327555715732766,0.4648555888768223,-0.04333167976163962,0.12523895386833536,-2.821953714672987,0.3494306987035027,-3.158481526242049,-0.16726016998291016,-0.17005348205566406,-7.860567092895508,-1.2158031463623047,5.107610702514648,-0.9308624267578125,1.6963844299316406,-14.237298011779785,5.215785980224609,-1.0919456481933594,-0.16726016998291016,-0.17005348205566406,-7.860567092895508,-1.2158031463623047,5.107610702514648,-0.9308624267578125,1.6963844299316406,-14.237298011779785,5.215785980224609,-1.0919456481933594
40,0.8,-0.009202988653913594,0.0942517602421587,0.7089489288414104,0.995277569420209,0.004113105418672787,-0.005518725510540016,0.09682554333209847,0.007119210200360771,-0.011782107351721877,0.19391762473108326,-0.04576982857032199,0.09393015274420295,-0.018091676404627624,3.1079365873600073,-0.8561855486714796,-0.23755055727107793,-0.04266623069332999,-0.02453042692081386,0.22187217287525557,0.5047877035698258,-2.7456225027332035,-0.01068405443323967,0.01513757319521903,0.36125166432528105,0.5527494211333329,0.36280314346887754,-0.15297467777383278,0.8161067076462991,2.97454452963655,-0.5841816878834513,-6.447083035012848,0.45894542326462107,0.919442326317767,4.486992897827939,0.5562171268167488,1.2196363371691143,-1.6384429931640625,7.782711029052734,14.00875473022461,-8.889131546020508,-4.217988014221191,2.5271072387695312,-1.0529594421386719,19.898746490478516,-9.100959777832031,0.6108160018920898,-1.6384429931640625,7.782711029052734,14.00875473022461,-8.889131546020508,-4.217988014221191,2.5271072387695312,-1.0529594421386719,19.898746490478516,-9.100959777832031,0.6108160018920898
41,0.82,-0.009880503547235233,0.09805162229329731,0.7095530004815803,0.994535704685832,0.010852155303354722,-0.005555946823405725,0.10368266144936725,0.020436831636113366,-0.013301927940290592,0.2076182296274621,-0.02995568330334647,0.25561220158597797,0.0561951855474389,-0.9402337367336666,0.4273420833201533,1.3730569627837892,-0.042014106327826234,-0.024174318601834995,0.23868028615574888,0.4968025898388182,-2.798714380787855,-0.005266017687465652,0.017705690564698347,0.3686767630059201,0.5456152925161463,0.2936595125456394,0.19663461906758264,-0.4462909296923444,-0.3818545356983555,-0.14493121882571036,0.3786964280428612,0.11476193680532776,-0.36677602588582003,-2.294736326660331,-0.758084361260572,-7.169354377787214,1.8218727111816406,-5.507968902587891,-0.1422405242919922,-1.7422103881835938,3.345125198364258,-1.0901174545288086,-2.0928993225097656,-18.19636344909668,2.569133758544922,-2.830550193786621,1.8218727111816406,-5.507968902587891,-0.1422405242919922,-1.7422103881835938,3.345125198364258,-1.0901174545288086,-2.0928993225097656,-18.19636344909668,2.569133758544922,-2.830550193786621
42,0.84,-0.010681909725758689,0.10311642401856293,0.7094408040613878,0.9941173255436017,0.0025555141101475847,0.00016820882242045643,0.10827827163130226,0.005117410884629725,-0.00021897469434741594,0.2169821037334747,-0.04322559675845022,0.25134113556009063,-0.05031576178757885,-0.6386202281438612,0.8693743548208751,-0.24238830051921056,-0.03949480350927125,-0.03885809896393938,0.22356857891648046,0.5144454231598087,-2.9759863216756597,-0.015880326469564207,0.0028214887390919027,0.34490561067068803,0.5294930980588706,0.2677667778201073,0.08713441741775746,-0.9820415699619048,-1.178967691197066,1.5446404978110457,-16.186865594466582,-0.8825287333993626,-1.036040235071286,-0.38078408336917025,-0.8509175521052957,3.401270289702242,-0.02875518798828125,-0.14299297332763672,-7.053611755371094,4.281391143798828,-7.370540618896484,-2.066295623779297,-2.6448326110839844,6.351715087890625,-5.927700042724609,4.317985534667969,-0.02875518798828125,-0.14299297332763672,-7.053611755371094,4.281391143798828,-7.370540618896484,-2.066295623779297,-2.6448326110839844,6.351715087890625,-5.927700042724609,4.317985534667969
43,0.86,-0.01185514083388967,0.10808949774847919,0.7090805834228329,0.9943091359477944,-0.003476879260055281,-0.0013053851688127308,0.10646853737570904,-0.007192224913158344,-0.001855557364471744,0.21334958364911086,-0.07077319964256393,0.25114457155336484,0.011417230219362827,-0.6319592435856726,-0.7333766527416502,-0.12768259395073026,-0.0423254241423282,-0.036629697606223935,0.19910759297519573,0.5103842734343429,-3.1129384325868794,-0.013500655435833541,0.004766077957998317,0.3438561849416952,0.534509404370729,0.27992312970073835,-0.30818016594664427,0.8614621962925316,-1.0845616615797498,-1.3199918874214953,0.45470706076947365,0.6847487152945189,0.8604318948278157,0.07514337110628086,0.9436147443167733,-1.5651923527168474,-0.8518829345703125,6.264867782592773,0.189056396484375,-6.553033828735352,7.546308517456055,2.1725540161132812,3.889118194580078,0.2309703826904297,-0.4721660614013672,-2.2996225357055664,-0.8518829345703125,6.264867782592773,0.189056396484375,-6.553033828735352,7.546308517456055,2.1725540161132812,3.889118194580078,0.2309703826904297,-0.4721660614013672,-2.2996225357055664
44,0.88,-0.012757991354155607,0.11247623573191748,0.7104302901998959,0.9937855750650676,0.0005704228239486087,-0.008394884751090393,0.11099293365079589,-0.0007298930465995695,-0.016812848620626993,0.22245824616571916,-0.023270999878072695,0.19570428248431485,0.10593897757992575,1.0291605761125646,-0.7450414440015981,0.9123017787159027,-0.036326450084639854,-0.019982809951232527,0.19747369535760195,0.47145255505559674,-3.111927637026932,-0.005934722503186921,0.022992434279449636,0.35191952482948585,0.5361632808031747,0.2231659748561201,0.6352471417930752,0.809657589646361,0.5701060120495925,-2.438944581563605,-0.2262528429439512,0.2162547161207684,0.9468163338230616,0.6394971472374301,-0.4920056316296053,-3.940505752815011,1.0506267547607422,4.761186599731445,11.316211700439453,-12.963043212890625,-1.4240026473999023,0.2146768569946289,-0.15012550354003906,-2.0567073822021484,-5.125925064086914,-1.3176193237304688,1.0506267547607422,4.761186599731445,11.316211700439453,-12.963043212890625,-1.4240026473999023,0.2146768569946289,-0.15012550354003906,-2.0567073822021484,-5.125925064086914,-1.3176193237304688
45,0.9,-0.013313665632284937,0.11715619632091953,0.7106448615664328,0.9921941775967389,0.0039015258243248895,-0.008061498652999736,0.12438048190468004,0.005737613710867739,-0.016968505655910387,0.24936825481349076,-0.03665641935342919,0.25926989322922045,-0.048872171004941234,-0.18169258584322118,0.3978151267666878,1.6837119468822455,-0.031506579693815914,-0.023202279598829326,0.21679241195672788,0.46994627344232087,-3.141894394953367,-0.012709897762640575,0.0224634252100115,0.3532448655174765,0.5468665741994457,0.18180756318727703,0.05904994316544521,-0.5134166095428919,1.248512019451261,1.5037717792355656,-2.6887738747986614,-0.6799295527066164,-0.6205811856062107,-0.5824290086209851,1.302239407227881,-0.13118877104155396,0.06164741516113281,-5.930498123168945,3.2177276611328125,3.4601593017578125,-0.8478631973266602,-1.7935199737548828,-3.6539535522460938,-5.743120193481445,5.743312835693359,1.8169784545898438,0.06164741516113281,-5.930498123168945,3.2177276611328125,3.4601593017578125,-0.8478631973266602,-1.7935199737548828,-3.6539535522460938,-5.743120193481445,5.743312835693359,1.8169784545898438
46,0.92,-0.013921119787900655,0.12164964987129008,0.7092924045395387,0.9917813191025177,0.006799271155181552,-0.0012505059488799532,0.12775766601617258,0.01316775443187489,-0.0042177874113847776,0.25619396219278,-0.010426114012248997,0.19888162793287903,-0.06488718775859513,0.8281504534063676,1.0070167956689144,-0.7106144448453892,-0.05234434876097384,-0.0377140857973215,0.23585804127050178,0.5112682846008132,-3.344759879894041,-0.007389852330256715,0.0057217470060323935,0.35587735158616407,0.5375379079721898,0.12795845970115013,-1.6989027515102155,-1.139765467561524,0.6029209935059708,2.336523657179694,-16.01769574204024,0.7791661580528271,-1.1135733129094303,0.6695429541936486,-0.7891211914020304,-3.855601620519993,-4.320154190063477,2.874053955078125,-6.702714920043945,6.320526123046875,-5.700933456420898,3.4301414489746094,-4.434215545654297,13.379173278808594,-13.977632522583008,-2.806483268737793,-4.320154190063477,2.874053955078125,-6.702714920043945,6.320526123046875,-5.700933456420898,3.4301414489746094,-4.434215545654297,13.379173278808594,-13.977632522583008,-2.806483268737793
47,0.94,-0.015304597893562949,0.12694364785101467,0.7086371094480922,0.9930111390873332,-0.001370301142576505,-0.0015457381764193074,0.11800258733072495,-0.003086267344773253,-0.0027464757469367945,0.23656109400325243,-0.10795860241959516,0.31981108133614283,-0.008101325018586267,-1.9716590987538616,-0.5031466633053376,-1.2037344471977625,-0.05401377757084214,-0.03820280366065856,0.19623572150540491,0.5108996158637231,-3.559523046219654,-0.014424047721365407,0.003902149588838861,0.3468461266246746,0.5463862820837149,0.09425190981649104,0.9008267940303504,0.6533834797099747,-3.5559086957454706,-1.391359244820875,-6.584330202022828,-1.043603146184941,0.49519829227981493,-0.9718152317485964,1.096573935883693,-0.49191908937240747,4.424047470092773,2.771221160888672,-10.619733810424805,-4.850643157958984,4.659021377563477,-4.291016578674316,3.723491668701172,-5.569095611572266,4.787708282470703,2.1653671264648438,4.424047470092773,2.771221160888672,-10.619733810424805,-4.850643157958984,4.659021377563477,-4.291016578674316,3.723491668701172,-5.569095611572266,4.787708282470703,2.1653671264648438
48,0.96,-0.016448168116577816,0.13244165705480976,0.7097479174419982,0.9931672875855363,-0.007082774128574618,-0.006466077313721173,0.11630461308480115,-0.015574434172487555,-0.011196508259058453,0.23323481588656161,-0.024105683480766932,0.24436747116851235,0.10957284312507237,0.28822696438688666,-0.40473121838421633,0.5810957393590662,-0.0528094106038534,-0.027570780544626357,0.17080344943556905,0.479597763410503,-3.579960806703273,-0.010216669654353985,0.014192436297292643,0.3362302544310009,0.5426310251046685,0.06069664788482163,-0.48160870333361255,0.4861541271986057,0.26494258618573485,-1.8018097274645324,3.3994482046337056,0.9404210489803257,0.5662723473925967,-0.2946934828943064,-0.9994647588873359,-2.60532457692862,-2.860616683959961,3.8929443359375,14.642799377441406,-12.02497673034668,3.4487686157226562,3.676311492919922,0.43361473083496094,-4.391605377197266,-6.6927490234375,-1.0905351638793945,-2.860616683959961,3.8929443359375,14.642799377441406,-12.02497673034668,3.4487686157226562,3.676311492919922,0.43361473083496094,-4.391605377197266,-6.6927490234375,-1.0905351638793945
49,0.98,-0.017326060897819108,0.13739482488233462,0.7099834765331375,0.9924586672818699,0.0008294183011370161,-0.01004230946979729,0.12216487966223906,-0.0008074720916622548,-0.020137166647196676,0.24496224660474197,-0.06142386296038795,0.24563627122493703,-0.057701513544646095,1.0060338589877849,-0.5301181453002068,0.6061991543298295,-0.03523751377910505,-0.01894844667759752,0.1986467721294707,0.4706920286394594,-3.5744144387069925,-0.021256940722606595,0.022652330002598767,0.36202470830344213,0.5585620140294935,0.032580686604804385,1.654942820452764,0.4827879625222209,1.992443381905141,0.3995201939253614,-2.2003699473474225,-1.4249124415546615,0.33295877168484783,2.093929957466322,1.8237090114501124,-0.20673236861990485,4.176799774169922,-0.7191028594970703,5.933769226074219,-1.272134780883789,-2.623826026916504,-3.9588918685913086,-0.9527616500854492,3.8318557739257812,5.1149139404296875,1.1140670776367188,4.176799774169922,-0.7191028594970703,5.933769226074219,-1.272134780883789,-2.623826026916504,-3.9588918685913086,-0.9527616500854492,3.8318557739257812,5.1149139404296875,1.1140670776367188
50,1.0,-0.01758342461006577,0.14211022284456018,0.710348181061834,0.9918577554434892,0.007133286193105027,-0.0016097017385893254,0.12714054449703996,0.013741698485312998,-0.005007071009850349,0.2549436356869241,0.028773129727789976,0.226001206606764,0.07847105701357611,0.6867423851144916,1.7139598727006498,0.29128144256846045,-0.04704851599655794,-0.03631233672436399,0.22680940964769036,0.4939839872385108,-3.692960689185233,-0.024813757184624318,0.004223597210179067,0.355421057606803,0.5221176856184155,-0.05795296900546963,-1.8616218970438938,-1.901989984258184,1.042280160623639,1.6126270526503799,-8.857798141690356,0.41925118172299886,-1.8401050316493788,-1.7704477310140387,-3.5227849644270712,-7.405300380677178,-5.847280502319336,-3.604156494140625,1.0754737854003906,1.3576812744140625,-3.108485221862793,3.6399765014648438,-7.19016170501709,-2.3626976013183594,-16.992992401123047,-4.278841018676758,-5.847280502319336,-3.604156494140625,1.0754737854003906,1.3576812744140625,-3.108485221862793,3.6399765014648438,-7.19016170501709,-2.3626976013183594,-16.992992401123047,-4.278841018676758
51,1.02,-0.01819375363847722,0.14812048490781163,0.7106787990977782,0.9927826498065286,-0.004320575347731197,0.005804126220340145,0.11970904306112774,-0.00718980066358731,0.012559225665574618,0.23995478879473955,-0.06521817622935164,0.3471789415819644,-0.0531014814856236,-2.1663670448296384,0.37495939029927594,-1.5143810623363756,-0.05667516558260835,-0.053851844261657095,0.1875373351309907,0.5052652361169884,-3.9127671651916107,-0.03771776156954298,-0.012335493090329705,0.33176311087389954,0.5445219594439049,-0.04377692830146453,0.3646409039394648,-0.2111919985215305,-3.9645293392147387,0.0931580365058732,-12.399941674621214,-1.3691992357789766,-0.17714074481191747,-1.0147467939622274,3.812445328753301,7.532720238043533,3.471546173095703,1.3762950897216797,-17.998653411865234,3.6481094360351562,-0.9591646194458008,-4.833791732788086,3.8199234008789062,0.9249858856201172,10.200679779052734,6.307609558105469,3.471546173095703,1.3762950897216797,-17.998653411865234,3.6481094360351562,-0.9591646194458008,-4.833791732788086,3.8199234008789062,0.9249858856201172,10.200679779052734,6.307609558105469
52,1.04,-0.019769423891112962,0.15331563304344442,0.709530501270376,0.9940762340190245,-0.006381418960346778,-0.003562687249448272,0.10843904144803658,-0.013460527706822571,-0.005699206390121104,0.21734957848520797,-0.09753202017239856,0.1988828467011276,-0.06099946008239789,0.9381153719616497,-1.8300313236507857,-0.9210473727827091,-0.06401374777870575,-0.03160446309330241,0.1597375303452727,0.4848986087341265,-4.023941224569747,-0.029980758401470655,0.015238143174280436,0.3348243835860685,0.5613014365473973,0.019242048594398754,-0.8536496281049274,2.082960520582569,0.2975382150238261,-1.7746604946379023,0.06184584920636382,1.427180776457001,2.4381233457143807,0.992034566374921,-0.9419340333540378,-0.3868072455267326,-3.36196231842041,8.273059844970703,10.765411376953125,-12.44594955444336,5.160133361816406,5.115350723266602,2.942758560180664,4.974590301513672,-6.302257537841797,-3.2128477096557617,-3.36196231842041,8.273059844970703,10.765411376953125,-12.44594955444336,5.160133361816406,5.115350723266602,2.942758560180664,4.974590301513672,-6.302257537841797,-3.2128477096557617
