step,time_s,torso_x,torso_y,torso_z,quat_w,quat_x,quat_y,quat_z,roll_rad,pitch_rad,yaw_rad,body_vx,body_vy,body_vz,body_wx,body_wy,body_wz,l_hip_roll_pos,l_hip_yaw_pos,l_hip_pitch_pos,l_knee_pos,l_wheel_pos,r_hip_roll_pos,r_hip_yaw_pos,r_hip_pitch_pos,r_knee_pos,r_wheel_pos,l_hip_roll_vel,l_hip_yaw_vel,l_hip_pitch_vel,l_knee_vel,l_wheel_vel,r_hip_roll_vel,r_hip_yaw_vel,r_hip_pitch_vel,r_knee_vel,r_wheel_vel,l_hip_roll_torque,l_hip_yaw_torque,l_hip_pitch_torque,l_knee_torque,l_wheel_torque,r_hip_roll_torque,r_hip_yaw_torque,r_hip_pitch_torque,r_knee_torque,r_wheel_torque,l_hip_roll_ctrl,l_hip_yaw_ctrl,l_hip_pitch_ctrl,l_knee_ctrl,l_wheel_ctrl,r_hip_roll_ctrl,r_hip_yaw_ctrl,r_hip_pitch_ctrl,r_knee_ctrl,r_wheel_ctrl
0,0.0,-0.001124329590954694,-0.0007370426073517285,0.7077127354231947,0.9992509374793288,0.03814370603127939,0.004148514465642062,-0.005040978537075474,0.07626521989232475,0.008675485969703781,-0.009758447725238172,-0.12459915355922949,-0.3203114883301713,0.2360495033119413,9.59749511813507,0.39131462467471817,-0.9845549079207383,0.0807216519873809,-0.0052399183970314855,0.4144740165058437,0.5839758724918689,-0.3085316681291994,-0.09263797914387889,-0.021075736429062932,0.40654036833414514,0.5363847975986945,-0.3236385260805633,7.076350913669092,0.5913534972248851,7.878867357707316,-1.863009898123908,-25.17354518374583,-7.926122395650452,-2.4390070947642313,7.396669121589426,-7.0402733298861975,-27.923897706580547,15.0,-1.8607416152954102,30.0,-30.0,-15.0,-15.0,-15.0,30.0,-30.0,-15.0,15.0,-1.8607416152954102,30.0,-30.0,-15.0,-15.0,-15.0,30.0,-30.0,-15.0
1,0.02,-0.003991044073595082,-0.003935898482910725,0.717044625905277,0.9981979880301779,0.05953964023992611,-0.0012535533045745886,-0.007364545927451385,0.11916514959639048,-0.0016256246589223715,-0.014852387755257929,-0.15659248330625383,-0.05342229809968239,0.5873852243767131,-2.5768816975550255,-0.9541317137963392,0.4271177620682889,0.06002667037422845,0.0005392035555907919,0.3511163531211327,0.42981215380382604,-0.4635962654189468,-0.08618468858102121,0.00023699161886213578,0.40153826034121753,0.5768614993248288,-0.4674657909583875,-5.710258948053607,-0.22334683332286187,-9.570433505411982,-11.387927928019876,6.0084701926941655,4.976125561384093,3.198407511717169,-5.264691701186017,7.3468250945516385,9.174706800675203,-15.0,-15.0,-30.0,-21.497047424316406,15.0,15.0,15.0,-30.0,30.0,15.0,-15.0,-15.0,-30.0,-21.497047424316406,15.0,15.0,15.0,-30.0,30.0,15.0
2,0.04,-0.00644044275007075,-0.003307013409326245,0.7273944746752922,0.999961307612846,0.006478281157865062,-0.0027046213988850196,-0.005300959680674336,0.0129852852570561,-0.00534037667103635,-0.010636904002525762,-0.10427536720339724,0.09356004008786904,0.4203017255317032,-7.176340711687391,0.2299744213703795,-0.04033301509492604,-0.06270151252244266,0.009763067252508483,0.16488393669283474,0.4333851695164574,0.044777615116160574,0.014838963031637807,0.013797737734088447,0.13153394839429897,0.48714149599537754,0.10938928791908675,-6.49146739468919,1.6077777195438976,-9.764191357636514,6.800400764859351,41.08502715218823,5.279621683334414,-1.2652249174111734,-18.142050224141574,-11.03885813003249,44.640759654725855,-10.316543579101562,15.0,-30.0,30.0,15.0,7.763641357421875,-15.0,-30.0,-30.0,15.0,-10.316543579101562,15.0,-30.0,30.0,15.0,7.763641357421875,-15.0,-30.0,-30.0,15.0
3,0.06,-0.009632184326610328,-0.005731954880834749,0.731134299237667,0.9996282755372734,0.022480931712241845,-0.003913744414113872,-0.014919821057512965,0.04507835324656451,-0.007153817220891007,-0.030009791225106844,-0.20212299454841395,-0.2645282504470545,0.02306777945321923,7.239270950413735,-0.3091618585607042,-1.581539827420632,-0.04119396044216839,0.02377121471084606,0.14411669374718963,0.3924377853497853,0.45355231257993583,-0.030277995732236926,0.02389751725802272,0.024315876754986164,0.2447108821180343,0.5856504610054932,5.287678856573712,-0.18083091221566852,4.583354711081196,-7.515765066380049,3.779607087720147,-6.497841867171751,1.6517213358558,2.5784789993870145,-13.33885511927209,7.032037840143234,15.0,-15.0,30.0,-30.0,-15.0,-15.0,15.0,30.0,-30.0,-15.0,15.0,-15.0,30.0,-30.0,-15.0,-15.0,15.0,30.0,-30.0,-15.0
4,0.08,-0.013423440207342666,-0.007823601452631355,0.7304155702509606,0.9991211605790401,0.03082971705492165,-0.0001030794903201569,-0.028397612648332255,0.06165021874392769,0.0015450035406286433,-0.056782243156020144,-0.17631156099587253,0.002718374415989388,-0.09101062436898771,-3.3136195802832913,0.8914680922932732,-1.037177203900876,-0.07028658451275704,0.01764202885932936,0.05018497248265812,0.21711033417375805,0.9216302550423582,-0.003673572532555942,0.01230611049224126,-0.022696891020649645,0.21992972206411496,1.113143846887457,-5.332385190259401,-0.3880732117223773,-10.34150556521299,-9.00890650605003,39.20409116660882,5.647034354408651,-2.1927710705519683,-5.867251305082736,5.853669023519553,41.99420917236918,-15.0,3.0124855041503906,-30.0,-9.935659408569336,15.0,15.0,-15.0,-30.0,30.0,15.0,-15.0,3.0124855041503906,-30.0,-9.935659408569336,15.0,15.0,-15.0,-30.0,30.0,15.0
5,0.1,-0.018861680210211937,-0.009116493069811372,0.7281710488332843,0.997840540264616,0.03514782136531144,0.003301644380794294,-0.05538940333740638,0.06983868254277122,0.010482854926320832,-0.1105385241188508,-0.4633561555738904,-0.054169583026996405,0.15054566789877585,2.0878719880267016,-1.3578577166559407,-4.581198191544007,-0.054446446489559694,0.007364556952360796,-0.09025887576720533,-0.06521214595853686,1.9455393583940948,-0.03716325091464927,0.016980207434383547,-0.07284605342703332,0.15871909774209733,1.5394234925558081,3.1856604672335833,0.7211645687434454,-4.3590779743025925,-19.292635430641432,54.50935294312096,-5.6396428434912975,3.1163841007274096,-0.45664929098557927,-8.149778721099603,4.632361955746786,15.0,-11.892724990844727,-7.776374816894531,-26.691308975219727,12.167060852050781,-15.0,15.0,20.16606903076172,-30.0,-15.0,15.0,-11.892724990844727,-7.776374816894531,-26.691308975219727,12.167060852050781,-15.0,15.0,20.16606903076172,-30.0,-15.0
6,0.12,-0.027351978816066918,-0.00674793916719023,0.7303627621065281,0.9951778379090985,-0.001691899901193764,-0.0036134225536826343,-0.09800587526645999,-0.0026592876908680873,-0.0075236993311624065,-0.19631846558427687,-0.3891810522057752,0.23820131504392686,0.05392782377260555,-7.380336743259929,-0.8264809909520486,-4.155813874424975,-0.11564208631520471,0.04447008208714575,-0.2109571948418809,-0.14314779805631098,2.5971718105445962,0.002169507112322666,0.0377490309578161,-0.21816121256996407,0.06028692002876194,2.022960864630227,-6.467846834412681,3.1550896846519554,-7.684634313372844,4.946080497958493,15.372540096204858,6.269598266158159,-0.6606334130173634,-11.706174178384787,-2.708379590418458,39.92762050227315,-15.0,15.0,-28.70464515686035,30.0,-15.0,15.0,-15.0,-30.0,3.6470947265625,15.0,-15.0,15.0,-28.70464515686035,30.0,-15.0,15.0,-15.0,-30.0,3.6470947265625,15.0
7,0.14,-0.03608986250251168,-0.005246623229660469,0.7279455567159823,0.9894273398477107,-0.0008156574328471606,-0.0111325954852523,-0.14459923645233258,0.001605860886199032,-0.022267515707388393,-0.29025197078895604,-0.4803390653179858,-0.03252380473653784,-0.24798154353574628,4.919386558620874,-0.6423891047960134,-5.053322442981668,-0.09249867483339659,0.05656037972250718,-0.19743871271545135,-0.14335339468272335,3.2945139963410086,-0.037962645321826693,0.07535192241520533,-0.23343430678326926,-0.013459377571397526,2.407002610481562,5.4035239123540935,-1.174870182292734,5.898901052612983,-3.1469929921528133,50.534507177471966,-6.581195909049281,3.2887502509333535,6.084310495699421,-4.812598824784263,2.506702869499845,15.0,-15.0,30.0,-16.701431274414062,15.0,-15.0,14.866327285766602,29.604598999023438,-15.222131729125977,-15.0,15.0,-15.0,30.0,-16.701431274414062,15.0,-15.0,14.866327285766602,29.604598999023438,-15.222131729125977,-15.0
8,0.16,-0.04441375937929522,-0.0026357837234873274,0.7228040370006675,0.9833578289158287,-0.011648036449591358,-0.018892394254395792,-0.1803185542204521,-0.01610955600169992,-0.0413684801012825,-0.36237767921469444,-0.4141581287042614,0.26658019552510964,-0.18030102354766445,-5.043936351049612,-1.7095376823766457,-2.672202204291536,-0.12684790484832198,0.07567534019957609,-0.1433451346224678,-0.020753206739892366,3.8675178812824855,0.003991004872686686,0.08918202599749722,-0.2439782307267218,0.05898466434812613,2.8472541661776303,-5.780445791425297,2.6478912520693783,0.3926533590301958,11.023493345132348,10.040796112209328,6.971965278701634,-0.46279974666719115,-5.226335480985636,8.768366239466589,37.75209643426178,-15.0,15.0,-7.433572769165039,30.0,-15.0,15.0,-15.0,-29.473920822143555,30.0,15.0,-15.0,15.0,-7.433572769165039,30.0,-15.0,15.0,-15.0,-29.473920822143555,30.0,15.0
9,0.18,-0.05663198985026174,-0.0002002684501879109,0.7217305497338773,0.9768583600648822,0.001907314416437326,-0.034032829224442895,-0.21115367166603025,0.018138830768500085,-0.06573235982017331,-0.42635778658269496,-0.7739706559981805,0.052024329733953,0.07700784103738871,5.811299065156313,-0.9660718461036745,-3.6151615722636947,-0.10265262014553672,0.08336195836469253,-0.05070217883907652,0.006346126105831611,4.447543718628379,-0.0017223648950395474,0.08201989693390556,-0.22016699844320464,0.029353656729263267,3.191405754049135,4.982805716913411,-0.8434906482134801,7.7910713037459844,-4.481932861231734,43.67363402856958,-4.314612739986044,-0.5337824553747013,5.570059580457115,-7.537767959262986,0.625055236445037,15.0,-15.0,30.0,-24.011882781982422,15.0,-15.0,-15.0,30.0,-30.0,-15.0,15.0,-15.0,30.0,-24.011882781982422,15.0,-15.0,-15.0,30.0,-30.0,-15.0
10,0.2,-0.07004756023819514,0.0051113451523904195,0.7226948841324745,0.9668182604133342,-0.006932013390142906,-0.030796444546400514,-0.253507352013692,0.002214666062609182,-0.06310563875659998,-0.5129399185905162,-0.5964384686633684,0.40117949476632686,-0.0009137928663530241,-5.623143319561085,0.7212911184448803,-4.783840203316885,-0.0813128905640365,0.05946443856599778,-0.028114480798987852,0.07469730242394611,4.889824779235339,0.05342474662031867,0.0069320253535157025,-0.21657565094502942,0.09388383407270648,3.5948879967415444,-1.147766574288102,-1.6481596409053507,-3.614638756325675,8.412106952044743,5.15362643141538,6.515716111883675,-5.852616047318668,-3.40292857955186,9.43832635732653,35.95772198563826,-5.346820831298828,-5.268059730529785,-30.0,30.0,-15.0,15.0,-15.0,-18.73929786682129,30.0,15.0,-5.346820831298828,-5.268059730529785,-30.0,30.0,-15.0,15.0,-15.0,-18.73929786682129,30.0,15.0
11,0.22,-0.08349974267564096,0.009751658126470858,0.7201486399362917,0.9570525471576565,-0.006676060068776152,-0.027356383490720195,-0.28854372369419,0.0030131142733981126,-0.05624531444871338,-0.585734908557117,-0.6602723619945285,0.05279355069223771,-0.043936692239132956,3.162542111010048,1.1675610633556603,-2.455986667380913,-0.006456860000780721,0.012025624475315242,-0.010371473493118106,0.05249973935593332,5.389458031046255,0.020205399034853223,-0.036287944693399826,-0.2582558804965077,0.028130661534130734,3.8929622591238693,6.537926399087507,-3.629933451514665,4.111617433966771,-6.726025622598243,40.904891369509905,-6.507641089498382,0.13580445790121554,-1.3274249458158298,-10.048827456329017,-4.028182813340387,15.0,-12.131328582763672,30.0,-28.937999725341797,15.0,-15.0,15.0,1.522146224975586,-30.0,-15.0,15.0,-12.131328582763672,30.0,-28.937999725341797,15.0,-15.0,15.0,1.522146224975586,-30.0,-15.0
12,0.24,-0.09533872160851553,0.011828589811477832,0.7241414838925297,0.9414381288542538,-0.003936166273818327,-0.026359112519987613,-0.3361308574374358,0.010323207027131194,-0.05230092163818649,-0.6861350524087468,-0.5305230794677603,0.11548657563712192,0.3281650228003606,-1.8879952454057032,-0.30125416012841233,-6.733756422782806,-0.011059723934624713,-0.003165461939544267,0.008489028918757626,0.09062417073830316,5.786462204250739,0.03857358223375114,-0.03514443666640961,-0.1725328893233177,0.110826134115704,4.079709633013897,-4.246977681222547,0.4701355483980711,-1.607399316051168,6.843741042437579,2.8957656101694913,5.024291353459541,-0.009092721394132003,7.5693216495985896,12.01367213952888,20.53563443851564,-15.0,15.0,-30.0,30.0,-15.0,15.0,10.615720748901367,30.0,30.0,15.0,-15.0,15.0,-30.0,30.0,-15.0,15.0,10.615720748901367,30.0,30.0,15.0
13,0.26,-0.10541210422478961,0.013397395932979813,0.7283231252698648,0.9292466629664383,-0.013394171232264732,-0.02734478678854626,-0.36820306649759,-0.004764908636287744,-0.06072096009334315,-0.7543738581469672,-0.47565429267640924,0.04571469554477995,0.16272501727578192,-0.44222345924062184,-0.33015977674321045,-0.8293421872422333,0.022445044752171683,-0.004621889646058904,0.008516437288018734,0.08830815766647193,6.241527630914841,0.0009056042454233092,-0.007905621567857811,-0.1329879892794584,0.1414196617164233,4.443476773758935,5.0968322811199895,-0.8005847697515265,1.4157163617038768,-4.1664673834984,38.71009091352848,-5.704458748006929,1.4667872995158366,-1.2113912176502297,-4.182747056774046,15.145466329668105,15.0,-15.0,30.0,-24.86060905456543,15.0,-15.0,15.0,-30.0,-5.622171401977539,-1.219970703125,15.0,-15.0,30.0,-24.86060905456543,15.0,-15.0,15.0,-30.0,-5.622171401977539,-1.219970703125
14,0.28,-0.11426265364235963,0.013480888063371568,0.7330779119250677,0.9160367664094826,-0.027218125902767395,-0.016354352048033295,-0.3998354053576166,-0.03684516276108065,-0.0517510128927663,-0.822161016194769,-0.418643594998825,-0.02057001170117167,0.2516697035323397,-2.6225804638586387,1.0503836414301686,-5.3414063453408644,-0.004201762695037263,-0.019678867792857754,0.0017409090788970847,0.15270257063693204,6.596590485838131,0.030221001029388836,-0.02219658060498767,-0.09927764123356375,0.15483691902508012,5.064642859306884,-5.08929149671857,-0.4098735849459636,-1.9659954829368256,7.542465305859402,0.9129403768576099,5.554169336135405,-1.738564877849433,3.598067756164682,3.177092550267395,44.740834079798354,-15.0,15.0,-30.0,30.0,-15.0,15.0,-15.0,30.0,-0.5205955505371094,14.323150634765625,-15.0,15.0,-30.0,30.0,-15.0,15.0,-15.0,30.0,-0.5205955505371094,14.323150634765625
15,0.3,-0.12129603839562712,0.013162255110918236,0.7357318622834016,0.9078462229440578,-0.04579500301230222,-0.002470789734186999,-0.41678765382794225,-0.08125331631099926,-0.042672727702108615,-0.859048193911041,-0.3037359276878205,-0.021711575051237476,0.02989954168118322,-2.1770016117704074,0.16735753877104984,0.9729399385222743,0.026240820785859542,-0.03468377930928062,-0.021329733337340916,0.13456576904915798,7.013574323465593,0.0032033633007379873,-0.020971663137320896,-0.04962927380802138,0.28581577330772023,5.532726572131122,5.389356611277302,-1.1615288176540468,-0.017957289820088762,-5.801488305158588,36.864252699773076,-5.354311920003296,1.3563699476112396,1.1521755945903798,8.700242949818085,6.473174482922847,15.0,-15.0,30.0,-30.0,15.0,-15.0,15.0,-30.0,30.0,-15.0,15.0,-15.0,30.0,-30.0,15.0,-15.0,15.0,-30.0,30.0,-15.0
16,0.32,-0.1299549304543789,0.009535744058542657,0.7329915556710132,0.9140157600591801,-0.025164361051814972,-0.007599353792764898,-0.40482612949045843,-0.03988239837246564,-0.03427294934435688,-0.8331998379651913,-0.5142565493326297,-0.28977218560126017,-0.285102343591848,4.980775052573504,0.4615457455178802,1.2887249234903746,0.015682633786232515,-0.03487726030617503,0.17576870540050252,0.26076259974650595,7.333304961299116,0.020388940696474893,-0.029570832574450024,0.02058182703800269,0.2612199583799236,5.403866236276025,-3.876418290576679,0.4810883280751074,15.53928140434284,12.528339763146771,-0.7758128166590232,4.547408532548996,-1.364491999389866,5.594339079453355,-7.038631488106117,-16.874524461882803,-15.0,15.0,30.0,30.0,-15.0,15.0,-15.0,30.0,-30.0,-9.807958602905273,-15.0,15.0,30.0,30.0,-15.0,15.0,-15.0,30.0,-30.0,-9.807958602905273
17,0.34,-0.13690064594343693,0.007247651587474819,0.7301085421427582,0.9136186623838501,-0.036716285552592244,0.007388127758608977,-0.4048435125914545,-0.07314627232065357,-0.016229549687365903,-0.8336432539618112,-0.23409517043357725,0.006953510763077861,-0.11401882800713453,-5.909188218932348,0.9755460827811084,-0.6311999736253415,0.02772368160760061,-0.04936401593164161,0.1924444628293583,0.23070008123378477,7.716088719631445,-0.006365468761990524,-0.04859009304725366,0.01878826598681048,0.32735211474079995,5.485348546317613,3.335662655418914,-1.2737552434387436,-7.667822584956781,-8.61861601628262,35.12431259384785,-4.589133187458527,-0.2290830746138735,-3.999581214491539,8.318054487030231,19.784787623768096,15.0,-15.0,-30.0,-21.627384185791016,15.0,-15.0,15.0,-30.0,30.0,15.0,15.0,-15.0,-30.0,-21.627384185791016,15.0,-15.0,15.0,-30.0,30.0,15.0
18,0.36,-0.14411834552465125,0.003039612706547441,0.7243592257420133,0.914588041934925,-0.03495923755895536,0.01999593497969785,-0.4023763509989412,-0.08012694923629626,0.008442645449949902,-0.8292745152220025,-0.43571752057772756,-0.4197505693593183,-0.2543177059479878,3.243677814266083,2.2058395382143536,0.7360912914267432,0.006768846158015655,-0.06539149971042915,0.29208984456549825,0.33461048163386276,8.001850834388513,0.012278235750241982,-0.08114624054929205,0.020790575500078845,0.3283676351039273,5.503627596112878,-3.648472659125726,-1.2815633413946004,12.090084038658908,12.225842948740466,-2.4395011518181917,2.790107841364465,-3.013303063674511,2.0843681666381713,-0.12258603006383606,-9.209995015043189,-15.0,15.0,30.0,30.0,-15.0,15.0,-15.0,30.0,-30.0,-15.0,-15.0,15.0,30.0,30.0,-15.0,15.0,-15.0,30.0,-30.0,-15.0
19,0.38,-0.15223861832778324,-0.003473166605946728,0.7183018942874191,0.9077493393458107,-0.007867526104817231,0.009233439732394015,-0.41933755202812606,-0.02203025933246485,0.010165174420964441,-0.8656109414451882,-0.39587932276729887,-0.2654499557973821,-0.3857849064554681,2.786061153992616,-1.4589301412485582,-3.340960354745243,0.050290068542603705,-0.023237026273840333,0.39485226163225196,0.31923913907551893,8.307060826836059,-0.022026108043930945,-0.07336667004007537,0.17909575219656615,0.5271349684326788,5.68137387943428,5.500506141198575,4.812095832864066,1.0947721783639073,-7.6473658602787555,29.460904185902606,-4.56192083958568,2.7470236027023742,11.047593385882566,15.464891284445189,24.767079222710446,15.0,15.0,-15.866174697875977,-18.39255142211914,13.279422760009766,-15.0,15.0,30.0,30.0,15.0,15.0,15.0,-15.866174697875977,-18.39255142211914,13.279422760009766,-15.0,15.0,30.0,30.0,15.0
20,0.4,-0.16000239733378235,-0.010966310456803432,0.7095688201905666,0.9047069189801853,0.010149810732281512,0.016214624793622606,-0.42560481439274134,0.004566473566228201,0.03798771891463527,-0.8793457157713663,-0.32678817058028603,-0.5183820619103175,-0.2686618503954469,0.13666776410561554,4.501339344676346,0.9663929477858647,0.01815661260879571,-0.027285323219197494,0.5232507118893975,0.44777561801775206,8.482193244792837,-0.005794533039547946,-0.09825299357316938,0.18696082563689276,0.4962555782732385,5.773659153439086,-5.379533115042472,-4.668758276295911,9.019537080494013,13.895193930427972,-7.857592282588305,3.384351416161742,-5.029302259664969,-5.238863937492507,-5.880189316171628,-10.927614600926962,-15.0,-15.0,30.0,30.0,-15.0,15.0,-11.895639419555664,-30.0,-30.0,-15.0,-15.0,-15.0,30.0,30.0,-15.0,15.0,-11.895639419555664,-30.0,-30.0,-15.0
21,0.42,-0.16577126333251754,-0.019278628301580572,0.7044594360881088,0.8966915024542813,0.017693532428304144,0.03169756441590642,-0.44116499492433703,0.0037734962024259643,0.0725209590139369,-0.9143044410506083,-0.28024972405222714,-0.34978050657069065,-0.3160572637516176,0.1741463605841382,-0.33131583388890756,-3.541671099877174,0.04568274845258386,-0.020744547381248896,0.5223301834871891,0.3783067543236505,8.376717282161712,-0.0261835628186479,-0.1236099348351794,0.24030296145244232,0.6505919340121051,5.917432006571499,5.197141288675391,3.7101711145433525,-5.152525667397535,-12.866449175344659,-3.255516152227558,-3.796662523066177,1.6731629968806083,6.813527607982604,14.750912492358927,23.17796135374756,15.0,15.0,-30.0,-30.0,1.6603450775146484,-15.0,15.0,30.0,30.0,15.0,15.0,15.0,-30.0,-30.0,1.6603450775146484,-15.0,15.0,30.0,30.0,15.0
22,0.44,-0.17263213416315434,-0.024076371896832954,0.704400166156685,0.8908996129738321,0.003848970067602553,0.0246167250140331,-0.45351635238663346,-0.015488075699058627,0.04737091807264737,-0.9420966185252331,-0.368319524442292,-0.3026115131633606,-0.057437670047181595,-1.0569183878510064,-0.6967140333513004,-0.7308075238378621,0.0012054986292668428,-0.0191127271631484,0.5342791576582971,0.5137061853410778,8.076596124848031,-0.002748250718914203,-0.0652725660728821,0.21651623126808434,0.6335122286255087,5.977008005979711,-6.0132003079465575,-1.9247667481441866,3.3021029614557444,13.562775952002232,-30.667329867131524,4.280287841401565,2.7699043998829183,-5.402333955924828,-9.40521414525511,-13.32946817022923,-15.0,-15.0,15.737934112548828,30.0,-15.0,15.0,15.0,-18.81431007385254,-30.0,-15.0,-15.0,-15.0,15.737934112548828,30.0,-15.0,15.0,15.0,-18.81431007385254,-30.0,-15.0
23,0.46,-0.18024921338203315,-0.02868326798088257,0.699434295267586,0.8830909903541114,0.012044627894900796,0.006912974558631519,-0.4689962051840268,0.01479331441611958,0.023509506194955003,-0.9762363104016831,-0.3891512976055878,-0.1880182814967868,-0.39383138337822515,3.1589977208423656,-1.3767078623572917,-2.101804257141154,0.02871203226257453,0.004688745497382475,0.5574068714764723,0.49818902336607346,7.878937701642616,-0.027973553469035076,-0.018432329547982945,0.30684299237552926,0.7171884297213101,6.110024166847121,5.553862222990703,3.110917082049572,0.1033808556904367,-8.837523587761723,6.79553346172342,-4.606535675616993,1.5781725595801475,10.303913816461105,11.467132438574298,22.776209172103425,15.0,15.0,-1.2388191223144531,-30.0,15.0,-15.0,-15.0,30.0,30.0,15.0,15.0,15.0,-1.2388191223144531,-30.0,15.0,-15.0,-15.0,30.0,30.0,15.0
24,0.48,-0.1861358181439817,-0.029958787428123395,0.6973312023815477,0.8744051918800463,-0.01318892220410648,0.021217348365263254,-0.48455282155061213,-0.043653550828889075,0.024326059318256474,-1.0125807565167924,-0.23269974671779506,-0.008329679242743394,-0.019339566154836958,-6.476035568785901,1.349027058882931,-2.0432000430671056,-0.015501400712027857,-0.02279657970164177,0.48433178799376986,0.5721620881627218,7.652286120305214,0.0014523769534740983,-0.03657993449974563,0.23231471404922,0.6601571070894379,6.16107821074761,-6.348556721097802,-3.9767976062171195,-6.930882490204839,9.672421294308183,-26.81335699722812,4.995388364623306,-3.0564896106010537,-11.56643859865872,-10.616178251788881,-13.764207878038222,-15.0,-15.0,-30.0,30.0,-15.0,15.0,-15.0,-30.0,-30.0,-15.0,-15.0,-15.0,-30.0,30.0,-15.0,15.0,-15.0,-30.0,-30.0,-15.0
25,0.5,-0.19203470765897604,-0.03180410106617877,0.6948658818829533,0.8673913985918938,-0.018653157941607584,0.015793816582798274,-0.49702593162263775,-0.048079456843555295,0.008856750692251667,-1.040891316086163,-0.3719765299435453,-0.03584059822154506,-0.1651107867898453,3.6386034509706597,-3.1558744974271575,-1.1220562129606404,0.008830143298906577,-0.005915010408715192,0.47381192232688424,0.5894594371364283,7.549926894550107,-0.0302496770783533,-0.012839182878619574,0.2839583355318315,0.7807387574783894,6.311108479075898,4.82089142729583,3.9342645423557676,4.002279625055474,-2.682103304416078,13.522421939768147,-5.140043273044897,4.380784276299013,10.581832342511259,12.463766518159359,23.347714121791334,15.0,15.0,30.0,-30.0,15.0,-15.0,15.0,30.0,30.0,15.0,15.0,15.0,30.0,-30.0,15.0,-15.0,15.0,30.0,30.0,15.0
26,0.52,-0.19913145712081706,-0.03433462074368371,0.6911027416499675,0.8718486284360195,-0.008537127517491814,0.00942534536645618,-0.4896103036218736,-0.024118782877217127,0.008075305434341465,-1.0234737436340575,-0.344544621336904,-0.18491234240145246,-0.23972579289730384,-0.19623404359184102,1.9103919874497846,2.040171501276139,-0.029808864099223106,-0.029080183938639703,0.5876839971285117,0.7440937230356304,7.415192664059524,-0.012992302755274542,-0.01453193243914266,0.26949809050712314,0.7243610186868934,6.3733526035754045,-5.623250230053101,-4.459076712757915,6.623508720066533,13.439065785227628,-23.004616548546984,4.413817648714331,-2.9066071547880457,-7.224704349510258,-11.259036279648312,-13.219629060791286,-15.0,-15.0,16.026512145996094,30.0,-15.0,15.0,-15.0,-30.0,-30.0,-15.0,-15.0,-15.0,16.026512145996094,30.0,-15.0,15.0,-15.0,-30.0,-30.0,-15.0
27,0.54,-0.20430971051992133,-0.03663403501673134,0.6894697993534308,0.8684630231628412,-0.014518785713115604,0.008992410764967531,-0.4954597045259157,-0.034135466229066644,0.0012322062297572469,-1.036915394205428,-0.247141609397755,-0.030823056999505757,-0.1423350497893541,-0.37091617048597664,-2.439506018278281,-2.5519203482961417,-0.007027529112784616,-0.031108958032236737,0.5494707248455466,0.6911925520960838,7.365957635395259,-0.03763184460925901,-0.0005052719662222462,0.3132022406875461,0.8660391394493719,6.483169447136044,4.9609462040142525,3.186508390569531,-6.572123782030822,-11.595038592622798,14.02396674005085,-4.298231732249354,3.7336085375999533,6.951625405738803,13.909663971615215,21.51084714493969,15.0,15.0,-30.0,-30.0,15.0,-15.0,15.0,30.0,30.0,15.0,15.0,15.0,-30.0,-30.0,15.0,-15.0,15.0,30.0,30.0,15.0
28,0.56,-0.2101433095717191,-0.040665221267017174,0.6839512898968125,0.8687686250145581,-0.007305410029580877,0.015421246341224515,-0.49492412785789286,-0.027967113373922558,0.019564990770891865,-1.0359345325105345,-0.32039455466652716,-0.3067359300073559,-0.3854517037198783,0.83058968045766,2.9977535094587933,1.7645422099536243,-0.03287198119238219,-0.07004536415975217,0.588080567983403,0.7657194119320269,7.240500178793554,-0.017455855157255777,-0.01951617169839232,0.3061955065349415,0.8454263031683041,6.509943879231612,-4.826694003244889,-5.106457973304931,6.9288716697093875,12.089233887354784,-22.560106973904002,4.195312314688455,-3.8856204569732,-4.460533930154216,-9.502885712112805,-14.943185281649555,-15.0,-15.0,30.0,30.0,-15.0,15.0,-15.0,-20.289173126220703,-30.0,-15.0,-15.0,-15.0,30.0,30.0,-15.0,15.0,-15.0,-20.289173126220703,-30.0,-15.0
29,0.58,-0.21568295863615286,-0.04326758352951764,0.6789325565473185,0.864379596642723,-0.004962460484571128,0.008796139392876516,-0.5027384159038202,-0.017425004743311417,0.010216945544903148,-1.0536757887243238,-0.19869009907552249,0.12106260745694408,0.12099832376744224,-0.5963312184065536,-3.7991930716544813,-2.2592241851033728,-0.012392502083171098,-0.06750888138067908,0.5842828886996192,0.7336678485562763,7.202013113619536,-0.03444222268686162,-0.004537110097988087,0.3492140583413692,0.8585222545758343,6.600759011377349,3.577466600977965,4.392592076641365,-2.4260709460945367,-4.714461270442536,14.693166894937367,-3.8750791534268125,4.6317995331970705,5.408809434749941,6.432790609992469,19.955693850083122,15.0,15.0,-30.0,-30.0,15.0,-15.0,15.0,30.0,10.3751220703125,15.0,15.0,15.0,-30.0,-30.0,15.0,-15.0,15.0,30.0,10.3751220703125,15.0
30,0.6,-0.2198324765065821,-0.04490307597590958,0.6820507705739842,0.8686302728075186,-0.011472677201247875,0.014944555060787207,-0.4951025016238616,-0.034739893112646116,0.014602802496102652,-1.0363616208899968,-0.21225037074653266,-0.24140271462965945,0.20859750754789885,-0.9122565419148009,2.9819126278573442,3.1440021643911935,-0.055014660989530284,-0.09244900891383798,0.6422079798654816,0.8343947725694681,7.091126605686918,-0.012703428881987187,-0.014037091811599298,0.297680235377633,0.8136628200824825,6.629019411365047,-5.344878996722986,-4.907253558941363,6.219867417585354,10.226779959722034,-21.79989950881095,4.005371262727042,-4.111283443085576,-7.597246040253605,-6.154701190329537,-13.028189548093858,-15.0,-15.0,30.0,20.00030517578125,-15.0,15.0,-15.0,-30.0,-30.0,-15.0,-15.0,-15.0,30.0,20.00030517578125,-15.0,15.0,-15.0,-30.0,-30.0,-15.0
31,0.62,-0.2240134906819029,-0.047992219535833644,0.6881029140328232,0.868322006858684,-0.00963972530141852,0.018208442426030362,-0.4955728208098554,-0.03480348861460579,0.02206900219337313,-1.0376147855240834,-0.2000849632911236,-0.11797987920396977,0.3751593717003956,0.5603047464384279,-1.1535109939106265,-2.1317811531724074,-0.035011503888055455,-0.10024037480197735,0.6296021173018497,0.7409170691572244,7.064916891726149,-0.03675883326602029,-0.01762302858206377,0.2656561471462444,0.746272764856072,6.751771698022945,4.713670275335904,2.4016852220144367,-4.839671075652535,-13.127694875646368,15.136136556357805,-4.133858972508475,2.2131917988215597,2.3646061026318734,-1.8510489641642007,21.158954186855333,15.0,15.0,-30.0,-30.0,15.0,-15.0,15.0,30.0,-14.370460510253906,15.0,15.0,15.0,-30.0,-30.0,15.0,-15.0,15.0,30.0,-14.370460510253906,15.0
32,0.64,-0.2295372047039501,-0.05547930247349288,0.6934917752702117,0.8685592699046928,0.01846783322079245,0.008864696539696421,-0.49516174221562625,0.02331724499614692,0.03369453298033863,-1.0358883450538543,-0.332649989744287,-0.5479822883937115,0.19132732381185355,4.578054223110321,1.6646947761428974,1.4910861758929919,-0.02419285786849728,-0.07747997400138855,0.7194911791476427,0.7698525656755263,6.961111662529732,-0.01598775650240187,-0.02821814501094692,0.2906373910903792,0.6697546743262617,6.853301470583951,-1.9664150752150635,0.6233641417737701,10.128080421345445,9.44729060849813,-21.50592958062222,4.168173050746053,-1.9433862011319962,0.3444229504753379,-5.469730385990707,-7.782415901506896,-15.0,15.0,26.9130859375,30.0,-15.0,15.0,-15.0,9.113815307617188,-30.0,-15.0,-15.0,15.0,26.9130859375,30.0,-15.0,15.0,-15.0,9.113815307617188,-30.0,-15.0
33,0.66,-0.23562406880369421,-0.0620500322180532,0.697037271038658,0.8577646431797733,0.04862652550018086,-0.009763677305486043,-0.511644357472971,0.09359882750955452,0.033015097828903765,-1.0741165661226477,-0.29032862340665266,-0.19332759689782125,0.13747640988450557,2.9121669329749036,-1.3757586806206423,-4.160922447074574,0.0018638175625300141,-0.044988404589059214,0.7361687656486163,0.6709842638795805,6.940312968213811,-0.036309749612045146,-0.01714479036913976,0.41570508599842043,0.7980576474164329,7.091194577251195,3.289055133292615,2.0807602535905536,-4.815418956602307,-12.98314027943333,15.39187134303432,-4.036541311985823,1.9705385950712628,9.643846858038257,12.902196419464467,27.92143989825453,15.0,-6.54473876953125,-30.0,-30.0,15.0,-15.0,15.0,28.419353485107422,30.0,15.0,15.0,-6.54473876953125,-30.0,-30.0,15.0,-15.0,15.0,28.419353485107422,30.0,15.0
34,0.68,-0.23998402527946025,-0.0670972021176772,0.7012524334526208,0.8386647710560546,0.03382910705696633,0.005343796269302698,-0.5435700848525923,0.05100858606643422,0.045756253011563504,-1.1489621401083387,-0.16666053076228923,-0.28294437017370083,0.21823208014804366,-5.003544321229233,1.4030107860662515,-3.7079832527872734,-0.04321569991994745,-0.07024568383733074,0.5743306153584751,0.6256280387046469,6.840810006700967,5.4710459323183136e-05,-0.011675990448946261,0.3484714626459786,0.7669524287805328,7.242464634528343,-5.589170357572101,-2.647229182975263,-10.424538672895892,4.095636792635789,-21.32870884163411,5.168843743327166,-1.0032522209000247,-10.84672153218077,-9.528868158347136,-8.862045778572341,-15.0,-2.430283546447754,-30.0,24.73133087158203,-15.0,15.0,-8.373255729675293,-30.0,-30.0,-15.0,-15.0,-2.430283546447754,-30.0,24.73133087158203,-15.0,15.0,-8.373255729675293,-30.0,-30.0,-15.0
35,0.7,-0.24463584335338756,-0.07141527104635796,0.7012313874937384,0.8241286472188438,0.029362535921017282,-0.009799923775173866,-0.5655561650371478,0.059525632591271554,0.017060358149193752,-1.2023646659253715,-0.27608825441111773,-0.14176427940030453,-0.08242490936901453,3.8055436297793745,-3.8490100805996197,-1.5131061470555958,-0.016452343124687935,-0.02300344503439406,0.5317965655906264,0.5907359884244309,6.823428121410651,-0.025161034407196085,0.043148686659935105,0.3813219293147535,0.8305584856835326,7.462544250339838,5.049407218139661,5.1807084397653655,3.04683179844228,-4.8709436718921255,16.045131507251348,-4.936634351207168,5.543065557591983,8.741110255606024,10.011693323710682,27.030409531271886,15.0,15.0,30.0,-30.0,15.0,-15.0,15.0,21.405189514160156,30.0,15.0,15.0,15.0,30.0,-30.0,15.0,-15.0,15.0,21.405189514160156,30.0,15.0
36,0.72,-0.24836404645597232,-0.07449783921003571,0.7032914278476138,0.8138711698140582,0.011680035381091776,-0.010619482995431936,-0.5808308895882706,0.031353689056559914,-0.003717539977773305,-1.2397342081357479,-0.12140516621808453,-0.14392078759217278,0.2135513205677922,-4.664682411827915,0.5361731945966162,-2.200650347122751,-0.01068429267609772,-0.002761475045139496,0.4603411296856515,0.5578646476946881,6.816910866048379,0.0015333171621487174,0.077480240180611,0.2967048258601871,0.7614263204920664,7.596315991325749,-2.240780827986097,-1.3030352296841452,-7.5477473954066445,0.8377273770969786,-13.153640811021734,4.943819174535453,-0.9153689420416997,-11.802977058208542,-10.865363323890396,-9.720597931060201,-5.682555198669434,-15.0,-30.0,7.721889495849609,-11.924168586730957,15.0,-15.0,-30.0,-30.0,-15.0,-5.682555198669434,-15.0,-30.0,7.721889495849609,-11.924168586730957,15.0,-15.0,-30.0,-30.0,-15.0
37,0.74,-0.2538761287332122,-0.07598299393777139,0.7062020671080849,0.802271060519374,0.027942285600215742,-0.02880934827302789,-0.595609264183019,0.07924233742825286,-0.012940805636335529,-1.2777568721310695,-0.3759113472801088,-0.010122427755489041,0.09272038599354024,6.98961870925356,-1.3343901163563292,-1.6152422591352726,0.052492101324806535,0.015221718593298633,0.4835328571190128,0.49561408574108734,6.988199685097441,-0.040722214464649985,0.06441503319882218,0.26711331614896555,0.5088835027503427,7.804341141627176,6.149138509819402,2.590804217061573,6.692124619890584,-6.312905712644465,25.52504091927818,-6.120762029891465,-0.8740616859115216,4.8829761035513926,-14.15483968158403,26.583259422259097,13.380578994750977,15.0,30.0,-30.0,15.0,-15.0,-15.0,30.0,-30.0,15.0,13.380578994750977,15.0,30.0,-30.0,15.0,-15.0,-15.0,30.0,-30.0,15.0
38,0.76,-0.25662576011145094,-0.07872220997083401,0.7152135735588007,0.7939835620051592,0.024606166118882583,-0.014931511484468269,-0.6072575152431772,0.057240671278857985,0.006173848465652076,-1.3056653048425388,-0.02173680596065611,-0.09789577764449048,0.4341965083319231,-5.932939844614793,1.0071304532342096,-1.5396402783100374,0.02467417701087292,-0.030315667117139317,0.44483147449594374,0.5061681027922212,7.115090387122808,-0.0007807707690690342,0.05082512355574094,0.24848272388060275,0.5347738564710244,7.863770986453446,-5.869075151238693,-4.117595629857183,-7.329814666452483,4.936934547958048,-8.962051851456653,6.054023431484814,-0.6008810741309213,-5.758166318526836,7.3274298500362995,-13.63859860983654,-15.0,-15.0,-30.0,21.886905670166016,-13.823684692382812,15.0,3.9025230407714844,-30.0,30.0,-15.0,-15.0,-15.0,-30.0,21.886905670166016,-13.823684692382812,15.0,3.9025230407714844,-30.0,30.0,-15.0
39,0.78,-0.2600610472149343,-0.08215474115579992,0.7200283185255002,0.7914104170889814,0.03928827594929814,-0.010593760186859535,-0.6099293035599114,0.07521658022110399,0.031163160973559978,-1.3120464260039113,-0.27379917736903003,-0.22034748712387556,0.088939986375899,5.359463935449757,1.3901131733656005,0.4172236428314264,0.06320466119249812,-0.05126133755981903,0.4504398846334144,0.44058670305953396,7.339773795425291,-0.02784106007765271,0.019248254181538804,0.24670242616109694,0.4800435603236888,7.997326739882355,6.383852795626269,0.9572816923869296,5.448923129382535,-8.439648599460627,27.456142246029426,-5.450123522883992,-2.3544328057924173,3.607548533713135,-8.762774095734684,22.99080101742628,15.0,15.0,30.0,-30.0,15.0,-15.0,-15.0,20.64331817626953,-30.0,15.0,15.0,15.0,30.0,-30.0,15.0,-15.0,-15.0,20.64331817626953,-30.0,15.0
40,0.8,-0.2626672785099393,-0.08625115807029049,0.7216638332694127,0.794027243528517,0.02881428527259651,-0.002241381782759384,-0.6071947378777567,0.04852357193135657,0.03143750650263547,-1.30492624131285,-0.032204788644577695,-0.19038313746488159,0.05876941566157244,-5.673013745480799,-0.965791299209904,0.2003184987015453,0.04508570630309876,-0.03831525099208976,0.42368998430311605,0.4669193282268595,7.474923418624078,0.00887473901648973,0.022168519202355384,0.1581292581015228,0.3888357560275007,8.047330199438846,-5.0117110647952074,0.7177299717963214,-5.861571461320056,7.2042604265599754,-9.862777439751904,5.871794738725038,1.773280712789076,-9.470023776529699,-1.7892185479251326,-13.971610502401791,-15.0,1.7308406829833984,-30.0,30.0,-15.0,15.0,15.0,-30.0,6.785243988037109,-15.0,-15.0,1.7308406829833984,-30.0,30.0,-15.0,15.0,15.0,-30.0,6.785243988037109,-15.0
41,0.82,-0.2650267363272346,-0.08935871818311984,0.7193374138063642,0.7884799693431696,0.0170280628719122,-0.0033657662906745414,-0.6148154638887188,0.030999974717223946,0.015631190675165607,-1.3242965473500474,-0.17921779882065347,-0.14195416087931345,-0.24716978677934193,2.2724582219950045,-0.625910966877815,-1.5692429165898223,0.0850665196383999,0.013172872267971182,0.34749130604482764,0.38674094173549073,7.681851420431514,-0.012469908677041683,0.037329827092189564,0.15231361575712773,0.40090354769307845,8.171331670212956,5.955351307433038,3.5379857654798412,-2.364974395417039,-10.490458398737823,26.570470490797547,-4.998705032895184,-0.026822580347103386,5.414443130112311,1.485661234739101,22.43916483665852,15.0,15.0,0.8745746612548828,-30.0,15.0,-15.0,-15.0,30.0,-2.5395889282226562,15.0,15.0,15.0,0.8745746612548828,-30.0,15.0,-15.0,-15.0,30.0,-2.5395889282226562,15.0
42,0.84,-0.2669466986198189,-0.08816136601776278,0.7229317659542769,0.7771090553487455,-0.012207766080596183,0.01188733969803973,-0.6291352618453396,-0.0339376992334959,0.0031148514642494575,-1.3611683487871662,-0.06685191455584416,-0.04269792379897422,0.31705177711063065,-6.1497866622055595,1.5472277075212064,-1.6650052887576703,0.03483204377422582,0.004679588413057595,0.2203529754036294,0.3109494115204474,7.776391671980987,0.016124760137781805,0.018893297409062825,0.02017658475386152,0.23779558983520765,8.231678205731532,-6.265121771953874,-3.4230758444572498,-9.825994387733276,-1.5455195970134332,-11.661037466411543,5.032477817689236,-2.23042743058236,-13.88758619034305,-10.03366800987251,-9.291038738545943,-15.0,-15.0,-30.0,6.1490631103515625,-15.0,15.0,-12.156018257141113,-30.0,-30.0,-15.0,-15.0,-15.0,-30.0,6.1490631103515625,-15.0,15.0,-12.156018257141113,-30.0,-30.0,-15.0
43,0.86,-0.2688364436244991,-0.088912685143472,0.723633328576397,0.768505557504756,-0.018818985886154122,0.017459438672491095,-0.6393279454675524,-0.05127226306094707,0.0027723476880253946,-1.387867213063603,-0.1271191615152592,-0.03997632520853595,-0.16822748077699656,2.271817176684263,-1.135568463941212,-1.1144150209803596,-0.04514622067691256,0.002808905312765787,0.2644099011618748,0.49735118536317774,7.94279740573114,-0.01869848151131486,0.03607600709908432,0.02955758972601441,0.33165435462830356,8.42179451788861,-2.8505289617566123,1.9507258086496073,9.081194786131244,14.776739237955823,24.438867099485456,-5.485421628960305,3.0845617742888694,8.369538129905017,12.593228205872594,25.502475415566984,-4.510504722595215,15.0,30.0,29.70846176147461,15.0,-15.0,13.133216857910156,30.0,30.0,15.0,-4.510504722595215,15.0,30.0,29.70846176147461,15.0,-15.0,13.133216857910156,30.0,30.0,15.0
44,0.88,-0.2734202706522376,-0.09080916611679321,0.7203343237860567,0.7509204366852257,0.008535274735543602,0.0005130753419924465,-0.6603373256202865,0.012142197730137912,0.012043169621626002,-1.4425268962206068,-0.2951026544311494,-0.11432721684493001,-0.1948413956541402,3.9922938127449634,1.7745700890922298,-3.91733864430955,-0.004311941068056737,-0.007015144018102829,0.33629167283038786,0.49504406066838497,8.027282349545262,-0.0036240447467195923,0.03351095336462515,0.12150744177965588,0.31513401877243347,8.527141364683095,4.883586488196549,-2.3095170210228293,0.8762697034220154,-8.385564430063082,-12.099176452202938,4.279928352467841,-2.2567779339759912,3.0032358724889514,-8.321275408722189,-11.068751436376031,15.0,-15.0,-2.3549861907958984,-30.0,-15.0,15.0,-15.0,10.37136459350586,-30.0,-15.0,15.0,-15.0,-2.3549861907958984,-30.0,-15.0,15.0,-15.0,10.37136459350586,-30.0,-15.0
45,0.9,-0.27466397839588497,-0.0896826220887684,0.7217716589784635,0.7376461897813571,-0.016727550949035573,0.0063292370203550455,-0.674950537816686,-0.03323090166390736,-0.01324345099676951,-1.4818679490713231,0.10946439597792557,0.16202733639004796,0.25729682725721936,-6.458892004113983,-3.3019889406240583,-0.5666992278094336,-0.025705164634139976,0.015795410468060263,0.18656640025108118,0.2957106453324616,8.197489502041494,-0.012951562732738824,0.06613843691751536,0.09287649186350619,0.3301384088883718,8.654720882407945,-4.55430925901404,3.6698408779631206,-12.670193387435441,-11.087848694377168,24.770349693156202,-3.326185463203053,4.25133359978829,-4.451266419232759,6.080408918764463,20.13398704626458,-15.0,15.0,-30.0,-21.6883602142334,15.0,-15.0,15.0,-30.0,30.0,15.0,-15.0,15.0,-30.0,-21.6883602142334,15.0,-15.0,15.0,-30.0,30.0,15.0
46,0.92,-0.2758189972634673,-0.08909961648652913,0.7232265627170673,0.727300656402168,-0.022146817712681788,0.0045247615035956335,-0.6859466452979505,-0.038442635837279845,-0.02380359443797571,-1.5118320178581643,-0.2068363669786367,-0.08563538789494857,0.024295791172788853,3.768566512815203,1.8851808412026645,-2.1261729481389797,0.004656378019638219,0.021022801702384224,0.21980034075822516,0.37982967627958103,8.281413103812657,0.0025558876063603774,0.0753623291830899,0.10164865414284556,0.315237042201971,8.70744210213681,4.964140204216062,-2.5487534721796585,9.935579526764938,12.069776392349251,-12.315860469406624,3.0914076874989953,-2.301312052485202,2.743872896939302,-2.273399259881197,-7.6440350182764245,15.0,-15.0,30.0,30.0,-15.0,15.0,-15.0,30.0,-30.0,-15.0,15.0,-15.0,30.0,30.0,-15.0,15.0,-15.0,30.0,-30.0,-15.0
47,0.94,-0.27976279633424084,-0.08844095832495281,0.7220193984507143,0.7174089235052077,0.006709446271621585,-0.007847160540376912,-0.6965757976539814,0.020560603653484815,-0.0019119713796572433,-1.5413508577326405,-0.18801009355237489,0.09670203115686811,-0.14499763764157256,2.525110476498384,0.5547731573761612,-0.7404811329352325,-0.008492572952012344,-0.008610182751270163,0.28957879066593034,0.34240328478339344,8.44056010727762,-0.034930118941414325,0.03125093696022023,0.2059215436609238,0.4501990073952775,8.951161672508043,-3.8327949979870235,-0.7202168686148874,0.11189809901373898,-9.511352616162197,24.23079414402209,-4.859934696189793,-2.3136860832095416,6.2985077093304875,11.730015324860773,28.1800868682611,-15.0,15.0,-1.246042251586914,-30.0,15.0,-15.0,-15.0,5.626781463623047,30.0,15.0,-15.0,15.0,-1.246042251586914,-30.0,15.0,-15.0,-15.0,5.626781463623047,30.0,15.0
48,0.96,-0.2817731722180051,-0.08837838828100367,0.7194372429193163,0.7003264669270326,-0.00646449482143031,-0.009131065272739693,-0.713735016427797,0.003980783903108387,-0.02201910524963788,-1.5898041788445063,-0.03627955565984566,-0.02842652508506626,-0.12598298638353705,-3.02326698172849,-2.394790986692519,-3.847086213982404,0.02255291716607334,0.028629998795214058,0.25310813344982036,0.3430044720909062,8.496525139506744,-0.0024028722982103994,0.04357648813780074,0.1598954104309118,0.4330402289949801,9.108028516932492,4.741411992079685,3.42915741147396,-3.473253266420352,5.574670846083738,-14.660066746029567,5.25935643865463,2.788978223336314,-6.958569250688697,-7.718755751361482,-8.56590006571039,15.0,15.0,-30.0,30.0,-15.0,15.0,15.0,-6.423343658447266,-30.0,-15.0,15.0,15.0,-30.0,30.0,-15.0,15.0,15.0,-6.423343658447266,-30.0,-15.0
49,0.98,-0.2837441775354993,-0.08729815003893152,0.7179182601905749,0.6817701779815216,-0.001381767721962298,-0.018217486526402336,-0.731338251643975,0.024773665638518287,-0.02686458851591475,-1.641255043178133,-0.09454150753911167,0.18517094192440922,0.11652544221072209,3.1538138930943633,-0.16660715171919904,-0.8668634407343327,0.0022002560536450878,0.024994776765717878,0.2669447403527083,0.3170947795439438,8.621967075538866,-0.028646243864978677,0.0448270456985561,0.24342696882832673,0.5097341602519394,9.26558999535995,-3.750564413774138,-0.5575499380283764,3.996688815989442,-2.9376674409668095,24.407946893818966,-5.137100929260863,-0.9002404316117139,9.543696134747554,9.44646381103425,22.474957098845703,-15.0,-15.0,30.0,-30.0,15.0,-15.0,-15.0,19.321842193603516,27.218952178955078,15.0,-15.0,-15.0,30.0,-30.0,15.0,-15.0,-15.0,19.321842193603516,27.218952178955078,15.0
50,1.0,-0.28290976306674026,-0.08601116937117305,0.7215694657914333,0.6686279833741287,-0.005759685106357764,0.011632906852657512,-0.7434837734306502,-0.025003144379239325,0.006991766231085857,-1.6768042403726027,0.12888691555083306,-0.005579053432161436,0.1713469772326749,-6.121255797183647,2.8940383469149626,-2.6273515995608605,0.019764206632852128,-0.02278469865577333,0.2394304255436303,0.4038297298895605,8.684635049152993,0.0016853104087742876,-0.02055373073106343,0.16612840245163063,0.42332100937097356,9.310821108651007,3.6893304651033203,-3.7182834364582655,-5.160516511377377,8.891241013577764,-13.412065109682832,5.226629472560571,-4.941294289625708,-11.436678114913104,-11.685418401078655,-14.049948943205333,15.0,-9.648555755615234,-30.0,30.0,-15.0,15.0,-15.0,-30.0,-30.0,-15.0,15.0,-9.648555755615234,-30.0,30.0,-15.0,15.0,-15.0,-30.0,-30.0,-15.0
51,1.02,-0.2832092709774237,-0.08372506924492767,0.7198520670403732,0.6581565768354057,-0.005179115489803009,0.010892966757000975,-0.7527844581327876,-0.023220033230907516,0.006541086773731897,-1.7048061246266297,-0.11316084714146776,0.1812259123389961,-0.2617773223294295,4.0788583646157575,-1.924906094028657,-0.31824305153415694,0.00928132595279589,-0.02495234047023212,0.2447104681409296,0.38466774051100333,8.822852420457092,-0.02702083932766503,-0.04116986633723123,0.22046644868328627,0.4905393748676733,9.429337058451516,-3.1956827172629074,2.4225970819470355,4.068959003427266,-6.85499835661906,23.23208024563294,-5.1565763130603255,1.5530971493352592,10.796281369601047,11.233382719110722,22.052755386411103,-15.0,15.0,30.0,-30.0,15.0,-15.0,15.0,30.0,30.0,15.0,-15.0,15.0,30.0,-30.0,15.0,-15.0,15.0,30.0,30.0,15.0
52,1.04,-0.2840294459149605,-0.0836848227982191,0.7161611900346865,0.6563874335016237,0.0026429415681597,0.02010848232329341,-0.7541513117005584,-0.02687573192807912,0.030388942995687104,-1.709602618474426,-0.0065508909005783265,-0.1903533459545495,0.03358834604005047,-3.0839676989118083,4.261318061784358,-0.3134624105603462,0.03092016213607553,-0.0478507440921665,0.30322200168001845,0.46637960681453655,8.880565896987358,-0.008493655715191051,-0.0806989243063238,0.19115847463202892,0.44112417486876027,9.482804364138893,3.7899385442416578,-4.4498413401310595,1.6083170890375857,10.395204834805984,-13.293182787444008,3.9784813359358737,-4.690790781297621,-8.614999199143563,-6.245276519250198,-10.928061090981902,15.0,-15.0,-5.072208404541016,30.0,-15.0,15.0,-15.0,-30.0,-30.0,-15.0,15.0,-15.0,-5.072208404541016,30.0,-15.0,15.0,-15.0,-30.0,-30.0,-15.0
53,1.06,-0.28630135987539124,-0.0844873834615978,0.7142727891338452,0.6617385962210789,0.024082272403775782,0.009727296065819745,-0.7492846282544936,0.017316945777653473,0.048982392224945735,-1.6943019775741706,-0.1791666975776896,0.08449741351137136,-0.12779479606973176,5.513885243809389,-1.7821511399262915,1.7554026511502947,0.022529823305639136,-0.06197042494489503,0.40202343431596155,0.48699011814045684,9.053023363295827,-0.04336648366854228,-0.09142940163186775,0.26351603685125485,0.5676583485316586,9.647984929072505,-3.120487989227683,1.9673989127774678,7.281314368738496,-3.447198435465006,27.17227140933044,-5.145954229352334,2.6566900944291842,10.497111152618974,12.982478502852539,24.35195122735275,-15.0,15.0,30.0,-30.0,15.0,-15.0,15.0,30.0,30.0,15.0,-15.0,15.0,30.0,-30.0,15.0,-15.0,15.0,30.0,30.0,15.0
54,1.08,-0.2877485782145157,-0.08473074187657083,0.7133234354282552,0.6663661358432184,0.017302766231445655,0.012798360986511312,-0.7453140205565554,0.003986030617454626,0.042861899942127135,-1.6824440366566642,0.0010624221907264177,-0.06436166483284948,-0.03171167957501603,-4.517023971633775,0.6344274660855462,-0.43725760577090256,-0.028587747415942617,-0.0663141701672795,0.4143760889766189,0.562381203371813,9.177140582673138,-0.015432650208326664,-0.06664299643957242,0.19553065545217707,0.524609733124137,9.730078804735554,-1.942642446579399,-1.3807747327583368,-3.842338442505648,8.307554997842608,-10.386007776309341,5.174040659132228,0.15959162009531813,-11.362490524122883,-10.248513310033738,-12.237899401166088,2.7371253967285156,-7.866794586181641,-30.0,30.0,-15.0,15.0,-2.1390256881713867,-30.0,-30.0,-15.0,2.7371253967285156,-7.866794586181641,-30.0,30.0,-15.0,15.0,-2.1390256881713867,-30.0,-30.0,-15.0
55,1.1,-0.2893131909513724,-0.08493818408206502,0.707277721642684,0.6649958496334816,0.015136974455739059,-0.009834070258661738,-0.7466288790535218,0.03482547034833078,0.009524316721555631,-1.6861600532747596,-0.1361367149275301,0.01341067578889974,-0.49939148648387166,5.37760971870417,-3.0527329842671485,0.40933537406291287,0.054753730054208236,-0.010174039364569188,0.45412961944475755,0.5328025147688502,9.374317476396362,-0.04146226148688587,-0.0020585510712451717,0.24713556124623431,0.605605440300268,9.884280917499451,7.330214391587292,5.8078491693609156,5.653749675704863,-7.299806725339888,26.115230744699012,-5.085651044368599,5.143874874882435,10.734322608092222,11.452747515837475,23.81094451357471,15.0,15.0,30.0,-30.0,15.0,-15.0,15.0,30.0,30.0,15.0,15.0,15.0,30.0,-30.0,15.0,-15.0,15.0,30.0,30.0,15.0
56,1.12,-0.28965411359430565,-0.0829491469262421,0.705409738694875,0.6682776953007944,-0.002583503133363785,-0.01527424563746792,-0.7437505932066377,0.019274328249756157,-0.024260219008659677,-1.6778284984639964,0.03072725738174255,0.05569183136269229,0.2662583538314596,-4.683604307451177,0.5944385651172254,0.6017523644175592,0.029478267643983147,0.02152508931788866,0.41793482745859195,0.48128396439078686,9.517555126048308,-0.015315501700577949,0.04590810583789333,0.17534634436852917,0.549691569855452,9.954200086013422,-5.309213745135547,-1.9233960148607234,-7.139557319572715,-0.797189253766921,-7.816188365122487,4.9216543677826925,-1.0399619312248132,-11.231156212843393,-6.52373466012696,-13.475527372599089,-15.0,-15.0,-30.0,0.6653957366943359,-15.0,15.0,-15.0,-30.0,-30.0,-15.0,-15.0,-15.0,-30.0,0.6653957366943359,-15.0,15.0,-15.0,-30.0,-30.0,-15.0
57,1.14,-0.2915361850170099,-0.08389030496488976,0.7098814890255858,0.6751697929244199,0.017727111255762262,-0.004328291464727374,-0.7374366183896204,0.030332202092682888,0.02030197326833244,-1.658590135135418,-0.18660229911061516,-0.1144243837088926,0.17808166055518598,3.946470126782027,3.2033810317241698,0.9641378994946493,-0.017231858417975053,-0.009597793857903932,0.4889623057366316,0.6519546594980957,9.758924639411733,-0.05053346328694537,-0.0028377139311787846,0.12019860017964318,0.41945437775381333,10.061157242462103,-0.6623221643395587,-1.349614107216427,9.713375632099613,13.242479475895705,28.102580312481308,-5.322187036822352,-3.193536325543646,2.212748549309796,-7.755022512519455,20.575470577545254,-1.54583740234375,15.0,21.859142303466797,30.0,15.0,-15.0,-15.0,30.0,-30.0,15.0,-1.54583740234375,15.0,21.859142303466797,30.0,15.0,-15.0,-15.0,30.0,-30.0,15.0
58,1.16,-0.2939530387659939,-0.08614057263026922,0.7135161379190844,0.6619034931358106,0.03202011247552671,-0.014094005772390823,-0.7487722198191881,0.06356490642077349,0.029297989338216274,-1.6928684939595602,-0.08595134159585584,-0.11408355670533958,0.14716208760467842,0.41554289075004425,-1.4464385148612189,-3.2051902815869213,0.058756437451996726,0.04449893699225319,0.46085737700628965,0.5978823842041918,9.914078935841946,-0.02138078438002862,0.00699313838135747,0.2324552532019514,0.5214482695635023,10.063269307041535,6.4008702506912165,5.111838354972007,-7.875073569290335,-11.40670738718482,-8.667407031748882,5.256460953717869,3.0647679542310575,7.434916426006014,12.077842540195888,-16.325715955208224,15.0,11.983428955078125,-30.0,-30.0,-15.0,15.0,15.0,16.753219604492188,30.0,-15.0,15.0,11.983428955078125,-30.0,-30.0,-15.0,15.0,15.0,16.753219604492188,30.0,-15.0
59,1.18,-0.2931564893421561,-0.08390630232814945,0.7246005021725572,0.6463641525833906,-0.004721538630240589,0.0004531882229908504,-0.7630143405916785,-0.006795446032108047,-0.006619402465357124,-1.7359316147883683,0.08792633770855492,0.17701266130874982,0.6147833648364073,-5.517647330429965,-1.1401433826217926,-1.5457551276832908,0.014607534192096495,0.07232617352690678,0.22791437363731218,0.34587193384641945,10.102773572755382,-0.036690482824767494,0.07350641226648766,0.1488729736775172,0.45443293280604213,10.14403669420037,-6.297539055406185,-0.3581953398340238,-14.616776249932114,-15.560842916425486,24.984212660917894,-4.2736957233107615,2.6917108551928863,-10.248625118771749,-11.732229711225603,20.38272103815781,-15.0,-15.0,-27.635133743286133,-30.0,15.0,-15.0,5.020757675170898,-30.0,-30.0,15.0,-15.0,-15.0,-27.635133743286133,-30.0,15.0,-15.0,5.020757675170898,-30.0,-30.0,15.0
60,1.2,-0.29328590044297537,-0.08072237172235423,0.7302155241261753,0.6338351635049072,-0.010073851199521281,0.00390604333148283,-0.7733926854142151,-0.01881430593158944,-0.010630710667850657,-1.768393774912777,-0.07194517522018162,0.14691211089961476,0.0763098651390368,2.3684246455352573,0.3994870643529117,-1.5989133628968348,-0.12365896116159897,0.059712496124030734,0.2191194899450285,0.3871108244399151,10.190264879385625,-0.020006849610389017,0.0812467832139363,0.14522304034713046,0.40582754823506656,10.143994329089084,-7.287383927752167,-1.164878564974889,7.512917990821982,11.367497291045602,-12.157201511994565,3.9945222715300277,-1.117875690574298,5.547072844374008,2.4529242857487974,-16.383812520430606,-13.006865501403809,2.699178695678711,30.0,30.0,-15.0,15.0,-15.0,23.55352783203125,9.105911254882812,-15.0,-13.006865501403809,2.699178695678711,30.0,30.0,-15.0,15.0,-15.0,23.55352783203125,9.105911254882812,-15.0
61,1.22,-0.29288454384173507,-0.07849445297887417,0.7306492108444528,0.6391462086857359,0.005196799484887795,0.010424756064839343,-0.7689970361833348,-0.009392456306828228,0.021320148571386175,-1.7548047816788819,0.07671469230695495,0.08328816019237097,-0.04319267766798065,-0.7285544986971426,2.531143537959987,2.5229981753852257,-0.14780360985807287,0.01068689721233753,0.25918388399071535,0.3815513688855185,10.352713894452329,-0.03647213666508653,0.023299621711948132,0.19287363652336506,0.528701139301266,10.217900516395659,2.425163056141192,-3.3373375998584116,-0.6216279897115164,-6.75615085003774,24.406416422368657,-3.8642073313220564,-4.325890822424565,-0.1169679795903602,8.493879372240684,19.870864040626806,15.0,-15.0,12.73984146118164,-30.0,15.0,-15.0,-15.0,-30.0,30.0,15.0,15.0,-15.0,12.73984146118164,-30.0,15.0,-15.0,-15.0,-30.0,30.0,15.0
62,1.24,-0.2919179637810536,-0.07755274757738222,0.7280416050674554,0.6315332697635403,0.005844606312775064,0.022714366978882055,-0.7749939530677449,-0.027848312896764173,0.03775779693392988,-1.77461191249449,0.03123534722002088,0.03757807792664866,-0.19835074853548676,-0.9337820664555491,-0.4723987938928453,-3.7116135252919378,-0.06153086093990515,0.001067290393052347,0.2508119285768497,0.4037159775323176,10.429174457266933,-0.016954083266009515,-0.004896714273415006,0.1834110807719822,0.5364673722855129,10.213146777413359,5.300461878437298,1.4797673982685917,-0.9643759624520546,5.707127955198116,-12.719238162111049,3.871055264075153,0.7854909241346527,0.040421830247143825,-4.389466207276192,-16.451412844589623,8.42768669128418,15.0,-30.0,30.0,-15.0,12.528676986694336,15.0,30.0,-30.0,-15.0,8.42768669128418,15.0,-30.0,30.0,-15.0,12.528676986694336,15.0,30.0,-30.0,-15.0
63,1.26,-0.29116597516471876,-0.07544865291339374,0.7217789005157448,0.6332100137336983,-0.004512798266869501,0.02306183325856982,-0.7736232060932037,-0.04141950550988014,0.022225386307089853,-1.7702137687103163,0.06546822326366118,0.1568996847816128,-0.2924707555908783,-0.7877360329785217,-1.4727420107035183,3.327570281657313,-0.08608596447494228,0.011711450241494382,0.24042929943109836,0.37277635491889016,10.5833845499246,-0.05465754590131218,0.031178533272046758,0.18241520222738372,0.5827155749867498,10.284862455632574,-4.803035738626953,1.029102470875489,0.5189130177599317,-3.753304074421161,25.438605267961535,-5.109588217692461,3.073326636774412,-0.9702508501424129,6.230433231728873,19.737870842204046,-15.0,-15.0,30.0,-30.0,15.0,-15.0,15.0,-29.446128845214844,30.0,15.0,-15.0,-15.0,30.0,-30.0,15.0,-15.0,15.0,-29.446128845214844,30.0,15.0
64,1.28,-0.29100312857418703,-0.07302675319390832,0.7148232011896531,0.6374858422064177,-0.00011896968566055361,0.00789751770318555,-0.7704215833209219,-0.01232143301329852,0.009885958850125089,-1.7591406171015707,-0.04399302099803055,0.09665043306022841,-0.45472049162747064,3.0333921771495325,0.18190647126773282,-1.66142318842096,-0.057864769072329895,0.027678932528876408,0.35541342254426217,0.48411131939263535,10.672845951448156,-0.043432091607203654,0.05156749258055637,0.20307363190157218,0.5480952811055072,10.277501909663107,5.17179981544699,0.3859121134477916,8.237658765606604,10.232909597933174,-12.164128864399432,3.85197422531182,-0.6387944776279647,2.8978391210692744,-6.518796928908563,-16.581790705628688,15.0,5.244724273681641,1.6979351043701172,30.0,-15.0,15.0,-15.0,30.0,-30.0,-15.0,15.0,5.244724273681641,1.6979351043701172,30.0,-15.0,15.0,-15.0,30.0,-30.0,-15.0
65,1.3,-0.28608689182516744,-0.06723323759037966,0.7119399370931077,0.6309593101252724,-0.02157803895408601,0.0317826708821828,-0.7748642455506197,-0.07656071169329773,0.006667091830336764,-1.775067952206321,0.4686447165199499,0.4205620669199834,0.09912233461651994,-7.311780020844043,-0.3453358223043837,-0.1760750640211865,-0.10469607442000924,0.019534827412981667,0.2839953092100051,0.4730310147473795,10.838684359983056,-0.06200645285378262,0.03373029738398381,0.15125431460132957,0.5846343035659913,10.34634698909329,-6.599112453813691,-0.20555208241670775,-10.29676319561001,-6.206895454711843,24.46836786508506,-3.874900341646204,-1.0515702216754412,-6.435362744522419,6.923435888496235,19.594536186059834,-15.0,-15.0,-30.0,-30.0,15.0,-15.0,-10.921853065490723,-30.0,30.0,15.0,-15.0,-15.0,-30.0,-30.0,15.0,-15.0,-10.921853065490723,-30.0,30.0,15.0
66,1.32,-0.2809555674556477,-0.06057607465608967,0.7090660567608661,0.6225785182029463,-0.026801805372942213,0.041016945205729786,-0.7810219344595674,-0.09760174145878191,0.009207072256331085,-1.796061425629632,0.11180818121266503,0.2886030350826545,-0.3119797543305647,2.934604747357964,0.5726108084245907,-1.6829935445628696,-0.0887630348189277,0.021606305543431913,0.3442419094363391,0.6004150827766962,10.915479852727767,-0.04012635283211745,-0.021072914807734357,0.14120177155901156,0.5565274163799975,10.336326200426871,5.007785735910356,0.27485181699034095,10.6830567059862,12.871960815295246,-12.644576558590352,4.268083015905336,-3.877384879509203,3.5642129544333216,-6.600196274759737,-16.709140322762973,15.0,9.26528549194336,30.0,30.0,-15.0,15.0,-15.0,30.0,-30.0,-15.0,15.0,9.26528549194336,30.0,30.0,-15.0,15.0,-15.0,30.0,-30.0,-15.0
