step,time_s,torso_x,torso_y,torso_z,quat_w,quat_x,quat_y,quat_z,roll_rad,pitch_rad,yaw_rad,body_vx,body_vy,body_vz,body_wx,body_wy,body_wz,l_hip_roll_pos,l_hip_yaw_pos,l_hip_pitch_pos,l_knee_pos,l_wheel_pos,r_hip_roll_pos,r_hip_yaw_pos,r_hip_pitch_pos,r_knee_pos,r_wheel_pos,l_hip_roll_vel,l_hip_yaw_vel,l_hip_pitch_vel,l_knee_vel,l_wheel_vel,r_hip_roll_vel,r_hip_yaw_vel,r_hip_pitch_vel,r_knee_vel,r_wheel_vel,l_hip_roll_torque,l_hip_yaw_torque,l_hip_pitch_torque,l_knee_torque,l_wheel_torque,r_hip_roll_torque,r_hip_yaw_torque,r_hip_pitch_torque,r_knee_torque,r_wheel_torque,l_hip_roll_ctrl,l_hip_yaw_ctrl,l_hip_pitch_ctrl,l_knee_ctrl,l_wheel_ctrl,r_hip_roll_ctrl,r_hip_yaw_ctrl,r_hip_pitch_ctrl,r_knee_ctrl,r_wheel_ctrl
0,0.0,0.000556503085752506,0.0023338887076530582,0.7035970819680384,0.9999632867923137,-0.008507954146154737,0.0007972812771560545,0.0006357093089447079,-0.01701511283607669,0.0016053218736087132,0.0012578074273176855,0.03830645630662237,-0.06255824435151992,-0.07174077253953906,1.53306491254704,-0.017872081211419616,0.17088064834872851,-0.01709100593448817,-0.0021637931008856785,0.34632652048685314,0.6166991466930871,-0.049003231118580036,0.001005444481212045,0.0009576448770377516,0.337504544500687,0.6165409434293316,-0.12682630470829293,-0.7404981002943425,0.0648752738443132,2.330683444188513,1.2010640743167116,-1.6433945006813602,-0.4129364678954091,0.10409475902395945,1.3602866914515903,0.8462531993012866,-8.67959994926753,-2.201812744140625,1.862417221069336,6.038017272949219,1.5907211303710938,-0.8691444396972656,-0.48126792907714844,4.490695953369141,5.8651275634765625,-5.695716857910156,-4.694972991943359,-2.201812744140625,1.862417221069336,6.038017272949219,1.5907211303710938,-0.8691444396972656,-0.48126792907714844,4.490695953369141,5.8651275634765625,-5.695716857910156,-4.694972991943359
1,0.02,0.001650536147209579,0.0018081111336930116,0.702630575008282,0.9999917808526307,-0.003316024236433091,0.0004257063549626808,0.002293683619659808,-0.006630092155657154,0.0008666176414612422,0.0045845240108975316,0.06724800672871556,-0.0010031024971099449,-0.035336266934726315,-0.14336946554336139,-0.06370773334870306,0.19420047370123605,-0.0324485579772945,-0.000274389598885566,0.3599096819263276,0.6304176912940345,-0.10736060504988465,-0.006559126291298612,0.004043638269445908,0.3399355326249006,0.6296697876689414,-0.2836348064929067,-0.7352008457547635,0.15859079807827425,-0.32643464483383455,0.49962360710464626,-3.9321831985734077,-0.38590123210881155,0.20625387669761264,-0.6375885407248596,0.5663922920917799,-7.184092259998142,-0.8944034576416016,-1.1030654907226562,-2.7781543731689453,-0.1873302459716797,-1.0844802856445312,-1.0445976257324219,6.145477294921875,-4.218189239501953,-1.8949851989746094,0.8252134323120117,-0.8944034576416016,-1.1030654907226562,-2.7781543731689453,-0.1873302459716797,-1.0844802856445312,-1.0445976257324219,6.145477294921875,-4.218189239501953,-1.8949851989746094,0.8252134323120117
2,0.04,0.0031587552945271853,0.0021788692271737307,0.703325098254884,0.9999708658342865,-0.007430932966359764,0.0002963899367383915,0.0017207181295801166,-0.014860962775247344,0.0006183357248818539,0.0034369385118142135,0.08386684823034757,0.035423852117351426,0.08159624527416715,-0.6109872327139694,0.032584170658250956,-0.2717123744825,-0.05770721815812899,0.0018521000427855557,0.3443170276255908,0.6223722899278662,-0.07919517638595687,-0.01909398232968362,0.007333200402656291,0.32242310133311586,0.6215864821482678,-0.32550061729211033,-1.584899907669984,0.07408286535588489,-1.0232975958740764,-1.003575719994664,5.633570889450196,-0.7665074013836694,0.14030782239257708,-0.96301563900042,-1.039185181403011,1.9617982603022368,-2.522855758666992,3.3592262268066406,-3.9863662719726562,-2.3167572021484375,4.652742385864258,-1.5869626998901367,1.7047252655029297,0.5019168853759766,-9.029487609863281,3.9859848022460938,-2.522855758666992,3.3592262268066406,-3.9863662719726562,-2.3167572021484375,4.652742385864258,-1.5869626998901367,1.7047252655029297,0.5019168853759766,-9.029487609863281,3.9859848022460938
3,0.06,0.0056933784248502884,0.0022861969741686966,0.7045423018085079,0.9999901918146066,-0.003472062575791136,-0.0007598826129091253,0.0026426567068462622,-0.006948136996548275,-0.0015013999448504972,0.005290568937874402,0.16212473367080507,-0.013073374794139999,0.049044105766730434,1.0381100464081026,-0.17211210722754514,0.3963108820044024,-0.07814441173507683,0.007990145739913782,0.3579659880761748,0.6061267296326047,0.02777880984353803,-0.013892565685062721,0.014256286726394255,0.3309710086703452,0.6051130085197284,-0.23841859308799015,-0.7369076060295654,0.4475181856500844,1.7615935617034195,-0.9013308693075691,5.008094445209755,0.8887777317794082,0.4644615806424592,1.2896137927674018,-0.7550434822966541,6.2494967923309845,-1.113229751586914,1.5304031372070312,10.163127899169922,-4.399778366088867,-0.48297119140625,3.0707931518554688,7.426504135131836,1.4122943878173828,-5.379051208496094,2.2536678314208984,-1.113229751586914,1.5304031372070312,10.163127899169922,-4.399778366088867,-0.48297119140625,3.0707931518554688,7.426504135131836,1.4122943878173828,-5.379051208496094,2.2536678314208984
4,0.08,0.008469034465533824,0.0029146741314661495,0.7055867599777673,0.9999717728765308,-0.003650706506349622,-0.005908398214749,0.0028664651938238705,-0.007335655476128071,-0.011795807174022298,0.005776342197746659,0.1219762187351908,0.06183473534583542,0.04879943251217285,-0.702881030413564,-0.7601255028086358,-0.2279975532697084,-0.061804166070543114,0.025337672366004597,0.35288010451860335,0.5820030177310652,0.06942055007127491,-0.010464300063665622,0.030903260940619785,0.3356649386114203,0.6031496720925329,-0.18899006262230397,1.7019558485674666,1.210887402128442,-1.4481240775676467,-1.4504474322812229,-0.6534999601709479,-0.2814874867998014,1.099236873931399,-0.47603167336331,0.3640229861374402,-0.45867224979812493,5.211219787597656,1.2314910888671875,-7.365142822265625,-3.7598419189453125,-2.509408950805664,-1.8692388534545898,3.188222885131836,-1.2379398345947266,-0.5464057922363281,-3.0052051544189453,5.211219787597656,1.2314910888671875,-7.365142822265625,-3.7598419189453125,-2.509408950805664,-1.8692388534545898,3.188222885131836,-1.2379398345947266,-0.5464057922363281,-3.0052051544189453
5,0.1,0.011404356052995855,0.0034906859052359863,0.7051282379127399,0.9999783529377013,-0.002824756105781758,-0.005535777428860451,0.0021609204525235405,-0.0056736920715379805,-0.011059332485565142,0.004353301762213806,0.16458642718614902,0.004850533345017615,-0.06517379459689197,0.5935738383320753,0.5543879559060283,0.05790666157940708,-0.039831132333297874,0.027992717286288896,0.3597845644503515,0.5927980787782435,-0.023783300075369662,-0.005731069742997945,0.034908427459540765,0.3338164144379909,0.6055500177765807,-0.2521270748525374,0.8972944330989971,-0.3979449314578064,1.3682568854445616,2.0936478787515003,-7.374016830779583,0.5659526582476478,-0.3788711277565812,0.08655214693331238,-0.05805844992441429,-5.358653130338752,0.2251443862915039,-3.990231513977051,5.690402984619141,2.5048294067382812,-3.2596492767333984,2.2617053985595703,-2.4355010986328125,2.1523399353027344,-4.51939582824707,-2.74990177154541,0.2251443862915039,-3.990231513977051,5.690402984619141,2.5048294067382812,-3.2596492767333984,2.2617053985595703,-2.4355010986328125,2.1523399353027344,-4.51939582824707,-2.74990177154541
6,0.12,0.014396736074689267,0.003964930644663647,0.7035015135945435,0.999988286225726,-0.0029814615862065086,-0.00256021605272597,0.002825525067663985,-0.005977434672673556,-0.005103545891583402,0.005666354426818872,0.14106544278098077,0.035671251826706475,-0.09579831735378129,-0.3985900294878248,0.13346207572329705,0.059369290103474755,-0.03648570688889409,0.026184102363136293,0.3616576313198233,0.6304356175706617,-0.2272316357118939,-0.010537874524246598,0.03316392212053408,0.3260642608482915,0.6162068223179203,-0.39057561565112975,-0.2768367866066172,0.08009605826244347,-0.7188806992096737,1.7729059913761271,-12.51338396781453,-0.7321646863025203,0.10179441111092258,-0.6742943106492607,0.9569796160481313,-8.158190730396155,-1.6339349746704102,0.32196521759033203,-3.629180908203125,0.9966487884521484,-2.689352035522461,-2.4676647186279297,2.9931812286376953,-1.2535324096679688,-0.1275787353515625,-1.3187551498413086,-1.6339349746704102,0.32196521759033203,-3.629180908203125,0.9966487884521484,-2.689352035522461,-2.4676647186279297,2.9931812286376953,-1.2535324096679688,-0.1275787353515625,-1.3187551498413086
7,0.14,0.01708259295146673,0.004839162286612168,0.703405647404965,0.9999521970550337,-0.007931707543498047,-0.0024419465332113496,0.005169962996385447,-0.015888757990911242,-0.004801664784118846,0.010378475280620872,0.1295842989517388,0.054128521806530897,0.059188795759616546,-0.5786548008943841,-0.07794774678962654,0.3417656337478494,-0.06543545381772209,0.029682675875957753,0.34365829210376425,0.6348440932087754,-0.3019244385679191,-0.021663802530535337,0.03788741667182664,0.3053482428078839,0.6152140024046951,-0.477119799191851,-2.162757704955449,0.2688629625094241,-0.8848479560074619,-0.7928171815840831,3.1750623291739477,-0.45177474960371583,0.3324188910266671,-1.2182721444409599,-0.7057286869951761,-1.3020868948941526,-4.267455101013184,0.026468276977539062,0.4120597839355469,-7.05584716796875,6.864643096923828,-0.4042205810546875,2.529977798461914,-2.461803436279297,-6.029239654541016,3.1329994201660156,-4.267455101013184,0.026468276977539062,0.4120597839355469,-7.05584716796875,6.864643096923828,-0.4042205810546875,2.529977798461914,-2.461803436279297,-6.029239654541016,3.1329994201660156
8,0.16,0.019961672026921933,0.0055236869768234545,0.7045852815844891,0.999928230802104,-0.006045688356120678,-0.006301699951227984,0.008201918982725202,-0.012195136531305965,-0.012503648677793458,0.016480891228692028,0.1577955834616516,0.020964968510329793,0.06208997626652017,0.6851681922141855,-0.5778861797224139,0.3102898318562327,-0.09266163042325476,0.04214332030878419,0.34339206655524773,0.6134511729535318,-0.24328362429228675,-0.01890933355696203,0.05170059115758227,0.30729295018993663,0.6066931346575648,-0.4475308666004826,-0.9051590831391377,0.821286022681838,0.5027997301074433,-1.3159271871196263,2.768355551653736,0.499554867461835,0.9136307500645061,0.938458207820879,-0.30325170536285007,3.6844061150073295,-0.8528032302856445,2.309743881225586,4.7301483154296875,-6.144439697265625,-0.5082473754882812,1.9030399322509766,5.375385284423828,3.402690887451172,-4.757625579833984,2.3393707275390625,-0.8528032302856445,2.309743881225586,4.7301483154296875,-6.144439697265625,-0.5082473754882812,1.9030399322509766,5.375385284423828,3.402690887451172,-4.757625579833984,2.3393707275390625
9,0.18,0.023081531953336416,0.00647591956005064,0.7061198009309444,0.9999048395731215,-0.004659969043176505,-0.010460338271096764,0.007692711486948118,-0.009482190677706767,-0.020848500428847172,0.015485432678138417,0.152541300389711,0.06357343257052589,0.08215527425495346,-0.20320799487443056,-0.32480337442722657,-0.32629324652693786,-0.08426849903611405,0.05650225675107597,0.3348117907334203,0.5868873562962604,-0.24381492873084235,-0.020293733676728827,0.06662866706845384,0.30851491862974306,0.5943279304031333,-0.4251642606235474,1.2332764331421282,0.6652595510497679,-1.027730171183886,-1.2637441025787954,-2.2186985648261857,-0.4230133483995443,0.6504027071329317,-0.5018486955717831,-0.7981631012850695,-0.8978342495996421,4.224742889404297,-1.6433935165405273,-5.509723663330078,-2.8567676544189453,-1.9044990539550781,-1.3784008026123047,1.7143535614013672,0.6744899749755859,-5.609893798828125,-2.419009208679199,4.224742889404297,-1.6433935165405273,-5.509723663330078,-2.8567676544189453,-1.9044990539550781,-1.3784008026123047,1.7143535614013672,0.6744899749755859,-5.609893798828125,-2.419009208679199
10,0.2,0.026636083965350377,0.007529587355634957,0.7059471120887746,0.999938851899521,-0.0023113564938291413,-0.00793178186205122,0.007350981534413398,-0.0047396546103206086,-0.01582927325721616,0.01474011076211603,0.19829896896326368,0.04571346377229718,-0.07244426752863355,0.4938066743482461,0.6646511460691091,0.14338609911085648,-0.07436844624472398,0.05373719399259158,0.35461140501856553,0.6240783747488994,-0.3648806784572535,-0.025465248455296578,0.0666706223681571,0.30632525965314394,0.5845115422375013,-0.473806996758453,0.07438461832931062,-0.6896668108666657,2.1256656202165867,3.544361730457565,-9.129408501293973,-0.13666197945452274,-0.4565081841655877,0.09799967585700484,-0.27583061278560983,-3.686838329210267,-0.6886310577392578,-2.6890392303466797,6.572795867919922,7.934131622314453,-2.9285011291503906,0.3463268280029297,-0.5708398818969727,0.06939697265625,-2.552074432373047,-1.3167409896850586,-0.6886310577392578,-2.6890392303466797,6.572795867919922,7.934131622314453,-2.9285011291503906,0.3463268280029297,-0.5708398818969727,0.06939697265625,-2.552074432373047,-1.3167409896850586
11,0.22,0.030607191851310035,0.008718164076141623,0.7037056987395729,0.999951536297045,-0.0036358710656157456,-0.004131402946336486,0.008163149420975296,-0.007339153047202623,-0.008203137128802322,0.016356829773074438,0.2044269593420316,0.06887007935857908,-0.14660934845270773,-0.5222466744236265,0.22734796691992187,0.0697617998016612,-0.08569794791398075,0.04735029064895355,0.3573353545322786,0.6414152518528986,-0.565461637328545,-0.031956561120145124,0.06487469278175227,0.30206588166373244,0.5977447734858934,-0.578405267666501,-0.9469289788463362,-0.08235432520492704,-1.012414241385881,-0.5804109922539119,-10.76150796353387,-0.4639921728058002,0.12339791407650061,-0.4080072400579833,1.3034024210588224,-6.427380003747074,-2.454967498779297,1.3940906524658203,-4.020595550537109,-3.0980186462402344,-0.8868122100830078,-1.3329143524169922,3.6279163360595703,-1.5228500366210938,1.1257343292236328,-1.0875024795532227,-2.454967498779297,1.3940906524658203,-4.020595550537109,-3.0980186462402344,-0.8868122100830078,-1.3329143524169922,3.6279163360595703,-1.5228500366210938,1.1257343292236328,-1.0875024795532227
12,0.24,0.03379160820209822,0.01025169233603847,0.702778202931365,0.999873562983594,-0.008273527846294591,-0.007983346134272344,0.010985124849987746,-0.016723222025789904,-0.015783557341862615,0.022104125676891833,0.13890272703615408,0.07890195847920162,-0.005146064655074055,-0.3417184079796044,-0.6296473012260749,0.4102315198883019,-0.10409747479070723,0.06096852843516066,0.34423304594086834,0.6424672829150931,-0.6503683918771995,-0.0457094946917144,0.07998868411037782,0.29193563309630444,0.6146957791937366,-0.688228438088049,-1.0074782508580287,0.9444802542885202,-0.493726706674557,-0.6578709854348379,0.42101944302299055,-0.8113842882652074,1.0118026030200704,-0.4211839730069573,0.616369642266944,-4.802141819634107,-1.418304443359375,-0.3595914840698242,2.189544677734375,-8.924463272094727,4.221744537353516,-1.4011039733886719,1.5823707580566406,-0.5548801422119141,-1.563934326171875,0.6275739669799805,-1.418304443359375,-0.3595914840698242,2.189544677734375,-8.924463272094727,4.221744537353516,-1.4011039733886719,1.5823707580566406,-0.5548801422119141,-1.563934326171875,0.6275739669799805
13,0.26,0.036463573195961246,0.011439209000719909,0.7039265146588047,0.9998011574202917,-0.007519732857225504,-0.013466772725300688,0.012639037588605863,-0.015382995631216353,-0.026741292530303853,0.025487452749081912,0.1281626324202512,0.04540422528044854,0.10093842808266502,0.3872094931676071,-0.4982027280436104,-0.029685037215010653,-0.1220247150195384,0.0767434016963237,0.33630494441213205,0.6165309341688735,-0.6345416758253668,-0.048283012603545145,0.09725839302859461,0.2847427241570917,0.609092182173977,-0.763684617886967,-0.833522741155301,0.6721403700824834,-0.30708224813977225,-1.7526812747908478,1.0798820629332844,0.27330464052156817,0.7576681200526593,-0.25777288101964746,-0.8823789599310095,-2.9894955978378723,-1.240081787109375,-1.9416475296020508,0.06463432312011719,-8.683584213256836,0.10313796997070312,2.0396347045898438,0.5597286224365234,3.4659156799316406,-7.977060317993164,0.23771190643310547,-1.240081787109375,-1.9416475296020508,0.06463432312011719,-8.683584213256836,0.10313796997070312,2.0396347045898438,0.5597286224365234,3.4659156799316406,-7.977060317993164,0.23771190643310547
14,0.28,0.03933423818521557,0.012456339982947442,0.7045419278638034,0.9998847257818015,-0.0026740361296903226,-0.012801572010207858,0.007713911659877585,-0.005546796633659247,-0.025561721668472853,0.015500192730150823,0.15629063814019206,0.05298340425878525,-0.02140463272624446,0.5243452253476091,0.4746212032323916,-0.8737987817435877,-0.12488854494929895,0.07646040743718605,0.3381022735921299,0.6184012575052278,-0.7359238185244609,-0.05562444623286735,0.10050375828422266,0.28920467397669397,0.5940636755010059,-0.8154553160294634,0.2711646693447142,-0.5480057301866669,0.18521623826065878,1.1384360393486248,-9.96736831806643,-0.7266498987826209,-0.2805432814985696,0.5414326211207889,-0.6522559980034562,-2.2877310460257925,1.3259105682373047,-3.0995311737060547,-3.171337127685547,5.354595184326172,-4.576336860656738,-1.3842878341674805,0.06922054290771484,5.074859619140625,-5.501865386962891,-0.07962989807128906,1.3259105682373047,-3.0995311737060547,-3.171337127685547,5.354595184326172,-4.576336860656738,-1.3842878341674805,0.06922054290771484,5.074859619140625,-5.501865386962891,-0.07962989807128906
15,0.3,0.04316963362052524,0.013999325090597281,0.7034941336471573,0.9999576582876302,-0.004893977938579432,-0.005177487958326997,0.005824451072655489,-0.00984853486590307,-0.010297709997889837,0.011699973195882332,0.220313209930667,0.09384052642024844,-0.08135846361725298,-0.7102005789124067,0.968894975964491,0.32450450711284207,-0.13260202552334224,0.06207438636319917,0.3341329182040259,0.6520140107285697,-0.933758604781725,-0.07301730583041702,0.09015597774527931,0.2730210077343459,0.5807520591149362,-0.9028960892465531,-0.7515025470508857,-0.8225453841545544,-0.42521126375851453,2.0010172923651255,-9.828583060318765,-0.9901032268727591,-0.6714322450847231,-1.6943761029365185,-0.604741166068509,-6.013910139035911,-1.5364761352539062,-0.973872184753418,1.598724365234375,2.932117462158203,-0.13946056365966797,-2.461101531982422,1.4450092315673828,-8.817493438720703,-1.2092018127441406,-1.1258611679077148,-1.5364761352539062,-0.973872184753418,1.598724365234375,2.932117462158203,-0.13946056365966797,-2.461101531982422,1.4450092315673828,-8.817493438720703,-1.2092018127441406,-1.1258611679077148
16,0.32,0.047010234558212655,0.01574101883924185,0.7018972246520218,0.9999176517271414,-0.007912591877064052,-0.0054261546865589155,0.008522763611912947,-0.015917958486322367,-0.010716746536744945,0.017131815190934003,0.1707911375733336,0.08788676152681489,-0.06815784894237464,-0.10480542701623789,-0.7093400713181004,0.24687620129107035,-0.16091305415842508,0.06877184735202853,0.3332541560846425,0.6691538653261165,-1.0096965602596268,-0.0792005690891744,0.09802181411970884,0.27234106408257863,0.5951083156620341,-0.9369494302901875,-1.8977591131394187,1.0757463869651,0.24542565241564074,0.06544466308665106,0.8719250969771855,0.11009263351135856,1.1230614191698514,0.9973665338545338,1.4716695214463646,1.752539794456995,-4.194438934326172,4.464458465576172,3.4256324768066406,-6.873157501220703,4.336952209472656,1.1746540069580078,4.087190628051758,3.3925514221191406,2.3818511962890625,3.910135269165039,-4.194438934326172,4.464458465576172,3.4256324768066406,-6.873157501220703,4.336952209472656,1.1746540069580078,4.087190628051758,3.3925514221191406,2.3818511962890625,3.910135269165039
17,0.34,0.05004155913579949,0.017454746784594275,0.703241400313898,0.9998193105596634,-0.009038433745622486,-0.013472872622192593,0.009906293491140134,-0.01834813435140729,-0.02676499714838361,0.020061084569944255,0.13366179904585687,0.08088275457073124,0.15529020481921482,-0.031059016992469414,-0.8883112946582118,0.06311522601680582,-0.1677072191611796,0.09131814450236495,0.3226325385785854,0.6346805557503152,-0.9645827364626501,-0.07401513511156867,0.12163669082624262,0.2717311243400953,0.5931340663062047,-0.9335924120834787,0.5994809775397185,1.174454454729998,-0.9310767640763375,-2.895763529492512,3.3893591689382783,0.3244312824198631,1.2277028530633436,-0.6207842629193063,-1.1049274659870907,-1.100708233984827,3.4376373291015625,-4.197149276733398,-0.40447425842285156,-15.207634925842285,1.0124473571777344,1.0197162628173828,1.3030509948730469,-0.14867591857910156,-7.644479751586914,-1.7592506408691406,3.4376373291015625,-4.197149276733398,-0.40447425842285156,-15.207634925842285,1.0124473571777344,1.0197162628173828,1.3030509948730469,-0.14867591857910156,-7.644479751586914,-1.7592506408691406
18,0.36,0.05290566559430693,0.01899100470570662,0.7038673772399694,0.999829978555804,-0.00429214076597735,-0.016230923901576627,0.007625524116231764,-0.008835111482293451,-0.03239653553545987,0.0153964728795575,0.15208255523242073,0.0734036014401132,-0.05606337778526735,0.750769124466865,0.1702110388316849,-0.48661110810767066,-0.1480515910150925,0.09867494092180909,0.3355584023614991,0.6412907747435559,-1.0283445762067793,-0.07688464349210959,0.13196800444466364,0.2815998329849716,0.5861447403409834,-0.9679754517553937,1.2146113940413346,-0.2077531235694717,1.4442949319427376,2.1251903036678197,-8.456895226707212,-0.3878050846163712,0.006258208967957701,1.1527055861899735,0.13256019209828235,-2.2213113961063935,2.2461776733398438,-1.857987403869629,1.105630874633789,7.556110382080078,-4.875433921813965,-0.5212249755859375,-2.88724422454834,5.885173797607422,-1.8599891662597656,-0.825958251953125,2.2461776733398438,-1.857987403869629,1.105630874633789,7.556110382080078,-4.875433921813965,-0.5212249755859375,-2.88724422454834,5.885173797607422,-1.8599891662597656,-0.825958251953125
19,0.38,0.056465148273582795,0.020553053560979515,0.7022703329706342,0.9999494851125825,-0.002467970422724787,-0.0078067139813510385,0.005830228287740284,-0.005027353031209357,-0.015584492433456153,0.011700088743555232,0.19795178598071592,0.07949003448979614,-0.10880612384533432,-0.13677226274686505,1.3108075569606101,0.02326497577327797,-0.1367900990275931,0.07756216310888892,0.3441258659564449,0.6697457435913987,-1.2901970055843364,-0.08486360214289819,0.11816419135011075,0.27185298445352946,0.5768066554736699,-1.0978509397146399,0.20975411029852875,-1.6528862856677211,-0.1390707082790137,1.0464472483756972,-16.825997825030008,-0.4453969861895597,-1.175887295449775,-1.5126672221418815,-0.7603935769726653,-9.911020750343557,-0.015954971313476562,-4.713184356689453,-0.7262802124023438,0.7021770477294922,-3.6927146911621094,-0.9553623199462891,-1.8704309463500977,-5.159910202026367,-4.219797134399414,-3.6297550201416016,-0.015954971313476562,-4.713184356689453,-0.7262802124023438,0.7021770477294922,-3.6927146911621094,-0.9553623199462891,-1.8704309463500977,-5.159910202026367,-4.219797134399414,-3.6297550201416016
20,0.4,0.06000885686173747,0.02227715242374176,0.6990159244644055,0.9999509322803892,-0.005697366436409032,-0.0027582776062939816,0.007620036214886498,-0.011436627987591564,-0.005429482926826723,0.015271573160446732,0.15673786798607006,0.08871628218444451,-0.217821827433053,-0.4173746288127797,-0.0720669964040445,0.26769503388695437,-0.1449222921703177,0.07055781208872804,0.337999403686486,0.7113294167144142,-1.577377924461325,-0.10011038624613246,0.11507207078554972,0.25594194145585336,0.5933473958261519,-1.2475055278649332,-0.9667485322990149,0.41271777788215436,-0.4075028826258287,2.224343939787895,-12.883782035509707,-0.9675623410006535,0.5889977977981585,-0.4591693473493768,1.72166517957706,-5.209238662937408,-3.2794551849365234,3.7447071075439453,-0.2764453887939453,0.6579494476318359,0.793365478515625,-2.0704402923583984,2.855072021484375,-0.11631393432617188,4.355033874511719,1.9925174713134766,-3.2794551849365234,3.7447071075439453,-0.2764453887939453,0.6579494476318359,0.793365478515625,-2.0704402923583984,2.855072021484375,-0.11631393432617188,4.355033874511719,1.9925174713134766
21,0.42,0.06228033655759034,0.024245974694863708,0.6993926647779659,0.9998622535947116,-0.012341241131546913,-0.0076925710405829515,0.007999497148147792,-0.02480756035712105,-0.015186159083832102,0.01618923606659837,0.06707719183785948,0.10124308154070089,0.16612527434026908,-0.7489288124429699,-0.911866821447469,-0.13023895960028214,-0.16211421710186236,0.08698650853690021,0.3087192246746121,0.6930341703826979,-1.6426321824957069,-0.10400174913299956,0.13214843830581607,0.23859451926535633,0.5948300276951265,-1.3125923862699949,-0.8047468279911977,1.2405564803187947,-1.8418097143740693,-2.9041128450249962,4.284786553230903,0.22500950864094793,1.2291530713846754,-1.2870663750287223,-1.0585094460922697,-0.8507671780860727,-0.4351844787597656,-4.005504608154297,-1.597269058227539,-20.4389705657959,7.800586700439453,1.4855766296386719,0.6077938079833984,-0.7938346862792969,-6.354532241821289,2.225778579711914,-0.4351844787597656,-4.005504608154297,-1.597269058227539,-20.4389705657959,7.800586700439453,1.4855766296386719,0.6077938079833984,-0.7938346862792969,-6.354532241821289,2.225778579711914
22,0.44,0.06418628222994698,0.025796947852237795,0.7010216884392257,0.9998540665719217,-0.010135574480799438,-0.01267833748871568,0.005326860994749882,-0.020411184156653207,-0.02524767524721564,0.010912866248043324,0.12041774603008168,0.06114838377278256,0.023881322274745362,0.814331498617492,-0.16149668840004594,-0.37299215081397075,-0.16441488882479932,0.10009287372112273,0.30875842481666904,0.6689669045690699,-1.630238816298826,-0.09949506538228534,0.1460512676316011,0.2428284365474234,0.5830668366143367,-1.3102661804430138,0.2765288017806203,0.20608605255154916,1.0423192004120108,-0.3525797187952393,-2.32457579501784,0.26069163673641915,0.28292903097537747,1.1338221472772991,-0.3040409134588766,0.8452856456382266,1.2330589294433594,-0.6131525039672852,4.1022796630859375,0.6912765502929688,-2.690216064453125,1.224020004272461,-0.18620014190673828,5.494476318359375,-4.199077606201172,0.6406440734863281,1.2330589294433594,-0.6131525039672852,4.1022796630859375,0.6912765502929688,-2.690216064453125,1.224020004272461,-0.18620014190673828,5.494476318359375,-4.199077606201172,0.6406440734863281
23,0.46,0.06663383566596535,0.027367987658826302,0.7007839693233482,0.9999048741729597,-0.008423337295209155,-0.010548574753935416,0.002831530439433347,-0.01690936066720981,-0.02104899504636974,0.0058415578301521396,0.11719237109344327,0.08808853222206538,-0.039537071426279234,-0.23406155164698478,0.41578905374395614,-0.17075337809509253,-0.1397009509642513,0.09760250053114249,0.3059577708493166,0.6749855624414762,-1.7761624142355013,-0.10569963710450939,0.144998911901641,0.24081359946023145,0.5752444496680285,-1.3867537438312407,1.8018554516160943,-0.29213640482662523,-0.8573019899396084,0.8373974009404103,-11.395655114660416,-0.684882876039691,-0.2247156078903868,-0.9348659038390039,-0.4103518913232152,-7.4987608109422395,3.9095726013183594,-4.552859306335449,-3.2166194915771484,-0.9965381622314453,-4.35753059387207,-2.1676340103149414,-1.3764266967773438,-3.3573856353759766,-1.2645187377929688,-3.8874359130859375,3.9095726013183594,-4.552859306335449,-3.2166194915771484,-0.9965381622314453,-4.35753059387207,-2.1676340103149414,-1.3764266967773438,-3.3573856353759766,-1.2645187377929688,-3.8874359130859375
24,0.48,0.06922139938327095,0.028699389427089193,0.6988036793515003,0.9999713375496901,-0.004486824618469923,-0.0038369392727961413,0.004740293339350877,-0.009010152725587788,-0.007631194930785781,0.009515166922713671,0.14063219741821986,0.05464043766132526,-0.13313473218071178,0.7590502319334897,0.8463098689019158,0.44047150267387036,-0.13261119016050957,0.08498508599026819,0.31981117982575613,0.7131153848314588,-1.9597865339112386,-0.12125921873731965,0.13348323248598715,0.2401446166218553,0.5741621112364588,-1.5027353809921027,-0.515142630435163,-0.8542831645431901,1.6332103907802415,2.5201337646855393,-7.467130744549957,-0.7953210570694997,-0.8214914413027894,0.5085412249360746,0.16043469935589333,-4.493605537459455,-2.830423355102539,-1.0369367599487305,6.702732086181641,2.088603973388672,1.4154930114746094,-1.0789690017700195,-2.110659599304199,1.3190383911132812,-1.2885990142822266,1.5006599426269531,-2.830423355102539,-1.0369367599487305,6.702732086181641,2.088603973388672,1.4154930114746094,-1.0789690017700195,-2.110659599304199,1.3190383911132812,-1.2885990142822266,1.5006599426269531
25,0.5,0.07082993422755017,0.03045631674635462,0.6980019243029343,0.9999243743451828,-0.008652335841711368,-0.005900767831547468,0.006446984866964807,-0.017381509961421182,-0.011689346412922014,0.012996359206527398,0.03670826833408042,0.11046946767232849,0.01815830386975163,-1.1640458550830683,-0.9078422628746525,-0.004945549428027843,-0.14810948810083732,0.09334854522965269,0.30404097893805804,0.7139262471473048,-2.0529208370360883,-0.13160171268372173,0.14287768329033385,0.23246989101251647,0.5843157412674094,-1.5781122855343215,-0.9303147186394398,1.2831633188970262,-2.2151884436512383,-1.4772379789697065,-2.4520345760791566,-0.396701106785828,1.3302713393500454,-0.8926029832858715,0.7378648198158789,-3.140000972662406,-1.683650016784668,-0.05710124969482422,-6.37739372253418,-12.398975372314453,2.391315460205078,-0.7829914093017578,4.594207763671875,-2.4139442443847656,1.7712478637695312,0.8379993438720703,-1.683650016784668,-0.05710124969482422,-6.37739372253418,-12.398975372314453,2.391315460205078,-0.7829914093017578,4.594207763671875,-2.4139442443847656,1.7712478637695312,0.8379993438720703
26,0.52,0.07158527097563633,0.0318454477153972,0.6986801112215573,0.9998820370399831,-0.008614561010710276,-0.011607355194790161,0.0051933273292555406,-0.01735316145211047,-0.023124556345493312,0.010588442689856887,0.03515913637930672,0.04155120028103649,0.0525314386335196,0.7591229597159961,-0.3525272900019664,-0.22925351791782536,-0.1550180943914588,0.10727025568143915,0.2943431830343871,0.6932498597737159,-2.0698074779743245,-0.12939100320451596,0.15709348704656867,0.23557843834576683,0.5874869095857479,-1.6125961746158715,-0.008110086357199758,0.30278460084107206,0.5974223130755913,-0.8316477321265497,0.440954372407571,0.44389086378583975,0.3072960288550586,0.8174574960639976,-0.27355020598808033,-0.6356228816029857,0.6893901824951172,-3.2853660583496094,5.286037445068359,-7.742225646972656,1.3373241424560547,2.2092361450195312,-3.659426689147949,5.216644287109375,-5.217172622680664,0.7311019897460938,0.6893901824951172,-3.2853660583496094,5.286037445068359,-7.742225646972656,1.3373241424560547,2.2092361450195312,-3.659426689147949,5.216644287109375,-5.217172622680664,0.7311019897460938
27,0.54,0.07225798142110695,0.03292670403651619,0.6994676288840376,0.9999142172861265,-0.004806675431261414,-0.012067119363877452,0.0016848058134275427,-0.009656146042482014,-0.024118309971348634,0.003486349028303013,0.03245256628452479,0.059960840574307554,0.025358826780032206,0.14283056371761624,0.17385327307873838,-0.46115929940137695,-0.14514258814298395,0.10755298291532767,0.29138704404104326,0.6833068878373493,-2.1412567888890464,-0.1361794372699609,0.15854236433880978,0.2423167584491405,0.5771577081325279,-1.642856159720493,0.8087773767854677,-0.19675606659897388,-0.6726666937215298,-0.2533625396547776,-6.72650203061085,-0.8121431479540858,-0.11482836480998942,0.04748870387455873,-0.6305201257268256,-2.21303614668721,1.6795730590820312,-4.149167060852051,-3.608804702758789,-2.175495147705078,-3.0479049682617188,-2.147006034851074,-0.23814773559570312,0.9571151733398438,-3.5044803619384766,-0.8312807083129883,1.6795730590820312,-4.149167060852051,-3.608804702758789,-2.175495147705078,-3.0479049682617188,-2.147006034851074,-0.23814773559570312,0.9571151733398438,-3.5044803619384766,-0.8312807083129883
28,0.56,0.07358781670430953,0.03416421363319633,0.6988127821381243,0.99997652503522,-0.0036869936720124257,-0.005077148984029944,0.00275281934426612,-0.007402214870093323,-0.010133933793825154,0.005543261298009981,0.09493483092384482,0.06314870050186,-0.07788731281027193,0.08005970615183156,1.0791953552440807,0.5115004780854615,-0.1483922947016908,0.09176845309883626,0.2985718489918894,0.7140825570490774,-2.2218963592698673,-0.15286419882506586,0.14496762560025372,0.23535962765122215,0.5635516992868554,-1.6872758617097856,-0.7044349003737498,-1.2126054470394367,0.916849783502301,2.5212543883506497,-1.7716864613135475,-0.8503575683508282,-1.0776792837250748,-0.6107842438580081,-0.6635834402721549,-2.2375690247977236,-1.960714340209961,-2.3812150955200195,4.426239013671875,5.018924713134766,2.006662368774414,-1.6161842346191406,-1.2481842041015625,-3.660808563232422,-2.2431812286376953,0.39812755584716797,-1.960714340209961,-2.3812150955200195,4.426239013671875,5.018924713134766,2.006662368774414,-1.6161842346191406,-1.2481842041015625,-3.660808563232422,-2.2431812286376953,0.39812755584716797
29,0.58,0.07485265673990571,0.035564356124094115,0.6972568809133094,0.9999574765058413,-0.0055183886729239205,-0.0048561722412564364,0.005568676475443043,-0.011091136788337926,-0.009650621037559877,0.011191230576952043,0.021220949591338134,0.07707957670921534,-0.05881616414266733,-0.448976322524178,-0.912056427932103,0.11223057944131767,-0.1709855208533419,0.09371311254680233,0.29992805973509884,0.721817987195117,-2.2205381903594525,-0.15726047659472028,0.14844850929157288,0.24037371839080784,0.5809934537075008,-1.6758778601128297,-1.3918735148293249,1.193687061483467,-0.2615822247793842,-0.25716614307930763,1.4333596757880336,0.1381536344514247,1.3021123899381732,0.5614126058719409,1.6652602346864218,3.256086745895704,-2.865902900695801,3.1008071899414062,-0.33086585998535156,-8.653179168701172,1.7391605377197266,0.8981075286865234,4.877979278564453,2.0996322631835938,3.8084640502929688,2.637075424194336,-2.865902900695801,3.1008071899414062,-0.33086585998535156,-8.653179168701172,1.7391605377197266,0.8981075286865234,4.877979278564453,2.0996322631835938,3.8084640502929688,2.637075424194336
30,0.6,0.07490667784701029,0.03683718835790185,0.6987550889470064,0.9998724492653129,-0.008691826547182152,-0.012718141868230642,0.004217371086168728,-0.017495228875305142,-0.02536244499714273,0.008657646583231295,-0.017788267664947628,0.048490362616170485,0.16377218911317515,-0.14674782880389323,-0.7436537041163354,-0.2964063460494647,-0.1668052954944955,0.11182021749502309,0.2838873059972062,0.6875448127371404,-2.161517464594074,-0.14967218815350122,0.16753952624800303,0.23772938823694043,0.5799790763043327,-1.6626468621155999,1.1670724368906547,0.748219591991284,-1.0276101539330775,-2.6412843558922603,4.177908360673749,0.4910058624963071,0.7992478801167567,-0.6325238677786152,-1.0718887105195152,-1.0107148034760567,4.058376312255859,-5.342155456542969,-0.431915283203125,-15.395352363586426,1.5728607177734375,1.4529151916503906,-2.0468339920043945,0.6904220581054688,-7.428745269775391,-2.1727676391601562,4.058376312255859,-5.342155456542969,-0.431915283203125,-15.395352363586426,1.5728607177734375,1.4529151916503906,-2.0468339920043945,0.6904220581054688,-7.428745269775391,-2.1727676391601562
31,0.62,0.07493192828264003,0.037580747344003455,0.6997848872622278,0.9998921313048167,-0.00267984392966715,-0.014312737912050672,0.001920865608454434,-0.005416339382975114,-0.02861599812063049,0.003919643394685175,0.019500728325956986,0.02989860695163097,-0.0234798881600509,1.0207914867392773,0.2817294865194167,-0.22482037039440483,-0.14502819127553235,0.11059142381708209,0.3067969050533448,0.6981505876489147,-2.182032669508239,-0.1516845630909045,0.1690978344351229,0.2499551047747752,0.5704659104869008,-1.6720984213676362,1.0458551034189383,-0.627587359269403,2.3356996144028357,2.2631263825314996,-5.201440762697562,-0.40251783477367853,-0.4535661266119514,1.3466279516673567,-0.08580020437466951,-0.11047358199869617,1.4956169128417969,-2.1856765747070312,5.6013031005859375,6.6537628173828125,-3.8351173400878906,-0.8090190887451172,-2.4833364486694336,4.465152740478516,-1.9992294311523438,0.3911161422729492,1.4956169128417969,-2.1856765747070312,5.6013031005859375,6.6537628173828125,-3.8351173400878906,-0.8090190887451172,-2.4833364486694336,4.465152740478516,-1.9992294311523438,0.3911161422729492
32,0.64,0.07557628056439089,0.03846248286756492,0.698566627990329,0.9999631441060265,-0.002202089601475726,-0.008293553191990688,0.0002796541260696045,-0.004409276294712994,-0.0165860238526551,0.0005958959305520185,0.04263635853638397,0.0515123012153068,-0.10103016521276624,-0.5373436204009208,0.8358774654085688,-0.1272430749191855,-0.13193499493326483,0.09163639550786082,0.31144610515192,0.7104123571496963,-2.372281037505161,-0.15651139709036968,0.15638055182089222,0.2414408223699117,0.567831494828076,-1.7714066925230882,0.43460412577876156,-1.2038001047397566,-1.0005789169696033,-0.25454542760854393,-12.987194709065138,-0.21119392795067188,-0.7768996845063741,-1.5260007287526616,-0.0535608806319987,-8.810347433271694,0.3395252227783203,-3.084120750427246,-5.121746063232422,-1.2711982727050781,-3.3846540451049805,-0.5189094543457031,-0.3544883728027344,-4.420442581176758,-1.896066665649414,-4.033208847045898,0.3395252227783203,-3.084120750427246,-5.121746063232422,-1.2711982727050781,-3.3846540451049805,-0.5189094543457031,-0.3544883728027344,-4.420442581176758,-1.896066665649414,-4.033208847045898
33,0.66,0.07635615413058316,0.03927185394213354,0.6951899790387011,0.9999920462600277,-0.0023544526088877943,-0.0030769462558165894,0.0009467688925635504,-0.004714800691633709,-0.006149424077292925,0.0019080490071536663,0.040449681655406626,0.03369339181142068,-0.21220816126119996,0.2866471573835975,0.3497864463247584,0.2237064445050211,-0.13836022689568142,0.07908025799049939,0.3177351403005734,0.7451036199826275,-2.5669798482543063,-0.1667382050790491,0.14678939706232963,0.24492964137511797,0.5929018793263122,-1.8771517503439272,-0.8885744003825792,-0.3350148354670021,0.995919961300382,2.5229740434125496,-7.332485103831855,-0.6411994644755399,-0.3162352226865437,1.2406889243651322,2.036561612468076,-2.514690546130744,-3.2518310546875,2.05072021484375,5.0412445068359375,1.742959976196289,1.6755943298339844,-1.2745075225830078,-0.5319986343383789,3.192821502685547,3.808094024658203,3.230113983154297,-3.2518310546875,2.05072021484375,5.0412445068359375,1.742959976196289,1.6755943298339844,-1.2745075225830078,-0.5319986343383789,3.192821502685547,3.808094024658203,3.230113983154297
34,0.68,0.07600100094269004,0.040336858434920235,0.6948129508952864,0.9999241962740508,-0.010193381921476553,-0.00661607973742671,0.0019809491676146735,-0.020414624635294892,-0.013191153839508316,0.004096846356947854,-0.06773879952849647,0.06610952686624717,0.1091927086730463,-1.4199664812488928,-0.8728713756172981,0.003833057383017712,-0.1444582336321126,0.08849970856323339,0.29273661149059255,0.7356522926278318,-2.596239192452572,-0.17052027950386126,0.1578166785952763,0.2299317878267974,0.6050050265245184,-1.936839168250812,0.0673191286928805,1.0619998464301643,-2.46929626622149,-2.3247991789078473,3.1761214274404423,0.0239756534268942,1.1674571218300813,-1.9312290259013825,-0.29496705104911236,-3.292144007444651,1.476715087890625,-4.125913619995117,-4.697542190551758,-19.000646591186523,5.230110168457031,0.08632946014404297,1.834615707397461,-5.009469985961914,-2.9129676818847656,-0.4252166748046875,1.476715087890625,-4.125913619995117,-4.697542190551758,-19.000646591186523,5.230110168457031,0.08632946014404297,1.834615707397461,-5.009469985961914,-2.9129676818847656,-0.4252166748046875
35,0.7,0.07521872861384207,0.04069957649006961,0.6953610346904866,0.999905450046449,-0.008799996902278121,-0.010436435619136203,0.0016528259122691956,-0.017637574326150835,-0.020843317159229834,0.0034897855899947844,-0.015204625636306392,-0.015406985270974435,-0.019912988711743226,1.1169357642513813,-0.016325498381013007,-0.051247673743805656,-0.13816577906535607,0.09500281834718798,0.29585896107347054,0.7239462882120385,-2.564431564822689,-0.1664768830268692,0.16452319375188432,0.23470885818826004,0.6080574966599462,-1.950669238255421,0.4603834687786115,-0.20843116851354443,1.6683000904053844,0.4498282594395595,0.46083299821418233,0.371465012540505,-0.2505639801247039,1.5776030183103054,0.38404941026133255,1.3048803572626897,0.5764446258544922,-0.6324262619018555,7.775096893310547,-0.22507476806640625,-1.3524551391601562,1.8695449829101562,-3.0742454528808594,7.149906158447266,-3.5596656799316406,1.9826736450195312,0.5764446258544922,-0.6324262619018555,7.775096893310547,-0.22507476806640625,-1.3524551391601562,1.8695449829101562,-3.0742454528808594,7.149906158447266,-3.5596656799316406,1.9826736450195312
36,0.72,0.07457671733938996,0.04077515222043354,0.6956564484869188,0.9999149161493408,-0.007356659994610164,-0.010772180685000712,1.1792823000335794e-05,-0.014716268351308496,-0.021544021333631605,0.0001821204451488142,-0.04705550127340828,0.012970866789633013,0.02907829402267055,-0.4315372203255329,-0.05561138397949478,-0.258695686017539,-0.11961946259261654,0.09315306029059675,0.2887490843279965,0.7169657735152997,-2.6294002884661354,-0.16504026443804742,0.16372140895376128,0.23459521553796225,0.606071996668709,-1.9863809026987862,1.2255671506194497,-0.017221871830111247,-1.6014781964624867,-0.7692791781619577,-6.210856343253944,-0.15588900092630142,0.09777592673589512,-0.9700509829625035,-0.35060177893499644,-4.209886455246563,2.2728748321533203,-3.963541030883789,-6.091764450073242,-6.201702117919922,-2.8445205688476562,-0.8772802352905273,0.8083620071411133,-2.2664928436279297,-2.8163986206054688,-2.639404296875,2.2728748321533203,-3.963541030883789,-6.091764450073242,-6.201702117919922,-2.8445205688476562,-0.8772802352905273,0.8083620071411133,-2.2664928436279297,-2.8163986206054688,-2.639404296875
37,0.74,0.07417741174314946,0.04052436813604229,0.6945735964063336,0.9999776494470254,-0.0020640013388045046,-0.0062047773748980795,0.0013932848251774217,-0.004145531233632679,-0.012403843969732209,0.002812340757624361,0.00646346129533426,-0.0290158631529411,-0.11108841508390147,1.1138057944255995,0.8577919514243499,0.42627419228446395,-0.11580693990664849,0.07968354230352043,0.3048481783697124,0.7378445758691142,-2.675291290408428,-0.1705828981833374,0.15097501341151295,0.24242951387271247,0.607231424275575,-2.013689683634952,-0.40585118856513624,-1.1606002402731104,2.1894214054543917,1.9680338230840224,0.9690728398196516,-0.2964809362431563,-1.1811985173217023,1.2302168748093378,0.30741698717584975,0.835654194413241,-1.944540023803711,-1.5396614074707031,8.726295471191406,3.3233642578125,2.967134475708008,-0.27727317810058594,-3.320087432861328,2.7392730712890625,-1.304494857788086,2.625518798828125,-1.944540023803711,-1.5396614074707031,8.726295471191406,3.3233642578125,2.967134475708008,-0.27727317810058594,-3.320087432861328,2.7392730712890625,-1.304494857788086,2.625518798828125
38,0.76,0.07308208333357187,0.04068568421351471,0.6939144164577742,0.9999580771176801,-0.00438975710464347,-0.007859776715900713,0.0016727072816002375,-0.008806640203073647,-0.015704854438141565,0.0034147070675664766,-0.09421855466817983,0.02774321199539175,0.004016510545619245,-1.0226096968818832,-0.7850184994456255,-0.21071169043774424,-0.12303783345938477,0.08223865096982609,0.2999833702958658,0.7387364854713498,-2.669923656705095,-0.1711781321017713,0.1546665873980182,0.24503374348078796,0.6212926008237756,-2.0154423898741722,-0.26578153702802926,0.8955802862659203,-1.8479766330289558,-1.2060208858516914,0.16458779563590295,0.06553145668143873,0.9900498836839379,-0.46297417685090736,1.035465635675287,-0.8056971061560968,-0.2660188674926758,-0.33043479919433594,-6.801023483276367,-10.369152069091797,0.2686624526977539,-0.07087898254394531,4.097734451293945,-1.4883289337158203,1.95391845703125,-0.5745449066162109,-0.2660188674926758,-0.33043479919433594,-6.801023483276367,-10.369152069091797,0.2686624526977539,-0.07087898254394531,4.097734451293945,-1.4883289337158203,1.95391845703125,-0.5745449066162109
39,0.78,0.07126603821408788,0.040369806416293036,0.6943205652169003,0.9999384436938481,-0.003239228750765467,-0.01061113082852611,0.00014185473458930005,-0.006482574266622473,-0.021221629144074116,0.000352515148435923,-0.09318964692210303,-0.04578061578899597,0.03874885128772653,0.8533130187088511,0.05103580482276971,-0.13320892851159885,-0.11758016649251667,0.08481723175399906,0.29930286554504276,0.7277577880305459,-2.638453947356657,-0.16420412414923855,0.15727715019390542,0.2501739530663294,0.626425112290193,-2.0176858199224026,0.5864583305230993,-0.366451085087694,1.1127687964594735,-0.1949600558089257,2.6852272761012426,0.5505652194104419,-0.42175529737494744,0.7040469100265996,-0.3010540796106481,0.39563646135128794,1.5395011901855469,-4.458483695983887,6.752170562744141,-7.024139404296875,1.2454452514648438,1.8903312683105469,-5.398253440856934,3.884326934814453,-5.2181854248046875,0.2425985336303711,1.5395011901855469,-4.458483695983887,6.752170562744141,-7.024139404296875,1.2454452514648438,1.8903312683105469,-5.398253440856934,3.884326934814453,-5.2181854248046875,0.2425985336303711
40,0.8,0.06927522595337936,0.03985876416016321,0.695074941136029,0.9999389449940956,-0.0025003533491304132,-0.010528799566149563,-0.0022358213079980674,-0.0049544402254254084,-0.021069052888737737,-0.004419713477268339,-0.10105620565413383,-0.01431589003725095,0.030386466847740858,-0.41678445605812897,0.007601787004276552,-0.3111198605330363,-0.10788455759751894,0.08080172553010892,0.2917683869018603,0.7174550103911691,-2.653285034387186,-0.16742327691195052,0.15417881237083333,0.25105708686984995,0.6213592078309195,-2.0094089843161815,0.43510551615668364,-0.13059964133233584,-1.3598692018127023,-0.688077490839344,-3.429566304707328,-0.6034162966183525,-0.01884253556166782,-0.3348066333476697,-0.15872748511333248,0.43569357937835423,0.2537050247192383,-1.5864181518554688,-5.354221343994141,-3.269723892211914,-2.5917558670043945,-2.0472288131713867,1.6725521087646484,-0.5307807922363281,-2.2351036071777344,0.22095870971679688,0.2537050247192383,-1.5864181518554688,-5.354221343994141,-3.269723892211914,-2.5917558670043945,-2.0472288131713867,1.6725521087646484,-0.5307807922363281,-2.2351036071777344,0.22095870971679688
41,0.82,0.06786708882446021,0.03927658478306011,0.6954626782817578,0.9999778936241965,-0.0023250644530733275,-0.006171344326050025,-0.0008490273341017157,-0.004639917127014011,-0.012346677572985314,-0.0016694476031961088,-0.051186427980970825,-0.035111229566562166,0.018301661089872807,0.2352909876373809,0.6912210162402749,0.423956906956209,-0.11521877914386233,0.06855176449222503,0.3006750437979334,0.7244634231917868,-2.583781036504901,-0.17012600159130115,0.1420354532028476,0.2444224961230628,0.6094375405136069,-1.9751467080318212,-0.846789848180031,-0.8982577324705898,1.6254037256257248,0.9516905851642422,8.926772502509014,0.1559393551632545,-0.9560564630611142,-0.36986567160382255,-0.8987168030912642,2.73641260554711,-1.602400779724121,-2.2385358810424805,6.9379425048828125,0.009298324584960938,5.942119598388672,1.0149116516113281,-1.8283586502075195,-1.2774333953857422,-4.844892501831055,1.3625011444091797,-1.602400779724121,-2.2385358810424805,6.9379425048828125,0.009298324584960938,5.942119598388672,1.0149116516113281,-1.8283586502075195,-1.2774333953857422,-4.844892501831055,1.3625011444091797
42,0.84,0.06608164463332977,0.03868305784601881,0.6954748099872308,0.9999470095162771,-0.003097583284114734,-0.009816661221141935,0.00012767036571434762,-0.006198579130300752,-0.019632752323794217,0.000316203995138285,-0.11866139716642217,-0.03019447005837253,-0.02520742847469816,-0.22869665440211442,-1.1114247598692069,-0.07470575641138609,-0.1237572909803964,0.07433879118127024,0.3075660274772253,0.7180795898335935,-2.4646413994057186,-0.16088301999251733,0.1497309055195396,0.25170273991461967,0.6205135156587596,-1.8852776792566983,-0.18786577828957735,1.1190415321878138,-0.423472804089722,-1.0522914805288768,3.6098983906735747,0.626746833467845,1.3591932911686568,0.7426142237199764,1.3268367449272616,6.143999216874777,-0.37479591369628906,2.845121383666992,-1.2623863220214844,-8.277278900146484,-2.4138317108154297,1.2436046600341797,5.179466247558594,2.474445343017578,3.2151031494140625,1.6447200775146484,-0.37479591369628906,2.845121383666992,-1.2623863220214844,-8.277278900146484,-2.4138317108154297,1.2436046600341797,5.179466247558594,2.474445343017578,3.2151031494140625,1.6447200775146484
43,0.86,0.06362704910443052,0.03805801969078509,0.6971617595726115,0.9998659551431466,-0.006373715613621648,-0.014859860585882227,-0.0025752744180931684,-0.01267513514884699,-0.029752955077975932,-0.004962650143680266,-0.13936242121250322,-0.038355411959405075,0.14215175098711777,-0.3061446316304376,-0.21389673941083676,-0.42681042860767676,-0.10438172807159707,0.081794857238468,0.28964997846080354,0.6855066628211732,-2.379408918193251,-0.15255178755577578,0.15851261094521205,0.25032583642450607,0.6191686832869181,-1.821157770228234,1.6731991349722852,-0.015840804647027654,-1.056273017707338,-1.9498844904636006,4.7564203683528365,0.27828494858239766,0.05709457604722501,-0.7440909041627837,-1.086124402772004,1.471970192706867,4.441566467285156,-5.951841354370117,-2.0714035034179688,-10.375127792358398,1.0079364776611328,0.4518289566040039,-4.19504451751709,0.409515380859375,-7.435070037841797,-2.1963462829589844,4.441566467285156,-5.951841354370117,-2.0714035034179688,-10.375127792358398,1.0079364776611328,0.4518289566040039,-4.19504451751709,0.409515380859375,-7.435070037841797,-2.1963462829589844
44,0.88,0.06131796814411506,0.03692014254389037,0.6979563006757967,0.9999046031523061,-0.0015115037315372164,-0.013173866600880269,-0.0038664182496467607,-0.002921866944455302,-0.026359960508426233,-0.007695023307927733,-0.09301003540745029,-0.0693834399625024,-0.027141591285198954,0.9401666535759076,0.46354531478538735,0.04169880068024366,-0.08701901357839885,0.07183954838444688,0.32011029676167974,0.7140624032381774,-2.368373050903982,-0.15825087125922976,0.14977291746091775,0.2590529270143395,0.6098626530126614,-1.7895254914563177,0.39801749181309354,-0.8214663707857108,2.9717388860386156,3.2570514410928344,-2.8223210897734736,-0.5683090932784423,-0.8019133270350711,1.123511135113919,-0.05997606315853671,1.6073516406500792,-0.5780162811279297,-1.0186500549316406,8.063095092773438,8.063018798828125,-3.0690126419067383,-0.9700660705566406,-0.6722440719604492,3.7030410766601562,-2.788196563720703,0.18163394927978516,-0.5780162811279297,-1.0186500549316406,8.063095092773438,8.063018798828125,-3.0690126419067383,-0.9700660705566406,-0.6722440719604492,3.7030410766601562,-2.788196563720703,0.18163394927978516
45,0.9,0.05961325015341878,0.03577445275455284,0.696758322726525,0.9999446346121211,-0.0016799277889828516,-0.009281925646309263,-0.0046638406224944915,-0.0032736615786596477,-0.01857956225483362,-0.009297717562270519,-0.0766757016791743,-0.05074289271496338,-0.09463896435670674,-0.5973636160261317,0.3645269123437712,-0.1460884859109097,-0.0884748596960189,0.058144561221826006,0.329527447836947,0.7270961564173561,-2.47325379460329,-0.16088217183626352,0.1390617637197183,0.2561349962521373,0.6164610821362901,-1.8235350782365518,-0.346833284596019,-0.6199887616777905,-0.9846528169744511,-0.7457400025906352,-7.2010257899141745,0.06765073399140545,-0.3847167290761112,-0.9194787018098587,0.6583093649316298,-4.305845576736848,-1.1042194366455078,-0.8314914703369141,-5.432239532470703,-2.935789108276367,-1.9117565155029297,0.4012908935546875,2.2026596069335938,-2.4683284759521484,-0.8477973937988281,-2.601058006286621,-1.1042194366455078,-0.8314914703369141,-5.432239532470703,-2.935789108276367,-1.9117565155029297,0.4012908935546875,2.2026596069335938,-2.4683284759521484,-0.8477973937988281,-2.601058006286621
46,0.92,0.0580753025555622,0.03447182977152243,0.6937883968121988,0.9999662625294374,-0.0007022768862864158,-0.005673155137612941,-0.005898806732598291,-0.0013376633212534021,-0.011354456645494218,-0.011790280350177467,-0.09560584276829212,-0.06891326806518917,-0.14533430681120882,0.3835332326419387,0.14737449844724934,-0.12853766947596934,-0.10317714609767285,0.04623330536714657,0.3383563969270702,0.7382190021440704,-2.5418531308490038,-0.16457648649214437,0.1290955956145765,0.27101938016713484,0.6452773417480905,-1.8313593906358592,-0.9610501377785844,-0.32991359529693787,1.3436859069970621,2.1393337869621107,-0.3634546276758429,-0.27491792455347264,-0.3289622532427054,1.6388077292561818,1.7454431502343937,2.791024867312644,-2.489337921142578,0.5091562271118164,4.7009735107421875,-0.6409664154052734,2.621673583984375,-0.45433807373046875,-2.4151268005371094,5.222476959228516,1.6340484619140625,3.463346481323242,-2.489337921142578,0.5091562271118164,4.7009735107421875,-0.6409664154052734,2.621673583984375,-0.45433807373046875,-2.4151268005371094,5.222476959228516,1.6340484619140625,3.463346481323242
47,0.94,0.05538115688004512,0.03348964182613183,0.6941905259228836,0.9999137030229479,-0.007618239082807991,-0.008281435931459713,-0.006779878990536494,-0.015125546123915673,-0.016665515449696286,-0.01343467760268731,-0.17144462125873483,-0.035646063822432,0.13138021279329293,-1.3300698645396998,-0.6004700658100504,-0.06729755210588638,-0.11095964288011448,0.0494356409033713,0.3176476477726647,0.7240998902697608,-2.4721001413886334,-0.1655833711156298,0.13423609602879405,0.2596216254266277,0.651311622482368,-1.8092278656524525,-0.030980704895712294,0.5519814148880259,-2.325895230520951,-2.349085208283507,6.483298250060917,0.021874148567726064,0.6868902330003649,-1.9121696935051888,-0.5958764664258096,-0.17457575032315553,1.4063644409179688,-4.197884559631348,-4.528614044189453,-16.570865631103516,3.3336544036865234,-0.11642265319824219,2.273866653442383,-5.52996826171875,-4.564268112182617,-1.2960205078125,1.4063644409179688,-4.197884559631348,-4.528614044189453,-16.570865631103516,3.3336544036865234,-0.11642265319824219,2.273866653442383,-5.52996826171875,-4.564268112182617,-1.2960205078125
48,0.96,0.0526813923994102,0.0318898197729378,0.6948906355467833,0.999909136909072,-0.0055088481929259575,-0.009773188013689108,-0.007473641240490849,-0.010872921290979342,-0.019628202616665997,-0.014841649970779558,-0.1036432814011933,-0.11000667029899694,-0.025126363596970583,1.1631327425014726,0.20859539926755682,-0.07030497139315245,-0.10542943431096116,0.04950101055314693,0.33306421665487074,0.7257489511730063,-2.383015638857186,-0.1618705895693295,0.13271413142468247,0.26548603393279097,0.6510056897911098,-1.768827269555917,0.43800547266685014,-0.37550465912843844,2.581061381488936,1.3495733005268555,2.827641582504108,0.34625702774869244,-0.622722293444881,1.6387217677856467,0.3029609655896095,3.698881462403927,0.6716880798339844,0.5189838409423828,8.904991149902344,3.5223236083984375,-1.3967199325561523,1.8271045684814453,-2.6762800216674805,7.466667175292969,-4.292327880859375,1.7016792297363281,0.6716880798339844,0.5189838409423828,8.904991149902344,3.5223236083984375,-1.3967199325561523,1.8271045684814453,-2.6762800216674805,7.466667175292969,-4.292327880859375,1.7016792297363281
49,0.98,0.0505003053658533,0.03003316622909781,0.6943230710797129,0.9999068454447664,-0.0040049702969067544,-0.008548637195529136,-0.009858065110159079,-0.007841885387620805,-0.017175488659627158,-0.019649982109363154,-0.13124657722795746,-0.0836065989091301,-0.010259772842949483,-0.523507330860535,-0.1369330586087382,-0.3571935222975945,-0.09269354425415037,0.04386075117923046,0.3350814101291343,0.7215728466930601,-2.4279232068546306,-0.15526864625977227,0.12626869846273162,0.269292922337093,0.6578523474346607,-1.769279824087317,0.8904197944937263,0.0011512645093053747,-1.403553044405135,0.02086478617933399,-5.799700163842718,0.2713637521922842,0.07887737647374637,-0.8029460543290339,0.32308682137990585,-2.8798808554479867,1.380289077758789,-2.2309160232543945,-6.202991485595703,-5.044441223144531,-4.137214660644531,0.17871761322021484,2.5663223266601562,-1.8910083770751953,-1.7446727752685547,-3.01627254486084,1.380289077758789,-2.2309160232543945,-6.202991485595703,-5.044441223144531,-4.137214660644531,0.17871761322021484,2.5663223266601562,-1.8910083770751953,-1.7446727752685547,-3.01627254486084
50,1.0,0.048261681569765694,0.027975459952283722,0.6938503509050609,0.999931525358669,-0.002895441192323679,-0.004932818837178265,-0.01020922683193675,-0.005690076233549176,-0.00992424546693627,-0.020390907246327188,-0.10138355216779152,-0.11104887444293,-0.020177926096283667,0.4379099213183472,0.6684916109405465,0.16886342563093948,-0.08956586399192742,0.03177179435835503,0.33593493906663047,0.7318839718353856,-2.453068020146847,-0.15359314124232296,0.11441200174188923,0.267042732580317,0.6569465309436856,-1.7537684268400888,-0.3132639218300561,-0.9739685556131039,0.9984464352767651,0.8916890126841388,2.249232527511269,0.012032757040975547,-0.9994481347371229,0.29766772110798856,-0.32581233002448945,3.6530605586203038,-1.2521753311157227,-1.6896419525146484,5.397960662841797,-1.620981216430664,3.620084762573242,-0.04586982727050781,-3.9495792388916016,1.1771469116210938,-4.0579986572265625,3.277355194091797,-1.2521753311157227,-1.6896419525146484,5.397960662841797,-1.620981216430664,3.620084762573242,-0.04586982727050781,-3.9495792388916016,1.1771469116210938,-4.0579986572265625,3.277355194091797
51,1.02,0.04548610225268249,0.026258705356701162,0.6944533551506812,0.9998810102317337,-0.007556433942267867,-0.006983126493888237,-0.011493547251076751,-0.014952599463490656,-0.014138762670297584,-0.022883108206720106,-0.16288476687245962,-0.07013322845797744,0.058681548888632425,-1.0241290900715396,-0.7783154129793727,-0.3105294803373839,-0.09606968767585285,0.03327053863051359,0.3161706116752831,0.7159573068914635,-2.4019603407399277,-0.14965096939520522,0.1170270826961888,0.26349095701626263,0.6610610907088976,-1.676072933926032,-0.32046629734075327,0.7646604990242032,-2.20739587312686,-1.8508607025302655,2.824049726463884,0.27260534564198596,0.8539999825313676,-0.43864528841364936,0.5753828085802771,4.112807239801337,-0.4105701446533203,1.413644790649414,-6.009243011474609,-9.25180435180664,0.4300203323364258,0.4555320739746094,5.29887580871582,-0.6547012329101562,-0.38982391357421875,0.5602378845214844,-0.4105701446533203,1.413644790649414,-6.009243011474609,-9.25180435180664,0.4300203323364258,0.4555320739746094,5.29887580871582,-0.6547012329101562,-0.38982391357421875,0.5602378845214844
52,1.04,0.04278483525435029,0.023920159451649495,0.6954703987892039,0.999868383161883,-0.0047025489397392525,-0.009164067703623774,-0.012534841436295205,-0.00917580926302403,-0.018444660337972412,-0.02498704416747477,-0.1189212784404754,-0.1488670003686535,0.05305089595967063,1.1312736464463158,0.14732827318061786,0.022423608057450802,-0.08429391211608629,0.03314852370350295,0.3192181651857515,0.6988072044005393,-2.315217058693619,-0.13974657225403134,0.11659141363305661,0.27271793318824433,0.6595180749411644,-1.597801435789379,1.1116433437476518,-0.49355852422491375,1.636857203630004,-0.2996048334680512,5.5481835030721065,0.6627761314724429,-0.5773252854059456,0.9891095704218944,-0.5630672150197198,3.7151973699987413,2.8499107360839844,-2.70876407623291,8.601795196533203,-4.372812271118164,1.2295894622802734,2.2006969451904297,-2.934551239013672,4.392055511474609,-7.477760314941406,-0.3726377487182617,2.8499107360839844,-2.70876407623291,8.601795196533203,-4.372812271118164,1.2295894622802734,2.2006969451904297,-2.934551239013672,4.392055511474609,-7.477760314941406,-0.3726377487182617
