step,time_s,torso_x,torso_y,torso_z,quat_w,quat_x,quat_y,quat_z,roll_rad,pitch_rad,yaw_rad,body_vx,body_vy,body_vz,body_wx,body_wy,body_wz,l_hip_roll_pos,l_hip_yaw_pos,l_hip_pitch_pos,l_knee_pos,l_wheel_pos,r_hip_roll_pos,r_hip_yaw_pos,r_hip_pitch_pos,r_knee_pos,r_wheel_pos,l_hip_roll_vel,l_hip_yaw_vel,l_hip_pitch_vel,l_knee_vel,l_wheel_vel,r_hip_roll_vel,r_hip_yaw_vel,r_hip_pitch_vel,r_knee_vel,r_wheel_vel,l_hip_roll_torque,l_hip_yaw_torque,l_hip_pitch_torque,l_knee_torque,l_wheel_torque,r_hip_roll_torque,r_hip_yaw_torque,r_hip_pitch_torque,r_knee_torque,r_wheel_torque,l_hip_roll_ctrl,l_hip_yaw_ctrl,l_hip_pitch_ctrl,l_knee_ctrl,l_wheel_ctrl,r_hip_roll_ctrl,r_hip_yaw_ctrl,r_hip_pitch_ctrl,r_knee_ctrl,r_wheel_ctrl
0,0.0,-0.0010316379384512375,0.00013244582970209384,0.705302023212963,0.9997995094690261,0.01657802752661504,-0.004348736088235441,-0.01035366424302709,0.0332467423121125,-0.008352538872687207,-0.02084960156550036,-0.11159815316851576,-0.2442093819012617,0.05897583679826012,5.820778800535596,-0.9236891807410129,-1.769537812179386,-0.020354171484415644,0.0037816174473156335,0.3665753343354903,0.587970226812157,-0.18766108148967803,0.027305221139466512,0.008404936038750858,0.4003046596554538,0.597712932962882,-0.17249434155839585,-1.0389695513138368,0.6001345825389093,4.0046964099824,-1.3130714154042475,-14.381701211736006,1.6443004204410443,0.7938381034427633,6.75543765210306,-1.5302461450499323,-13.5831560744531,-4.177032470703125,0.56341552734375,11.216255187988281,-15.678912162780762,-8.062471389770508,6.056739807128906,-3.1492347717285156,29.224853515625,-14.518107414245605,-7.596309185028076,-4.177032470703125,0.56341552734375,11.216255187988281,-15.678912162780762,-8.062471389770508,6.056739807128906,-3.1492347717285156,29.224853515625,-14.518107414245605,-7.596309185028076
1,0.02,-0.002239457072778109,-0.001325531243271296,0.7082257453487101,0.9995073168513775,0.02264958101113963,-0.0020017651752570684,-0.02163591867159973,0.045379244141053876,-0.0030214734904917117,-0.04335497494251363,-0.02014910690099965,0.04442238082270458,0.17493630291974346,-2.801001420466758,0.9975198841738833,-0.6906055296145013,-0.04472331543411333,-0.012821388695037156,0.3325231112689839,0.5950570881537889,-0.2836582865520761,0.059070092249066036,0.0023666425911963514,0.3749877230048152,0.5578803584337916,-0.33662399194050613,-1.1484679037616476,-1.7476499264599488,-5.550853830917953,1.750244054959937,3.7211107963144086,1.6573219193670639,-1.2385234472500182,-5.836861797255642,-2.7337268660308025,-5.5472594235434345,1.299835205078125,-10.414388656616211,-19.141254425048828,8.873756408691406,7.8176116943359375,-0.8900918960571289,0.7235937118530273,-30.0,1.5409584045410156,3.857746124267578,1.299835205078125,-10.414388656616211,-19.141254425048828,8.873756408691406,7.8176116943359375,-0.8900918960571289,0.7235937118530273,-30.0,1.5409584045410156,3.857746124267578
2,0.04,-0.002687670580688842,-0.001372555402481838,0.7090702944674154,0.9996542208847204,0.019087790069771612,-0.006879262353490869,-0.01672634709334584,0.038405252400970015,-0.013115605311785865,-0.03371303165897905,-0.06740223586476292,-0.020060413377794878,0.04260400077868158,0.9436308030315651,-2.0455741209073297,1.3980335256457639,-0.015959652788460073,-0.00179491166702113,0.2716049409996694,0.5168568078184712,-0.17543431978928165,0.03843698594657846,0.01785702560362734,0.34040226655697636,0.5677586708872485,-0.5551396567940592,2.6909752826745867,2.3673082543480772,-0.8778113098640075,-5.6351752899124685,6.246867835852929,-2.68186646538465,2.722361928885924,0.16611043050525653,2.2615864038578377,-14.844402964042883,6.200824737548828,8.938150405883789,13.489837646484375,-24.106937408447266,1.3055038452148438,-7.834803104400635,7.940925598144531,-0.44651031494140625,8.085586547851562,-3.792743682861328,6.200824737548828,8.938150405883789,13.489837646484375,-24.106937408447266,1.3055038452148438,-7.834803104400635,7.940925598144531,-0.44651031494140625,8.085586547851562,-3.792743682861328
3,0.06,-0.004218912706627219,0.0002159438382859565,0.7109346107169133,0.9999520704045856,-0.001127291959381742,-0.008623746005955515,-0.004496344209025385,-0.002177251130394183,-0.017257659351449017,-0.008974271241711141,-0.06521065432857157,0.1397543557705157,0.0758007129087205,-3.8185015156864854,1.398938919154927,0.9893659864932263,-0.04795395046464636,-0.007582499270154119,0.235577322348694,0.533910040593719,-0.030212039508813848,0.017752425875003506,0.01927496403590924,0.2577681771329875,0.5509631210004103,-0.6817766965943889,-3.9574958792157666,-2.4491564700667374,-3.1104454548147786,4.525651563645422,9.658345578578219,0.0038871681262635793,-1.9443062024064741,-6.315908096304468,-2.496265116067415,0.12400034216798406,-9.819473266601562,-12.101065635681152,-14.097719192504883,17.501445770263672,2.6797237396240234,2.0121898651123047,-11.319864273071289,-14.929829597473145,-5.26658821105957,7.294477462768555,-9.819473266601562,-12.101065635681152,-14.097719192504883,17.501445770263672,2.6797237396240234,2.0121898651123047,-11.319864273071289,-14.929829597473145,-5.26658821105957,7.294477462768555
4,0.08,-0.00529165698025913,0.0008823930019222311,0.7092183138165573,0.9999877961063325,0.002370232814775904,-0.0012760380948431955,-0.0041426273769631095,0.004751013185790318,-0.0025324097684883973,-0.008291324241495094,-0.035332012217650734,-0.03801165800904337,-0.18476192243203907,2.9786184044073303,0.4299663780255791,-0.52100767707427,-0.036641925535930216,-0.03465724365467074,0.2504901713945151,0.5353380450230321,0.06350780139147565,0.017675012259332514,-0.0008588603435034751,0.28319258348445164,0.5564797521630798,-0.5564568870600143,3.1053640705018837,-0.7281866150031149,3.2586307877516063,-2.6724182932492897,0.6650212357957762,0.08119909503457284,-0.4818958614747484,5.9052845536545195,1.7404454563834506,11.239873681302473,8.684436798095703,5.302228927612305,13.67852783203125,-12.371614456176758,-3.650869369506836,1.2657184600830078,-2.412212371826172,25.253074645996094,-1.4403228759765625,4.638996124267578,8.684436798095703,5.302228927612305,13.67852783203125,-12.371614456176758,-3.650869369506836,1.2657184600830078,-2.412212371826172,25.253074645996094,-1.4403228759765625,4.638996124267578
5,0.1,-0.005860885617243726,0.0019962965224007423,0.7091946996546158,0.9999582014929876,-0.007041855095231265,-0.0009856447366264206,-0.005747699381555108,-0.01407228521311374,-0.0020521574490396685,-0.011481313157002005,-0.004196090519670325,0.10845681666480322,0.07184741486251275,-3.2571394090215695,-0.08003096771380153,0.0302408520307268,-0.04171667806665733,-0.03445524000509272,0.22638375326069196,0.5370325054383411,0.030511285000630675,0.033369019237219306,-0.002648100116744154,0.2638297045363277,0.5590349752883651,-0.5463032510557551,-2.057800470271786,0.3940941996999484,-4.134930217247094,1.0214172786179923,-3.3742815486110764,1.0717173534600342,-0.03299219746166987,-5.061159018343951,-0.5016911712963902,-8.059335187666235,-6.197805404663086,3.913951873779297,-15.81225299835205,5.673931121826172,-1.462747573852539,2.012960433959961,5.257513046264648,-18.930755615234375,-5.556756973266602,-8.598433494567871,-6.197805404663086,3.913951873779297,-15.81225299835205,5.673931121826172,-1.462747573852539,2.012960433959961,5.257513046264648,-18.930755615234375,-5.556756973266602,-8.598433494567871
6,0.12,-0.005284968831215404,0.0014140290531259112,0.7077779853353684,0.9999099550848992,0.011560007380700269,-0.002132985793076721,-0.006472891400312192,0.02314780927355807,-0.004115945733749288,-0.012994407518887039,0.061751161753365744,-0.11952785810518049,-0.16081187810926928,5.128384848531773,0.0009913946587358016,-0.11650856171329733,-0.025746169691663368,-0.02202306706249638,0.2885004550448997,0.5469046786933488,-0.00192500020067362,0.03218056937939435,0.002416451749352323,0.3135900254418342,0.5738221808945917,-0.5834956208641362,2.324358001270593,0.7755559462210823,7.564954412463593,-0.18569217808037458,-0.21696060239218862,-0.5883435103992508,0.3171564010446498,7.166893976345647,1.1794296875423387,2.9731235877696314,4.919073104858398,5.355108261108398,26.77483367919922,-6.309694290161133,1.2187042236328125,-0.23989486694335938,-1.3687572479248047,26.862903594970703,-6.531045913696289,4.063020706176758,4.919073104858398,5.355108261108398,26.77483367919922,-6.309694290161133,1.2187042236328125,-0.23989486694335938,-1.3687572479248047,26.862903594970703,-6.531045913696289,4.063020706176758
7,0.14,-0.004611446309270041,0.001889020731183698,0.7086334690225485,0.9998644545395926,0.006544807861293861,0.0008088583324231032,-0.015085880368737039,0.013063829904362018,0.0018149667640079148,-0.030161706070543366,0.051124987068391685,0.11333779021528634,0.0989472912245753,-3.9210857213341335,0.7789236178339767,-1.3169752429709245,-0.021298382232079013,-0.028296041583874512,0.2647026193285805,0.5509822393383822,-0.06823485411448788,0.04691777334681208,-0.0030695295295673965,0.28910264349082676,0.5545243620131066,-0.6417916046231201,-0.7088326422076469,-0.9517578970206242,-6.5889077171920185,-0.4212905256425975,-6.338357701998449,1.3485373513856544,-0.9967869940880805,-6.161699018586441,-1.899735412428269,-7.586620366449457,-0.9957380294799805,-4.036899566650391,-30.0,4.493938446044922,-2.5176076889038086,1.9518585205078125,-1.2129364013671875,-21.505287170410156,-4.886846542358398,-4.416547775268555,-0.9957380294799805,-4.036899566650391,-30.0,4.493938446044922,-2.5176076889038086,1.9518585205078125,-1.2129364013671875,-21.505287170410156,-4.886846542358398,-4.416547775268555
8,0.16,-0.0041451458080814935,0.002104329143630801,0.7095057690852606,0.9997318828877391,0.00891376773485289,-0.004469270558233786,-0.020898150712017626,0.018011188780786707,-0.00856368668931138,-0.041878546473478155,-0.008648565066042557,-0.05637218271991003,0.05592689006180321,2.831598883241997,-1.5340456179118305,-0.038365168124614143,-0.007898817391231255,-0.015253745941800595,0.2559359702363052,0.5173181059474106,0.0027452698321040504,0.03862067710794711,0.010916225160518435,0.291140170414673,0.5548086059921012,-0.72219981034858,1.3048331766584265,1.7457012996462922,3.368812774833806,-2.300192449500238,11.679385537475852,-1.343442476777411,1.9430493613719062,3.8135044211178823,0.9676923140820934,-1.1041036784171427,1.8098678588867188,7.931501388549805,23.62618637084961,-16.85330581665039,7.361980438232422,-3.465496063232422,5.204151153564453,14.26068115234375,-1.1992053985595703,2.7194747924804688,1.8098678588867188,7.931501388549805,23.62618637084961,-16.85330581665039,7.361980438232422,-3.465496063232422,5.204151153564453,14.26068115234375,-1.1992053985595703,2.7194747924804688
9,0.18,-0.0040924371553793,0.0031419899723775227,0.7106620223529617,0.9996869291366617,-0.002584994654246115,-0.005624025600670693,-0.024243181556722882,-0.004896018220998753,-0.01137011173905763,-0.04846420847527562,0.003756323834349386,0.12124562467296227,0.020425768978327114,-3.650149541726712,0.7884847440266768,-0.5753348454782554,-0.027354029595417603,-0.017286581823436516,0.21672758630596353,0.4967907948395844,0.08441478771809179,0.04000111898318058,0.010188680451483544,0.25615079255514506,0.5487731587217368,-0.7482833585519791,-2.1930741990343012,-1.3434865751950245,-5.3619410509473555,-0.024439387058318413,-1.7753055641538185,0.786764246648638,-1.4827404725925688,-5.16971555933856,-0.7834300737803725,-1.132189983000081,-4.307727813720703,-6.3204145431518555,-21.188796997070312,5.873771667480469,-5.24339485168457,1.9953842163085938,-9.893477439880371,-17.443254470825195,0.8919696807861328,0.38411712646484375,-4.307727813720703,-6.3204145431518555,-21.188796997070312,5.873771667480469,-5.24339485168457,1.9953842163085938,-9.893477439880371,-17.443254470825195,0.8919696807861328,0.38411712646484375
10,0.2,-0.0037828789636112194,0.0028841147629806484,0.7104795889551868,0.9995649532674081,0.010600758327837094,-0.004452660365056796,-0.027160668954814362,0.02143655211008443,-0.008325695309520289,-0.05442085237059532,-0.0014151080125390837,-0.10572150813495791,0.011263357171036704,4.4764012900282495,-0.4638171905228318,-0.20926905574722693,-0.019870238834799606,-0.02402544879962808,0.25546065410246566,0.4988272737377109,0.14966592658127031,0.03146622980632334,0.007945055875264947,0.290649634210216,0.5425426118563259,-0.7141334588527175,1.733467016292739,0.4329770467362454,6.354682705641169,0.3115652760972147,7.700076501255194,-1.1656319844565473,0.75931432606522,5.8158028984601255,-0.2752148605480036,4.364342271117143,3.6609439849853516,3.8801841735839844,27.720348358154297,-11.434968948364258,3.528371810913086,-1.5027446746826172,1.7833805084228516,23.18914031982422,-9.00625228881836,1.8764019012451172,3.6609439849853516,3.8801841735839844,27.720348358154297,-11.434968948364258,3.528371810913086,-1.5027446746826172,1.7833805084228516,23.18914031982422,-9.00625228881836,1.8764019012451172
11,0.22,-0.0035523922121804582,0.003631073971320341,0.7113461981202162,0.9993600187766933,0.0027338270407781975,-0.0024404718543430716,-0.03558262437605489,0.0056379233684123045,-0.004683283634796546,-0.07119395487129551,0.021246936825816447,0.1309534058362647,0.03245710438936505,-4.141571602905254,0.6074001512176055,-1.3238490040056476,-0.022210713544498904,-0.031200471508593636,0.22131364630824465,0.49982450685260654,0.12471170882722034,0.04388082395825516,0.003905650883555197,0.26797952205283315,0.5280002188229862,-0.7165995448701624,-1.0559189478207325,-0.9199266590769646,-6.788342827390037,0.346238361160399,-8.181142028626804,1.5183669833447861,-0.864458981834099,-5.342438915149002,-0.6991137211326343,-3.6311613442742154,-1.5497760772705078,-3.606936454772949,-30.0,7.456085205078125,-6.3318023681640625,2.4485321044921875,-3.1023149490356445,-19.532047271728516,1.9205589294433594,-2.877171516418457,-1.5497760772705078,-3.606936454772949,-30.0,7.456085205078125,-6.3318023681640625,2.4485321044921875,-3.1023149490356445,-19.532047271728516,1.9205589294433594,-2.877171516418457
12,0.24,-0.0028260290334652374,0.003514544908580698,0.7106484360186832,0.9991968041712092,0.010157514307012363,-0.0026188485743373906,-0.03867444982531591,0.020502915952363976,-0.004447832362727335,-0.07741805206084904,0.012441387753418106,-0.09387192150135762,0.0009333075840897449,3.7298639234923203,-0.7629340459937074,0.34735687129800635,-0.006588695827842264,-0.0304470312222864,0.23532350280983053,0.4947754137134577,0.11074772628281103,0.04204821194174517,0.006027475044550837,0.286371415918551,0.5328771862734409,-0.7635451505660711,1.6441281100118006,0.8586012693884892,5.385137481286237,0.26146502697658314,5.669245206858422,-0.8681878835679736,1.1117064245189197,4.462882830652436,0.4560895379548379,-1.2732542758427616,2.5681838989257812,6.78455924987793,30.0,-13.031984329223633,5.280609130859375,-1.9530487060546875,2.0963497161865234,16.1842041015625,-5.722188949584961,0.4511384963989258,2.5681838989257812,6.78455924987793,30.0,-13.031984329223633,5.280609130859375,-1.9530487060546875,2.0963497161865234,16.1842041015625,-5.722188949584961,0.4511384963989258
13,0.26,-0.002741859165622686,0.004384825684640685,0.711165332582245,0.9990492326345245,0.00012686075250686714,-0.003051746730692789,-0.04348909657155774,0.0005189253272444823,-0.006086693923030377,-0.08700761888430997,0.01197112254916648,0.13499833663844535,0.01501989879436464,-4.0210693256605365,0.5043912447783497,-1.0735546835783414,-0.01628402093565817,-0.03188791442779137,0.1953047857898841,0.48484989133254547,0.16305328447889383,0.04104126307214061,0.005176068277816813,0.25865618016595054,0.5325443560458288,-0.7666524036433288,-1.5722800526255307,-0.8455137658180294,-6.763345041958674,-0.465248473814936,0.7943035666201271,0.5223658137706723,-0.8203419908345944,-4.6990827744495745,-0.1834333590603368,0.24174348992238726,-2.805342674255371,-4.009187698364258,-29.603885650634766,5.679634094238281,-1.490152359008789,-0.0685577392578125,-4.577157974243164,-15.685523986816406,2.3922042846679688,1.3787460327148438,-2.805342674255371,-4.009187698364258,-29.603885650634766,5.679634094238281,-1.490152359008789,-0.0685577392578125,-4.577157974243164,-15.685523986816406,2.3922042846679688,1.3787460327148438
14,0.28,-0.0025457535880326634,0.0044993550575517394,0.7106712707717449,0.9988651395956585,0.007615114829229568,-0.005911750028376988,-0.04664219268309048,0.015766043795796148,-0.011099938661678367,-0.09341008545722491,-0.017254456198985153,-0.08083698085772464,0.000367232905191639,3.7519441453057616,-0.96275619786493,0.14151541439034343,-0.009485707324015331,-0.027244480888608126,0.2136631974947975,0.4771943352421945,0.27332083414478187,0.04283146342909019,0.012282996863229461,0.29383817816002,0.5445522881273173,-0.687668724355988,1.2926388488373115,1.0257434727184787,5.587913990199441,-0.04717050977586065,9.748268610070319,-0.09651871980999555,1.285039619679464,5.553260140649506,0.8157153558039162,7.121991650411631,2.141002655029297,5.814239501953125,30.0,-13.051807403564453,3.764171600341797,0.8848304748535156,0.7537240982055664,18.558002471923828,-4.1753692626953125,2.7799224853515625,2.141002655029297,5.814239501953125,30.0,-13.051807403564453,3.764171600341797,0.8848304748535156,0.7537240982055664,18.558002471923828,-4.1753692626953125,2.7799224853515625
15,0.3,-0.0025335079492768598,0.0053311834113870275,0.7111132910145245,0.9987275453071132,6.918827338554164e-05,-0.003752828634067405,-0.050291169553465645,0.0005156832358728857,-0.007489217550427924,-0.1006274267471982,0.009383205892806211,0.12030285660227796,0.002574411869861598,-3.6107841507075884,0.925273387753308,-0.7785582836947365,-0.01243212952069175,-0.035540342661060195,0.1922747680003755,0.4866893929123745,0.2538777913802064,0.04626504058533404,0.007058421690849083,0.27416009613884973,0.5358974233586233,-0.6853049860963493,-0.8524724796430005,-1.3970590666860714,-5.260802089145444,1.1192770655670796,-9.444862837239432,0.2208156747108896,-1.3172044911281604,-4.975715667468221,-0.9744149401684848,-5.4367839297933935,-0.7835073471069336,-5.141365051269531,-25.12045669555664,8.416118621826172,-7.748213291168213,-0.7163286209106445,-6.825791358947754,-16.992916107177734,-1.155792236328125,-5.296472549438477,-0.7835073471069336,-5.141365051269531,-25.12045669555664,8.416118621826172,-7.748213291168213,-0.7163286209106445,-6.825791358947754,-16.992916107177734,-1.155792236328125,-5.296472549438477
16,0.32,-0.0021340752233228685,0.004933377152928988,0.7105936601121164,0.9986782613584753,0.01112865312632521,-0.0017308823871508587,-0.05014865318002196,0.022403426186258995,-0.002341017432316105,-0.10037198754692633,-0.014364155700719182,-0.1064736397676289,0.03954377832725503,3.954503513011909,-0.6451751020381283,0.46861652700868384,-0.00013697134713276703,-0.04226772688334795,0.22291750909868976,0.4866937088833953,0.24278959031777114,0.03471018461044819,0.0030325651028383586,0.2961494663544169,0.5309270983678285,-0.7126970136807073,1.2879456160143885,0.7041277678462032,5.803130774614774,0.3379785834006977,6.854355228127871,-0.9246703356659058,0.9107829391691552,4.569714088419913,-0.3293224898183545,1.8152400516804788,1.4443340301513672,6.276277542114258,28.647830963134766,-13.58380126953125,6.351781845092773,-1.210092544555664,2.3633289337158203,17.656204223632812,-7.906129837036133,2.527637481689453,1.4443340301513672,6.276277542114258,28.647830963134766,-13.58380126953125,6.351781845092773,-1.210092544555664,2.3633289337158203,17.656204223632812,-7.906129837036133,2.527637481689453
17,0.34,-0.002446099322648686,0.005568378014204786,0.7114727405624437,0.9985531625565046,0.0014580350820015849,-0.003511310674282543,-0.05363885139944812,0.003288619647354147,-0.006856099815813864,-0.10734126152499537,-0.017744217633840906,0.11986197762956192,0.009903588640674501,-4.058237635672754,0.06124210589466589,-0.9430858352213258,-0.011217875453225183,-0.040520671911603724,0.1818505256510013,0.47690294907743525,0.2706666185651802,0.038556253482718524,0.004887983018634482,0.26773086054166395,0.5322955274954587,-0.6835251134658537,-1.4701265829259538,-0.30694608078942953,-6.978076619423149,-0.5087981017279609,-2.676549048555517,0.6963371761704806,-0.503047364726682,-5.1434182450802215,0.6424900007520173,1.5410049676697213,-2.1517791748046875,-1.9267215728759766,-30.0,5.525062561035156,-3.652080535888672,0.7536096572875977,-2.8247241973876953,-17.385465621948242,4.7384185791015625,0.15142536163330078,-2.1517791748046875,-1.9267215728759766,-30.0,5.525062561035156,-3.652080535888672,0.7536096572875977,-2.8247241973876953,-17.385465621948242,4.7384185791015625,0.15142536163330078
18,0.36,-0.0017475525249691219,0.005257925906772683,0.7104036387741103,0.9984822780034001,0.009736517430713822,-0.002678924977690259,-0.05414022628717746,0.019735018481033092,-0.004295456923951069,-0.10838133689300647,0.013419072721330139,-0.09543615278491356,0.005437485243900822,3.6982765898097285,-0.4108283960370909,0.3816125743189879,-0.005665155376971161,-0.04132753227812592,0.20189068604120172,0.4755443631891841,0.33866895338729475,0.04518890454577151,0.003413942866652512,0.2947802767352135,0.538736279113279,-0.6176388563516139,1.0171841261052037,0.44161122726922264,6.141948778027636,1.349596520004078,7.961034433901469,0.0408276560490743,0.6882386370992131,4.787175869286135,0.007312977029442863,5.614545989972995,1.5542068481445312,4.972827911376953,30.0,-8.77128791809082,4.570423126220703,1.2266769409179688,-1.0721807479858398,17.92133331298828,-8.026195526123047,1.8770751953125,1.5542068481445312,4.972827911376953,30.0,-8.77128791809082,4.570423126220703,1.2266769409179688,-1.0721807479858398,17.92133331298828,-8.026195526123047,1.8770751953125
19,0.38,-0.0014257479980031916,0.006145722106609954,0.7111146919064277,0.9982521153470705,-0.0010314297761380427,-0.0021688021001685653,-0.059050373878302045,-0.0018031356071497367,-0.004451849901508755,-0.11816581836633433,0.024605462747687993,0.13445637587649484,0.020110804601295537,-4.099267291648038,0.3396297673853523,-1.1258180365777517,-0.003861050458198593,-0.04214730587829953,0.16787562318730403,0.475098560263434,0.3234034150425047,0.04946397125676644,0.002999148460945556,0.27130261191909755,0.532752134878555,-0.598092302032444,-0.29251756582898814,-0.4749351364018216,-6.653844314867027,-0.44760830804885454,-7.410917434528375,0.18259585480961016,-0.5812851378686031,-4.739850965229203,-0.14525756479808657,-2.6498085566201635,0.8393526077270508,-1.6744699478149414,-30.0,5.011539459228516,-6.026442527770996,-1.5763521194458008,-2.8014097213745117,-15.776031494140625,1.7400493621826172,-3.044192314147949,0.8393526077270508,-1.6744699478149414,-30.0,5.011539459228516,-6.026442527770996,-1.5763521194458008,-2.8014097213745117,-15.776031494140625,1.7400493621826172,-3.044192314147949
20,0.4,-0.0007762470407090477,0.005962174530195176,0.7104822165150434,0.9981312287522788,0.005017232149593776,-0.003157269210410285,-0.0608186585034346,0.010400109920062251,-0.0056924860790472966,-0.1217441724993874,0.0005749398343877802,-0.10066113094881796,0.014842202623538518,3.487497111665332,-0.7160788371678974,0.3735090780413318,0.006355281118780224,-0.03864795512501031,0.1841625425086685,0.47153876667434697,0.33203393787790453,0.04379916858001179,0.006479272430064473,0.291711771034254,0.5396641069009955,-0.5990268219841535,0.7868862570779812,0.8275966357349711,5.421084093498862,0.7798669259386956,6.985914385257674,-0.3881103616668615,1.025437162040681,4.315134303320254,0.24377499643677647,1.9721775395031136,-0.14672183990478516,5.634452819824219,30.0,-11.429882049560547,5.637041091918945,0.6506252288818359,0.5909652709960938,15.665203094482422,-6.408763885498047,1.3756580352783203,-0.14672183990478516,5.634452819824219,30.0,-11.429882049560547,5.637041091918945,0.6506252288818359,0.5909652709960938,15.665203094482422,-6.408763885498047,1.3756580352783203
21,0.42,-0.0006207283552552055,0.006460877901869521,0.7108048691345027,0.997863944117501,-0.0024346626366877743,-0.0015151950880352958,-0.06526350919124872,-0.004661193129848238,-0.0033417125675473057,-0.13061260557935706,0.019012189407981096,0.1081858702122725,-0.009123033637864868,-3.4685831609544295,0.7374397837935843,-1.0192505787920336,-0.004320983231201961,-0.04437488562559469,0.15746969928568505,0.4764483845172453,0.35579366021931075,0.04260093269889033,0.0021383077073663928,0.27522345654566355,0.5353820275475569,-0.5707687393740224,-1.172980508769414,-1.0822838708980378,-5.6227241207267955,0.33376188106727184,-3.191919330816842,0.1247044821262262,-1.046365563641444,-3.864232167857963,-0.29322807137861445,0.8842664874225115,-1.2279253005981445,-3.9366321563720703,-26.003026962280273,6.328876495361328,-3.9454498291015625,-1.0752878189086914,-5.769463539123535,-13.58029556274414,1.7886543273925781,0.22591876983642578,-1.2279253005981445,-3.9366321563720703,-26.003026962280273,6.328876495361328,-3.9454498291015625,-1.0752878189086914,-5.769463539123535,-13.58029556274414,1.7886543273925781,0.22591876983642578
22,0.44,-0.00041188165231198785,0.006009889338079663,0.7103272069779522,0.9977386374625065,0.007249802423321332,-0.0037197178703887498,-0.0667174293438274,0.014964026235872046,-0.006455280950158335,-0.1335867881597972,-0.033062465624825885,-0.10437993792287323,0.041366537327900806,3.701456722239315,-1.119260447479665,0.35697321374753843,0.001926362523295997,-0.04123354628158477,0.1823749908244961,0.4679764594430944,0.4472735880464754,0.040037412133645846,0.00725956719577635,0.3103690202434267,0.5416577356379605,-0.5010646302523754,1.0050727642791433,1.2225978344134607,5.5241828896554805,-0.24276286115840706,10.938371274972875,-0.19402136274494225,1.4367142631652745,4.965657598347203,0.33330887454823305,5.633121237500035,1.0371513366699219,6.469247817993164,30.0,-15.077899932861328,5.920257568359375,0.9896316528320312,2.051969528198242,15.640338897705078,-4.891862869262695,1.707061767578125,1.0371513366699219,6.469247817993164,30.0,-15.077899932861328,5.920257568359375,0.9896316528320312,2.051969528198242,15.640338897705078,-4.891862869262695,1.707061767578125
23,0.46,-0.0006534120493859908,0.0064052657625191575,0.7112127391425559,0.997666774779723,0.00038066838018156166,-0.004015175669982208,-0.06815232906180752,0.0013068893103666615,-0.007959811901768638,-0.1364167084191362,0.002287218097310321,0.10112547699539134,0.01909558579640771,-3.4798533799576856,0.6285472264594367,-0.5096678594436373,-0.009386221314443268,-0.04366554582384877,0.16493792966712495,0.4764718806342138,0.4579290862459574,0.04192982276889947,0.0076693332511454885,0.2918551916764547,0.5348615646681274,-0.49297604863838723,-1.3396585649808737,-1.0103017678788153,-4.897444113885341,1.1452877980138063,-7.74492553418514,0.18642643119216093,-0.9200602999985639,-4.5452590807175195,-0.47663135389096606,-3.670285341947996,-1.720632553100586,-4.019199371337891,-23.452407836914062,8.227764129638672,-7.544764995574951,-0.7857704162597656,-6.356899261474609,-16.78122329711914,1.3130168914794922,-3.563443183898926,-1.720632553100586,-4.019199371337891,-23.452407836914062,8.227764129638672,-7.544764995574951,-0.7857704162597656,-6.356899261474609,-16.78122329711914,1.3130168914794922,-3.563443183898926
24,0.48,7.081456238537136e-05,0.005648116241744757,0.7101292109804891,0.9977981801283136,0.012771788900853802,-0.0006440463622831136,-0.06507886250681603,0.02557395245683161,0.0003770904202176509,-0.13025562020017187,0.01185787255270438,-0.11811159586331009,0.0037958143591354937,3.9646561033393075,-0.23865421227457911,0.7347708738902918,-0.0006163004773891241,-0.05148171984502217,0.20759925155937042,0.4777083226994511,0.4706578614229152,0.03206228490621083,0.000311683751435718,0.31885378481077326,0.5312663837865358,-0.48410688240002575,1.2240318804030035,0.3093782964515423,6.622724848213833,1.1110350305220602,7.648922249989283,-0.7490501799640891,0.45352403638238725,4.634794902258781,-0.4105559780607906,3.6556879836033307,1.7879047393798828,5.861391067504883,30.0,-10.772802352905273,6.120899200439453,-0.28768348693847656,0.3641691207885742,16.559646606445312,-8.273208618164062,2.6245689392089844,1.7879047393798828,5.861391067504883,30.0,-10.772802352905273,6.120899200439453,-0.28768348693847656,0.3641691207885742,16.559646606445312,-8.273208618164062,2.6245689392089844
25,0.5,7.694171574307964e-05,0.006119134939565759,0.7111979927419652,0.9977573914199348,0.002176096647494257,-0.003280676028690064,-0.0668183330760609,0.004780963402782798,-0.0062558720165834065,-0.1337523000348618,0.014138312693399682,0.11901325188559499,0.0457869130102901,-4.207055431964823,-0.16434718201181464,-0.7685050420786909,-0.008381388059107505,-0.04456961551583842,0.17511623719574274,0.47637774377733616,0.4674240417484713,0.03728208424891464,0.006582415674836476,0.29045344972548864,0.5315354812477492,-0.4716470497803086,-1.1322845433697655,0.1970930847901187,-6.826734488401204,-0.6737905695495549,-6.1564242363219375,0.8288938636954694,0.029235095803034503,-4.81774982132311,0.41194601762401567,-2.4100586137785642,-1.3320140838623047,0.5226964950561523,-30.0,4.195690155029297,-5.441078186035156,0.2961158752441406,-0.21644973754882812,-17.395456314086914,4.528873443603516,-1.8189382553100586,-1.3320140838623047,0.5226964950561523,-30.0,4.195690155029297,-5.441078186035156,0.2961158752441406,-0.21644973754882812,-17.395456314086914,4.528873443603516,-1.8189382553100586
26,0.52,0.0011193017622653967,0.005820962322251036,0.7102656737428956,0.9979081516275328,0.0059711223834839665,-0.0027240511156305662,-0.06431365452469993,0.0122680921983758,-0.004668673183394707,-0.12874756127228276,0.054883397393697075,-0.10219926403903443,-0.053656372951149896,3.2115022919526863,0.057093081590869066,0.8103965908628405,-0.0033723539513357253,-0.03998041351660073,0.19366866743598068,0.47873210472933225,0.4793140722126809,0.039354037799001325,0.006793248189107113,0.3026574689246113,0.5392075003302442,-0.4657371892830489,0.8207641422965584,0.10249436562783634,5.635454989058947,1.2264479106427346,6.538168774529714,-0.22610783663079903,0.1737962663914975,3.842985628066083,0.10393798781768168,2.319235263911323,0.8451852798461914,4.955621719360352,30.0,-7.109949111938477,4.912153244018555,1.0002765655517578,-2.255068778991699,13.303245544433594,-7.206809997558594,1.5305633544921875,0.8451852798461914,4.955621719360352,30.0,-7.109949111938477,4.912153244018555,1.0002765655517578,-2.255068778991699,13.303245544433594,-7.206809997558594,1.5305633544921875
27,0.54,0.001738863450827179,0.006423962127746527,0.7103004064935682,0.9976623281355715,-0.005520759471409003,-0.0016665258449902398,-0.06809275237188032,-0.010789049814863224,-0.00407711881958376,-0.13627124053302722,0.03145199579414315,0.11201389550971588,-0.014947864544848775,-3.8551765761256895,0.21895387070054936,-1.2021911197135366,-0.008191935097014437,-0.03973162584492916,0.1579257446321608,0.47629209428725544,0.454474511453058,0.03800229993759817,0.006009854249113593,0.278588609509553,0.541808890943489,-0.47130029901699416,-0.6922348806090325,-0.18096452173505734,-6.504151487903183,-0.8834431101152529,-7.098968614332701,-0.09034756598189901,-0.36827373332396995,-4.147439843814299,0.4538803366685742,-2.2345650263007766,-0.1542339324951172,-0.652552604675293,-30.0,3.8833961486816406,-5.1547441482543945,-1.6724615097045898,-1.1070556640625,-11.597249984741211,1.6614322662353516,-1.6276178359985352,-0.1542339324951172,-0.652552604675293,-30.0,3.8833961486816406,-5.1547441482543945,-1.6724615097045898,-1.1070556640625,-11.597249984741211,1.6614322662353516,-1.6276178359985352
28,0.56,0.0022155053302595714,0.005909738894139902,0.7097796088751869,0.9974158036998513,0.0005793337197778044,-0.003806457841760205,-0.07174182727614026,0.0017018865144825459,-0.0075101880948891106,-0.14361448001540839,0.005208816860060543,-0.11682199268163493,0.006651484540722496,3.469873469702252,-0.5416596005891476,0.17092010078882303,-0.004633363327376613,-0.03436230496725682,0.17543871357141844,0.47943954141741857,0.48252358808372875,0.04255241540934373,0.011523828950752348,0.30281439540131877,0.5504960433207163,-0.4385299856761021,0.5468494293155914,0.6112895323087979,5.40130778302617,0.7080292522418737,8.40785927766768,0.523405691601858,0.8174576389615322,4.464368785114099,0.10718965231019723,4.6060293975560365,-0.23958110809326172,4.749845504760742,30.0,-10.677410125732422,6.165040969848633,2.977081298828125,-0.6532497406005859,15.07061767578125,-6.924474716186523,2.4711532592773438,-0.23958110809326172,4.749845504760742,30.0,-10.677410125732422,6.165040969848633,2.977081298828125,-0.6532497406005859,15.07061767578125,-6.924474716186523,2.4711532592773438
29,0.58,0.002532484213553755,0.005916210655801015,0.7097585122237126,0.9970560682050442,-0.0037081966226844365,-0.0020125176474231686,-0.07655975382682811,-0.007086537847891498,-0.004580999129064285,-0.1532546209789794,0.02227085832596972,0.07544785025070579,-0.03699212933920333,-2.9195717637153518,0.6251423712438136,-0.9708536027449299,-0.002594983767814069,-0.03834176189677452,0.1576231913533436,0.47877955356106644,0.44530111373323145,0.043998700375150586,0.007892433963582343,0.2925368662015613,0.548389669071997,-0.4493748335175552,-0.051516686597094186,-0.8236900557357597,-4.838382162586233,-0.16784837309693199,-9.981717023216312,-0.2943869945403618,-0.8956668831011978,-3.560439906458387,-0.008479358098561037,-4.557616086826201,1.3812599182128906,-3.3200302124023438,-23.273151397705078,4.548564910888672,-7.438776016235352,-2.4726552963256836,-4.604877471923828,-12.82461929321289,1.7690448760986328,-3.6765928268432617,1.3812599182128906,-3.3200302124023438,-23.273151397705078,4.548564910888672,-7.438776016235352,-2.4726552963256836,-4.604877471923828,-12.82461929321289,1.7690448760986328,-3.6765928268432617
30,0.6,0.0025513177897952093,0.004793812723446083,0.7097955985640796,0.9969659299112322,0.008841116685442138,-0.0034384662357225416,-0.07725895548045937,0.018161160853493986,-0.005489984073444682,-0.154728870968831,-0.01950803212664768,-0.14228847225254854,0.05324782277575432,3.9618773619674394,-0.5391662600168565,0.5550937978324676,0.0034104502266101427,-0.03752030457704525,0.19266455050406603,0.4834399245355481,0.4750950642562437,0.03384951568081083,0.010478427644828554,0.31748507353987665,0.5438314872038472,-0.47270665582240645,0.3636379491794146,0.6135581465366088,5.90736384108596,0.07948022555459688,10.594681524320576,-0.5455589437936138,0.7896439548392815,4.219763197881255,-0.6624109833238117,1.3718937814279903,-1.2510385513305664,5.030525207519531,30.0,-12.681055068969727,8.293275833129883,0.512791633605957,1.9025154113769531,13.658164978027344,-8.702011108398438,2.0063743591308594,-1.2510385513305664,5.030525207519531,30.0,-12.681055068969727,8.293275833129883,0.512791633605957,1.9025154113769531,13.658164978027344,-8.702011108398438,2.0063743591308594
31,0.62,0.002326753594697158,0.004698094241166264,0.7106749733027649,0.996782438086025,0.0018972530521204388,-0.003947153743929298,-0.08003493944183226,0.0044142581242584715,-0.007565286162980633,-0.16025950141066123,-0.0075063799209831574,0.08285461388873067,0.004341027735254218,-3.6384216445569844,0.1909450757858605,-0.8585112615091944,-0.009525488703574564,-0.03728108420833444,0.1630390587455484,0.4720052857758815,0.49877766213653085,0.03532238773238517,0.009717838122489726,0.2940341942188362,0.5492820897321349,-0.4665958315701831,-1.1015238453723253,-0.39060940253723764,-6.113641120911789,-0.5418426564336654,-6.170213581680803,0.3078713358374383,-0.6248053701447001,-4.569842145966763,1.1324681328211152,-0.1840358282934273,-0.6518497467041016,-2.4222593307495117,-27.75923728942871,5.243072509765625,-6.680619239807129,-0.4212474822998047,-2.688211441040039,-16.018775939941406,5.980655670166016,-0.39329051971435547,-0.6518497467041016,-2.4222593307495117,-27.75923728942871,5.243072509765625,-6.680619239807129,-0.4212474822998047,-2.688211441040039,-16.018775939941406,5.980655670166016,-0.39329051971435547
32,0.64,0.0026294579864341544,0.0037592682419234497,0.7097676075592247,0.9967531215997791,0.010482923197967777,-0.0030823457055071174,-0.07977356734704633,0.02139139755248225,-0.004472169955618743,-0.15977423330002405,0.011977748898246673,-0.12443657720899762,0.02415175274086856,3.5058431466804927,-0.06216037865793429,0.5255677564673867,-0.006970790976557391,-0.040722326973627876,0.19307547419420545,0.4818757414125726,0.5594155299966156,0.03600341121767604,0.005600933689663941,0.3090236622202903,0.545298835334422,-0.43458535666348447,0.6623591007894278,0.04390537366059598,6.23659486212836,1.6092957491034954,10.243982264822192,-0.0948666657894304,0.26007315215715077,3.8364759084656814,-0.7589345488287491,3.3490038093132117,0.4968538284301758,3.974905014038086,30.0,-7.4019622802734375,6.922420501708984,1.3531227111816406,-1.0469417572021484,14.119338989257812,-10.108541488647461,1.5609245300292969,0.4968538284301758,3.974905014038086,30.0,-7.4019622802734375,6.922420501708984,1.3531227111816406,-1.0469417572021484,14.119338989257812,-10.108541488647461,1.5609245300292969
33,0.66,0.002863728677911787,0.003972851674383005,0.7102893291009392,0.9964161396168789,-0.00028832710054839676,-0.002027429845581921,-0.08456171182456762,-0.00023170361545760213,-0.004089101902001692,-0.1693255151631344,0.012659396906834328,0.09709779393334775,-0.009836190236008086,-3.9791236075041745,0.0843358919508812,-1.1839181192240225,-0.007330828664920413,-0.040863874284339435,0.15779421296116433,0.4710873202330686,0.5782625919602716,0.037391432899945246,0.003390995308097349,0.2800444373994939,0.5449958098761545,-0.4059523404071452,-0.2807743645165116,-0.07908786042119997,-6.737609003118954,-1.3649321811671635,-6.301242775033657,0.032879855284284894,-0.3784018528369327,-4.726370700787276,0.7059835521644774,0.18105897904783885,0.9807090759277344,-0.3213691711425781,-30.0,2.7939987182617188,-6.552643775939941,-1.5886878967285156,-0.81219482421875,-14.957701683044434,4.446769714355469,-1.0788040161132812,0.9807090759277344,-0.3213691711425781,-30.0,2.7939987182617188,-6.552643775939941,-1.5886878967285156,-0.81219482421875,-14.957701683044434,4.446769714355469,-1.0788040161132812
34,0.68,0.0031848268341247124,0.0032289684976171823,0.7098713136337448,0.9961747563977915,0.004223543007589563,-0.00416589672362278,-0.08718177392524014,0.009141543186170694,-0.007563562479546127,-0.1746228382038329,0.005009678965975093,-0.1288468039101855,0.009368523738103842,3.3051821130008334,-0.4482332016612726,0.3079767017227149,-0.0010322039368999435,-0.036128511855116535,0.1734235073390474,0.47337626315791903,0.627725544619373,0.04127201509367741,0.008170327766230546,0.29507989428890036,0.5512271974883333,-0.3813932544139456,0.525297289584904,0.5195005756221435,5.411058868542435,0.8429093445463357,9.584363854199005,0.23569162204183752,0.7041803816756511,3.950912470933655,0.010184991796792109,2.5470677268214748,-0.6934881210327148,4.351108551025391,30.0,-9.386957168579102,6.359914779663086,2.449064254760742,-0.09147453308105469,14.068443298339844,-7.598297119140625,0.9152107238769531,-0.6934881210327148,4.351108551025391,30.0,-9.386957168579102,6.359914779663086,2.449064254760742,-0.09147453308105469,14.068443298339844,-7.598297119140625,0.9152107238769531
35,0.7,0.003455404711320368,0.0031950190593380266,0.7100074190560877,0.9956754330032024,-0.003827919713611693,-0.0017672453484670891,-0.09280439638524651,-0.007294844913235463,-0.004229713723903803,-0.18586249071092914,0.03059962163320066,0.08216681755151534,-0.017933153149078826,-3.4790843818499777,0.6710183835964387,-1.146592223168044,-0.005525177570618272,-0.04082647209767564,0.14677305051035094,0.4732368987581148,0.6414275027686698,0.04017913084645109,0.0028097146492103275,0.27730876391246323,0.5486080267659305,-0.35676126980225625,-0.5442202431601891,-0.8520488574765404,-5.620546574181551,-0.13394819312476336,-6.188944184487854,-0.1749491859105916,-0.9040689162300882,-3.7102542139265267,-0.027773242527618966,-0.04933517655059244,0.38422298431396484,-3.0385923385620117,-26.503021240234375,5.41326904296875,-6.22850227355957,-2.625269889831543,-4.300310134887695,-12.44949722290039,2.121532440185547,-0.4391899108886719,0.38422298431396484,-3.0385923385620117,-26.503021240234375,5.41326904296875,-6.22850227355957,-2.625269889831543,-4.300310134887695,-12.44949722290039,2.121532440185547,-0.4391899108886719
36,0.72,0.003576671075468288,0.002177180472621428,0.7098224267221819,0.9954118243767548,0.004262915652633493,-0.004164057054481416,-0.09549758148731308,0.009282420729293398,-0.007475776622219612,-0.19132477078883073,-0.026047918324046133,-0.13842739572382406,0.04198598010272671,3.569541853997631,-0.8306859607678452,0.2842851242551118,0.002726816630444337,-0.037153476279545156,0.17077716533907952,0.4718637030660311,0.7104810177888519,0.03821190865291615,0.008035244467751588,0.3051099246085355,0.5514561345466843,-0.3044829302469155,0.8303716284136161,0.9197665335863736,5.408489199525071,-0.05640533232184766,11.369772686959301,0.0024883682206475848,1.1151911990507226,4.478929749196153,0.006855577150901751,4.667388593358063,0.17118263244628906,5.3130340576171875,30.0,-13.79189682006836,7.182218551635742,1.812173843383789,1.5998191833496094,14.265716552734375,-6.359130859375,1.5547256469726562,0.17118263244628906,5.3130340576171875,30.0,-13.79189682006836,7.182218551635742,1.812173843383789,1.5998191833496094,14.265716552734375,-6.359130859375,1.5547256469726562
37,0.74,0.003457050131305573,0.0018378879810805875,0.7104139558356509,0.995154932483047,-0.0015035241091349676,-0.0031470099777944206,-0.09825729539384769,-0.002374098786613182,-0.006559036458235937,-0.19682559585151507,0.01201770920036637,0.06298599916992709,-0.0018757165998629158,-3.249651436061187,0.6672792890004295,-0.6660430866453915,-0.00809025765037226,-0.04105477472632642,0.15457079213364014,0.4771949830090433,0.7298790281608863,0.0394627723186593,0.005408854886691859,0.2895628806479764,0.5455628169543295,-0.2851235525467785,-1.2180590018403812,-0.9800799584860822,-4.744474952219271,0.7840679545315843,-7.269231558573729,0.07724292489928167,-0.9345182753481485,-3.962432522374519,-0.23491502881433043,-1.9974732272441025,-1.4517507553100586,-3.844127655029297,-23.10939598083496,7.270660400390625,-7.501795291900635,-1.4253807067871094,-5.652215003967285,-14.77804183959961,2.2766761779785156,-2.281094551086426,-1.4517507553100586,-3.844127655029297,-23.10939598083496,7.270660400390625,-7.501795291900635,-1.4253807067871094,-5.652215003967285,-14.77804183959961,2.2766761779785156,-2.281094551086426
38,0.76,0.003807546307926776,0.0003995773342167753,0.7097676079915481,0.9952560192365209,0.010632571483936674,-0.0023101415985003976,-0.09668023501681765,0.02161270399332204,-0.0025424483816742284,-0.19370194609194616,-0.016281440053889082,-0.15191220041944645,0.033680408688274766,3.882020420494696,-0.5237563250755728,0.593930615886713,-0.001534478758878105,-0.04564038919063329,0.19582721989592752,0.48306791301830826,0.7783770690498499,0.03291710431766496,0.002747063188670815,0.31872108447808534,0.5423470335199952,-0.2491653175971255,1.054932538862505,0.5539806442204823,6.334366405621441,0.9264969841852069,10.287092019865149,-0.4790245688061831,0.7750844711431506,4.537864708635669,-0.50030856354546,4.809919277461073,1.3246650695800781,5.53016471862793,30.0,-11.697792053222656,7.071905136108398,0.3966026306152344,0.9370508193969727,15.470298767089844,-8.101484298706055,2.4344654083251953,1.3246650695800781,5.53016471862793,30.0,-11.697792053222656,7.071905136108398,0.3966026306152344,0.9370508193969727,15.470298767089844,-8.101484298706055,2.4344654083251953
39,0.78,0.003895597514568277,0.0001621196223587609,0.7106942696859126,0.9950809753195067,0.00013547906666771723,-0.002359977280560607,-0.09903668365729854,0.000737082034258916,-0.004669919166902638,-0.19840087471223877,0.020266801760015985,0.08119344506574995,0.02475544907336205,-4.194336776565444,0.19067887100903008,-0.8022723649377587,-0.009424930767886943,-0.044332899889503334,0.1594966152087239,0.4743319716360835,0.8039991245807104,0.03877680086181861,0.004350739992453723,0.29223108171479645,0.5369960781966168,-0.21970459015535293,-1.0903421300021476,-0.26776888429613815,-6.893937739609949,-0.7738002878609055,-5.783947057660001,0.6313592122911464,-0.41320524464291214,-4.902314897658557,0.14614848881973347,-1.073294069005219,-1.0645360946655273,-1.129115104675293,-30.0,4.4853363037109375,-6.418073654174805,-0.24724102020263672,-2.366405487060547,-17.43834686279297,4.074390411376953,-1.7433128356933594,-1.0645360946655273,-1.129115104675293,-30.0,4.4853363037109375,-6.418073654174805,-0.24724102020263672,-2.366405487060547,-17.43834686279297,4.074390411376953,-1.7433128356933594
40,0.8,0.0045421321662208365,-0.0009331188279534869,0.7099126060696511,0.9951999785855051,0.004520092977952593,-0.0026011549179047406,-0.09772310564023225,0.009505409510405462,-0.004293916785011197,-0.19578171318365295,-0.0028056728879629327,-0.13644614924929874,0.007922000280749086,3.219951055070004,-0.547717346389279,0.5980870071466674,-0.0021685044549704254,-0.04198920782234838,0.17575308760829045,0.4742066441187151,0.8334529646286977,0.03931524136940321,0.005610725131690744,0.3070081545381867,0.5442530850767312,-0.19877088720813124,0.9922304258197822,0.581782417603436,5.5713393363430335,1.4693367450506063,7.462499533078559,-0.22401570625701303,0.8102465802364903,3.8832990299560324,0.12343931915611404,2.798299746404915,1.1571006774902344,5.128496170043945,30.0,-9.102825164794922,5.292524337768555,0.9624118804931641,-0.2068920135498047,14.418987274169922,-6.882802963256836,1.1111087799072266,1.1571006774902344,5.128496170043945,30.0,-9.102825164794922,5.292524337768555,0.9624118804931641,-0.2068920135498047,14.418987274169922,-6.882802963256836,1.1111087799072266
41,0.82,0.004749033010909323,-0.001156369472893694,0.71031075567612,0.9948553286611905,-0.005574887510836994,0.00020316349399046384,-0.10115213486757862,-0.011133746872985104,-0.0007235870407062483,-0.20264999189830193,0.02046078328041146,0.06996212418459324,-0.007146358683639576,-3.722872302992409,0.7077659428334103,-1.032143714659308,-0.008465979380071884,-0.04761379612005961,0.14388384661155057,0.4758620028073588,0.8648740794279298,0.037554197005706565,0.0004109663999602273,0.2830774190946111,0.5369059962788897,-0.15503012842868016,-0.9484964864805561,-0.9185309543711039,-6.1140303943966545,-0.3042526361186455,-2.81792869172517,-0.11316909199986591,-1.0215631560198273,-4.248559018712672,-0.4265598302551237,1.8622471379597318,-0.8686037063598633,-2.8674964904785156,-27.6129093170166,4.736259460449219,-3.9201364517211914,-1.535618782043457,-5.36159610748291,-13.378894805908203,1.038187026977539,0.19443321228027344,-0.8686037063598633,-2.8674964904785156,-27.6129093170166,4.736259460449219,-3.9201364517211914,-1.535618782043457,-5.36159610748291,-13.378894805908203,1.038187026977539,0.19443321228027344
42,0.84,0.004536818182606854,-0.002378473006998799,0.7100172380398392,0.9946264650833369,0.001748244173297659,-0.0034504269547083848,-0.10345643117741,0.004191738443870443,-0.0065020835387529265,-0.2072989414963257,-0.05915479053132275,-0.14588371972619224,0.03138024512032694,3.5940695210098426,-1.1826275308477885,0.2241535392903175,0.0001418397589263952,-0.041435315438268505,0.16287340847061052,0.46632386226582356,0.9613964346473132,0.03934034233511571,0.007813531985679837,0.31404567171346126,0.5452084656659344,-0.07026043126871305,1.0800462042964292,1.2580981167970795,5.265115671139097,-0.3391715352242639,11.247883617048203,0.24064253222470627,1.4839059978979543,4.964964558232258,0.5788411437222342,6.18987014704875,0.9526901245117188,6.1143646240234375,30.0,-14.81338119506836,5.828243255615234,2.1866683959960938,2.199737548828125,16.04973602294922,-4.176916122436523,1.5178565979003906,0.9526901245117188,6.1143646240234375,30.0,-14.81338119506836,5.828243255615234,2.1866683959960938,2.199737548828125,16.04973602294922,-4.176916122436523,1.5178565979003906
43,0.86,0.004028933427278359,-0.003112450609177009,0.7106812651617256,0.9945755991671842,-0.001628780989083478,-0.0027305264341837563,-0.10396763361314912,-0.0026721665767026107,-0.005770142957857139,-0.20830505317407283,-0.004230703906168499,0.033931583492150245,0.0088157341173717,-2.844998227661501,0.8423752333404781,-0.2802022047416044,-0.010150654751602817,-0.046346941949233667,0.1584032212674873,0.4813567040254157,0.9635827802993937,0.040363125673555024,0.005748680589728415,0.30084017214738235,0.5373338576676301,-0.0628292626878625,-1.3184271021338745,-1.2470510427667891,-3.67714414416747,1.6493600660018488,-8.815572182968904,-0.13637375318709083,-1.1479077075342348,-4.1400095411106586,-0.7403691687008144,-4.172145569543485,-1.9162006378173828,-4.419020652770996,-19.24925422668457,8.52835464477539,-8.152660369873047,-1.6243553161621094,-7.28707218170166,-15.787832260131836,-0.23318862915039062,-4.213436126708984,-1.9162006378173828,-4.419020652770996,-19.24925422668457,8.52835464477539,-8.152660369873047,-1.6243553161621094,-7.28707218170166,-15.787832260131836,-0.23318862915039062,-4.213436126708984
44,0.88,0.004074472363559129,-0.00499480647748253,0.7100209014441368,0.9948975492609541,0.013378453336729403,-0.001236110855517027,-0.09999177711600403,0.02687081686445406,0.00021586332854514083,-0.2003335563189062,-0.038499903501573125,-0.16488210288497468,0.03548341840385938,4.02590419681346,-0.5791149295914112,0.7401537177260198,-0.002467263017931162,-0.05344986047597004,0.20753209480725288,0.482605380722835,1.0043967133958533,0.028528884954997166,0.00048020065980441907,0.3308118936811239,0.5309699143569844,-0.04648803520470637,1.1671306763671663,0.5864213532513898,6.377289538616699,0.5092040271552168,10.880445261898062,-0.7690577168159001,0.7931170195842382,4.652515244629822,-0.5264482071210019,4.779442808217377,1.700185775756836,6.21916389465332,28.21611785888672,-12.664947509765625,7.904603958129883,-0.49483776092529297,1.9540252685546875,16.15567398071289,-7.535926818847656,3.4643783569335938,1.700185775756836,6.21916389465332,28.21611785888672,-12.664947509765625,7.904603958129883,-0.49483776092529297,1.9540252685546875,16.15567398071289,-7.535926818847656,3.4643783569335938
45,0.9,0.0038300370675361265,-0.005365074045669782,0.7113369583541634,0.9949458818022712,0.0017940284543210804,-0.0029598488243219715,-0.10035294236614904,0.0041640572194229205,-0.005529734910173381,-0.20105701720849392,0.008088014001730284,0.0788228040772038,0.05472629012419484,-4.4365561341600905,-0.058885733282836465,-0.5588311973957306,-0.013083692563183404,-0.04762911097441467,0.16847304040232325,0.4697222310269203,1.023726114113629,0.03555442746341071,0.006218959183904344,0.30096010327585787,0.5267045487599469,-0.028209132089242597,-1.3529108674814965,0.0997938614226879,-7.1415097739696485,-0.8796566878438354,-6.803274119026337,0.8769445379595162,-0.10374059325668138,-5.255581128063621,0.2803617619341944,-2.016822407133586,-1.7409124374389648,0.4103507995605469,-30.0,4.4007415771484375,-7.06312370300293,0.6787042617797852,-1.226541519165039,-19.670507431030273,4.863529205322266,-1.9734668731689453,-1.7409124374389648,0.4103507995605469,-30.0,4.4007415771484375,-7.06312370300293,0.6787042617797852,-1.226541519165039,-19.670507431030273,4.863529205322266,-1.9734668731689453
46,0.92,0.004550801755317842,-0.006496684637585633,0.7104312489949591,0.9953288723453176,0.004169968918287633,-0.0020881752464331827,-0.09642969853296711,0.008703863953316083,-0.0033526308158849175,-0.1931762422052009,0.033406232986624325,-0.14594246580148237,-0.05908757361071608,3.130918702652718,0.0554291877990718,0.9238635577733207,-0.005494162098298011,-0.04407472555058833,0.18511614759158154,0.4738390545969522,1.0198462021207373,0.036460748340305944,0.00535844578139696,0.30722149795012865,0.5340526999450953,-0.028436204708517133,1.1526236902808604,0.06525053675552495,5.627959023013457,1.4770303124615525,5.7518939194000005,-0.2989380079135642,0.1526361901919837,3.6164416926979306,0.17111927496741505,1.4920965247951958,1.7340507507324219,4.740131378173828,30.0,-6.338682174682617,4.783941268920898,0.8181743621826172,-1.5776891708374023,13.450843811035156,-7.225160598754883,0.8644905090332031,1.7340507507324219,4.740131378173828,30.0,-6.338682174682617,4.783941268920898,0.8181743621826172,-1.5776891708374023,13.450843811035156,-7.225160598754883,0.8644905090332031
47,0.94,0.00491333317623897,-0.006772488456236351,0.7105439859876904,0.9950305219844755,-0.007458046254437219,-0.00014361698773790872,-0.09929056974118433,-0.014814012640478078,-0.0017668348153238472,-0.19890135012030524,0.024157248653935683,0.06788318857111862,-0.0036498255984101623,-3.8457049905498195,0.2987018444369633,-1.131648856777159,-0.01252365349731111,-0.04498002002092527,0.14901500414347968,0.4712993149922511,1.0173929226619713,0.03396956683795961,0.0031589712724995004,0.2813585586471357,0.5342932673069147,-0.014028612428719035,-1.0576327572685693,-0.22768081716206637,-6.52106249508892,-0.9945158027665909,-4.408162294386122,-0.13183845779845582,-0.4638780285585513,-4.1347542734540035,0.1859349710941664,0.20445755060347756,-1.2634763717651367,-0.1696310043334961,-30.0,3.5609779357910156,-3.6252317428588867,-1.689096450805664,-1.503957748413086,-11.242258071899414,0.8127231597900391,-0.11355876922607422,-1.2634763717651367,-0.1696310043334961,-30.0,3.5609779357910156,-3.6252317428588867,-1.689096450805664,-1.503957748413086,-11.242258071899414,0.8127231597900391,-0.11355876922607422
48,0.96,0.004916845971963735,-0.008021270604075634,0.7100986950750163,0.994687423754851,-0.0019529194670954752,-0.004054807518463096,-0.10284295632409321,-0.0030511862195127227,-0.008468321325313026,-0.2060394030396085,-0.02964620675811383,-0.14818481587086907,0.00239872074858156,3.4066980244943164,-0.8532145445321442,0.14198230428225667,-0.00781342990019695,-0.03624111642820549,0.16543424832180004,0.469137312838742,1.0906333843221352,0.04219949298795822,0.011792518224275664,0.309853576925713,0.5464628686397637,0.06627170604582255,0.8457567194187458,0.9090990225134217,5.29396805085675,0.3475946492061048,10.40746165444393,0.8289930296402053,1.140386026514998,4.793838592625013,0.5488862560870384,6.957837740498255,0.7067832946777344,5.0863189697265625,30.0,-11.642127990722656,5.981344223022461,3.6450328826904297,0.10214710235595703,15.263835906982422,-4.660717010498047,2.575357437133789,0.7067832946777344,5.0863189697265625,30.0,-11.642127990722656,5.981344223022461,3.6450328826904297,0.10214710235595703,15.263835906982422,-4.660717010498047,2.575357437133789
49,0.98,0.00485030198095848,-0.009002235097950983,0.7100763794218293,0.9944268331094159,-0.0034675587156601908,-0.002234833915744202,-0.10534825649197192,-0.006425725425309226,-0.005175383260065203,-0.2110733746270809,0.013468409356714577,0.013503109022825782,-0.02717011282281452,-2.4281070959019115,0.8461913311180506,-0.5662067778887085,-0.005902896110759826,-0.04229389445709759,0.16189326642119775,0.47762465854535163,1.0377962462306545,0.04350322907665878,0.007639213234292277,0.30248099085982466,0.5437652217986109,0.0484868083503118,-0.2355448717286179,-1.1524547319009828,-3.578215679933902,0.7094029077637191,-13.157603292516065,-0.46211460472449084,-1.110297694527794,-3.573497062423175,-0.2890044938296086,-7.061090233908941,0.6514568328857422,-3.652857780456543,-19.219989776611328,5.950042724609375,-9.67849349975586,-2.81510066986084,-6.360340118408203,-12.86284065246582,-0.7186489105224609,-6.169374465942383,0.6514568328857422,-3.652857780456543,-19.219989776611328,5.950042724609375,-9.67849349975586,-2.81510066986084,-6.360340118408203,-12.86284065246582,-0.7186489105224609,-6.169374465942383
50,1.0,0.004683938634604543,-0.010966978567583593,0.7102061909707725,0.9945142213034127,0.009454435063223493,-0.0022775798045993265,-0.1041484033153375,0.019280810650402068,-0.0025608451784605623,-0.2087098113399532,-0.036828561663714204,-0.16489072818458683,0.07386805650837365,3.613193943235684,-0.5068318412958926,0.570321844660217,-0.0021052754915763133,-0.04591282930281431,0.1991598747292755,0.4811673994915807,1.0569459849766571,0.026998198389905033,0.00602912943561276,0.32204357438160947,0.5324150228650125,0.02041766688000288,0.29228132692584174,0.5575928648223826,5.369512444557882,-0.27777882571680457,11.941031470174547,-0.9920610662495747,0.7019687936940245,3.7387534161829246,-1.025703974770802,3.04268215721323,-1.0648574829101562,5.737283706665039,25.476947784423828,-12.287271499633789,10.255197525024414,-0.8675870895385742,2.8180980682373047,13.117523193359375,-9.083259582519531,3.977781295776367,-1.0648574829101562,5.737283706665039,25.476947784423828,-12.287271499633789,10.255197525024414,-0.8675870895385742,2.8180980682373047,13.117523193359375,-9.083259582519531,3.977781295776367
51,1.02,0.00443346358386999,-0.011582192993516085,0.7114422905826117,0.9944306047629974,-0.001214715103255594,-0.0037666635439214877,-0.1053190819541458,-0.0016225460615225875,-0.007747313870719311,-0.21102489777574474,0.001766633533529518,0.0555135521207213,0.02084698138728084,-4.010288782590184,-0.0998461238935417,-0.5578706628331658,-0.014972670640679454,-0.04006364046364146,0.15963964075608084,0.4603336584562535,1.0891315291554458,0.030173609685605535,0.009553085697224278,0.2899187309653122,0.5411291740662186,0.0471919927935428,-1.0511533499907078,0.16495707675163862,-6.524901457440274,-1.083122201205955,-6.579530536672645,0.7030935996139231,-0.19462019119957097,-5.0457229103669885,1.6163505767514779,0.4004495993688753,-0.5579195022583008,0.08560562133789062,-26.911256790161133,3.748546600341797,-7.448269844055176,0.7885341644287109,-1.8650026321411133,-18.25012969970703,7.902820587158203,-0.7736186981201172,-0.5579195022583008,0.08560562133789062,-26.911256790161133,3.748546600341797,-7.448269844055176,0.7885341644287109,-1.8650026321411133,-18.25012969970703,7.902820587158203,-0.7736186981201172
52,1.04,0.00476665959395881,-0.013259520561725312,0.7101915607920432,0.9945871593322377,0.006468632673796098,-0.0026983525444685937,-0.10366898367548061,0.013427221218092221,-0.004026311312570929,-0.2077433127985594,0.011317574237772195,-0.17094052344386773,-0.017335809244832932,3.61630907025859,0.23889036131375316,0.5144001874947143,-0.011559338007139815,-0.04182541717683587,0.1923655432649471,0.4789298614975264,1.1071256795521234,0.034036536206559095,0.00487991102806759,0.30082219514980585,0.540073446333849,0.06760098384673499,0.6847400873145391,-0.30418715957927966,6.58416665636135,2.700601836165239,7.045608748554656,-0.06690098189511523,-0.07603216921679412,3.8305135754680255,-0.6557483343965882,1.9790397158804673,0.5274152755737305,2.768146514892578,30.0,-3.974039077758789,5.456546783447266,1.5386104583740234,-3.025111198425293,16.23270034790039,-11.408933639526367,0.4382600784301758,0.5274152755737305,2.768146514892578,30.0,-3.974039077758789,5.456546783447266,1.5386104583740234,-3.025111198425293,16.23270034790039,-11.408933639526367,0.4382600784301758
