step,time_s,torso_x,torso_y,torso_z,quat_w,quat_x,quat_y,quat_z,roll_rad,pitch_rad,yaw_rad,body_vx,body_vy,body_vz,body_wx,body_wy,body_wz,l_hip_roll_pos,l_hip_yaw_pos,l_hip_pitch_pos,l_knee_pos,l_wheel_pos,r_hip_roll_pos,r_hip_yaw_pos,r_hip_pitch_pos,r_knee_pos,r_wheel_pos,l_hip_roll_vel,l_hip_yaw_vel,l_hip_pitch_vel,l_knee_vel,l_wheel_vel,r_hip_roll_vel,r_hip_yaw_vel,r_hip_pitch_vel,r_knee_vel,r_wheel_vel,l_hip_roll_torque,l_hip_yaw_torque,l_hip_pitch_torque,l_knee_torque,l_wheel_torque,r_hip_roll_torque,r_hip_yaw_torque,r_hip_pitch_torque,r_knee_torque,r_wheel_torque,l_hip_roll_ctrl,l_hip_yaw_ctrl,l_hip_pitch_ctrl,l_knee_ctrl,l_wheel_ctrl,r_hip_roll_ctrl,r_hip_yaw_ctrl,r_hip_pitch_ctrl,r_knee_ctrl,r_wheel_ctrl
0,0.0,-0.001445244098944607,-0.001575844730240682,0.7060967787514875,0.9993349582328174,0.03609517559073363,-0.004929464975777868,0.0015747786956105713,0.07219309161444908,-0.0099662221610811,0.0027917452672087677,-0.13423445560922811,-0.40154783955366913,0.1170478107026805,9.248359480029368,-1.018950839088425,0.3337417911411703,-0.03980456910780701,0.0028796111823422925,0.40140756638883485,0.5779086625570671,-0.29908873122454005,-0.031097990345998625,0.006472846930504875,0.4209352206014794,0.5892027674263854,-0.3401761151846946,-2.615158459130455,0.3911758018413542,6.821675316957754,-2.448053950875643,-24.37860214780431,-3.0241452801957207,0.38870627928957685,8.334432330863374,-1.6529298887000898,-27.93575383354778,-8.736652374267578,-1.2263412475585938,30.0,-30.0,-14.877257347106934,-4.065195083618164,-2.9678897857666016,30.0,-17.871925354003906,-15.0,-8.736652374267578,-1.2263412475585938,30.0,-30.0,-14.877257347106934,-4.065195083618164,-2.9678897857666016,30.0,-17.871925354003906,-15.0
1,0.02,-0.004248842284769115,-0.004599250930725659,0.7084710560709018,0.9982792141096073,0.055180380600539244,-0.01686981824903706,0.010447272645466474,0.11010740573418443,-0.034841595590494684,0.0190095054384405,-0.13718701036004702,0.002041334651149567,0.09619502384522143,-2.8362685211542575,-1.0621386484425819,1.353348673011117,-0.11670302205190697,0.014907112326968893,0.3730192093825756,0.598527450707762,-0.3962796041300644,-0.11838612861920293,0.026884303175623722,0.4302982702853037,0.6868305053064409,-0.492131189441393,-4.370444112981382,0.965045967557568,-6.844582417127308,3.6186185632919616,11.510140892052748,-5.319919046687986,1.7240770978880808,-4.759467983547451,8.928448008488893,8.80210693094934,-4.893582344055176,-1.5247611999511719,-30.0,17.518287658691406,15.0,-13.812843322753906,7.983238220214844,-30.0,30.0,15.0,-4.893582344055176,-1.5247611999511719,-30.0,17.518287658691406,15.0,-13.812843322753906,7.983238220214844,-30.0,30.0,15.0
2,0.04,-0.00664095265076764,-0.006315834710659825,0.7099784424588396,0.9991193677721757,0.02839395364570386,-0.025379492887124495,0.017611180530726543,0.055947979698961973,-0.051737466283892565,0.0338017521823397,-0.11281317063648864,-0.140687192030178,0.012639320177418742,-2.399578088178595,-0.5680550406089279,0.3698094767160634,-0.23516178582983419,0.03644368394557656,0.17450919640226364,0.531021734074432,-0.03539604623239823,-0.15598714076957293,0.07072353448235819,0.2506725665464163,0.6337488179234162,-0.31189644813398765,-6.820089256049929,1.3988348683660048,-11.420526811900395,-7.329228263385444,23.283416078162425,0.07132335632142228,2.1938024172709203,-10.987346429131428,-9.265657564686979,9.14585225538174,-12.502182960510254,-0.4571819305419922,-21.599159240722656,-17.31374168395996,5.127359390258789,5.258090972900391,4.974279403686523,-12.75303840637207,-30.0,0.2111797332763672,-12.502182960510254,-0.4571819305419922,-21.599159240722656,-17.31374168395996,5.127359390258789,5.258090972900391,4.974279403686523,-12.75303840637207,-30.0,0.2111797332763672
3,0.06,-0.009684709039682502,-0.009927331647293017,0.7044917510753067,0.9982596644664855,0.04724355735005052,-0.021658806473156354,0.02786726915809293,0.09334918586760535,-0.045891429996982376,0.05367331181727927,-0.1712265877642257,-0.20850999486103827,-0.4569096901448453,4.64203887032833,0.9449446462191644,1.4705954029232273,-0.3622618706373221,0.012248882185177928,0.11212846781997445,0.4931849342153736,0.6224662599061356,-0.24708434237695953,0.06973547962533339,0.20629329246800568,0.5972593186992396,0.26008848603171364,-6.087714137241928,-3.293068589810368,1.6508539270735942,0.8607668151268794,40.6425777963876,-7.067379603867827,-1.5911488911153253,2.7336040305219425,2.2279470321655905,44.27656228120934,-9.016849517822266,-14.019570350646973,19.377342224121094,1.3544540405273438,7.776639938354492,-15.0,-8.84502124786377,10.703445434570312,11.905643463134766,15.0,-9.016849517822266,-14.019570350646973,19.377342224121094,1.3544540405273438,7.776639938354492,-15.0,-8.84502124786377,10.703445434570312,11.905643463134766,15.0
4,0.08,-0.011506103681979466,-0.012239006758264922,0.6952621086021831,0.9979598487691952,0.046230132613075466,-0.02216447775688341,0.03804800926337854,0.09081325049717844,-0.047774618272032755,0.07404348126014908,-0.04770973632525044,-0.049901642572818004,-0.5090511972870673,-3.1218295437261636,-0.6568211106451032,0.6570198992490047,-0.4059964628368092,0.02166138814932614,0.013142185951688437,0.47697617322500613,1.5068497658998843,-0.3329459117815309,0.1037677722184039,0.08436969095360144,0.4976015686693252,0.7283254708385228,0.12630314870159703,3.059599576660204,-8.900260715402151,-1.4388126352351698,47.094965194149516,-2.866587687324022,4.1603756436093615,-11.124872715562002,-8.903959389665843,6.5986285070698365,6.702239990234375,15.0,-28.0286922454834,2.1868820190429688,3.540294647216797,-2.87459659576416,15.0,-26.868715286254883,-19.430126190185547,-15.0,6.702239990234375,15.0,-28.0286922454834,2.1868820190429688,3.540294647216797,-2.87459659576416,15.0,-26.868715286254883,-19.430126190185547,-15.0
5,0.1,-0.011284281609136982,-0.016924205612670738,0.6887278105745505,0.9970208157767128,0.06456678761417735,-0.006942642456814402,0.04162238052827048,0.12854834537850024,-0.019219948205827384,0.08220796217243499,0.12463595570559265,-0.3697812041553278,-0.07807936794920509,4.984291438837463,3.409723588943549,0.3991317545497343,-0.47872815094373716,0.005030739718677327,-0.11291970872462287,0.31522212153629214,2.680329189266912,-0.4243976210045698,0.08619778601662326,0.08229478127421194,0.4371326965094539,1.0612895030496383,-6.036098980224538,-3.7173229423998713,-4.8391527785558335,-11.981172105235798,67.97364169579375,-5.3596026346377466,-4.885666114690579,6.441826160392196,0.22067376662003757,23.095624627657553,-15.0,-6.473842620849609,6.125362396240234,-30.0,9.636833190917969,-6.750853538513184,-12.555375099182129,30.0,-8.28201675415039,15.0,-15.0,-6.473842620849609,6.125362396240234,-30.0,9.636833190917969,-6.750853538513184,-12.555375099182129,30.0,-8.28201675415039,15.0
6,0.12,-0.006943644313275064,-0.02101120143003354,0.6858339201195562,0.994650887148089,0.06951177607881683,0.016251187770291574,0.07465671153983204,0.14120914488157796,0.02195123828518063,0.1513879567905164,0.26569439144506324,-0.10367162232309729,-0.21703951312104802,-2.3704001483968566,1.8768643854467106,5.11413406398479,-0.5847013927434856,-0.01326256333704711,-0.20628467269083384,0.2230677449562101,4.046171265334843,-0.5264009229577165,0.06488411281470449,0.11543447401826644,0.5439912695595919,1.8755129609575854,-4.759735363344874,1.053161700654159,-4.5803311544848615,-0.4699238874676258,68.57278082913591,-5.145620273551568,2.009903021294921,-1.8861734152494418,8.640130705749899,56.06591573077814,-4.313521385192871,5.896633148193359,1.2349491119384766,3.879791259765625,1.6606731414794922,-11.098798751831055,15.0,-30.0,30.0,15.0,-4.313521385192871,5.896633148193359,1.2349491119384766,3.879791259765625,1.6606731414794922,-11.098798751831055,15.0,-30.0,30.0,15.0
7,0.14,-0.007680154982777637,-0.0265361226285346,0.6904784641322316,0.9928479109147661,0.05754184474241377,0.0017602592298529458,0.10458902133239156,0.11488554601693164,-0.008541254907849552,0.20941952568350536,-0.2023245829450019,-0.37054742926033885,0.4715823786818889,-0.7560364618506075,-2.923360024224455,0.9616045164495584,-0.7269395169735948,0.05491680925955694,-0.15623770925784208,0.26875610199589073,5.065341647503714,-0.5941060684217767,0.12936612050833676,0.08295937488416025,0.5088602392223156,2.62198970410356,-5.758580237157377,4.252441787508252,6.607168519364475,3.509430152034188,40.924242820606004,-2.3193569908439997,3.675083610458047,-0.7599559391613966,-7.6798202070408665,22.201510782134758,-12.642712593078613,15.0,15.320453643798828,7.279590606689453,1.31536865234375,0.07102108001708984,-4.369071960449219,14.06393051147461,-30.0,-13.243486404418945,-12.642712593078613,15.0,15.320453643798828,7.279590606689453,1.31536865234375,0.07102108001708984,-4.369071960449219,14.06393051147461,-30.0,-13.243486404418945
8,0.16,-0.011193431910928805,-0.030677400962138914,0.6977941123442191,0.9932015359092091,0.020886597445183303,0.00976967780972658,0.11410088742093208,0.0437372883075093,0.01464068243627368,0.2290811777112958,-0.1590391486230579,-0.09986919598515537,0.2655335549756788,-5.21431495634364,4.263716167482174,1.191430790980648,-0.7570324867061453,0.07774573656128815,-0.14300533338752722,0.4264997186234305,6.255110335003078,-0.671263169601879,0.14711904164164752,-0.00645198681541586,0.4906660894009721,3.4467992465401207,0.4049073494010999,-1.1449193566461022,-3.5183210078906377,10.742061032505857,74.44957574585202,-4.913279527570369,-1.0390485701835996,-7.2646883218700475,3.2845824754916806,56.58964790563124,0.6234292984008789,-15.0,-30.0,30.0,15.0,-15.0,-15.0,-30.0,22.030948638916016,15.0,0.6234292984008789,-15.0,-30.0,30.0,15.0,-15.0,-15.0,-30.0,22.030948638916016,15.0
9,0.18,-0.015076087571744065,-0.037656071613375565,0.7010907932268506,0.9932771232075748,0.024805455598797196,0.024482521807717084,0.1103895466561718,0.05476097790719651,0.04317274192293796,0.2225475756260855,-0.21731160296982735,-0.5203496889056031,0.07893228240407396,4.393805897046648,-0.7137917002026153,-1.418624545469623,-0.7419495753778172,0.028816822920271008,-0.12113771231884887,0.42794841140729584,7.313672753004221,-0.730781159559772,0.0862779900525047,-0.024042685185854038,0.4233030125962886,4.353125787797819,0.8229683267269541,-2.865182058605887,4.663053739550309,-6.304809228565097,35.56383685428441,-0.7780134719169749,-4.6354627943142575,3.407674641514185,-7.6245954063551675,36.21487471637255,-15.0,3.9582881927490234,30.0,-30.0,-15.0,-1.1369867324829102,-10.491962432861328,30.0,-30.0,-7.544004440307617,-15.0,3.9582881927490234,30.0,-30.0,-15.0,-1.1369867324829102,-10.491962432861328,30.0,-30.0,-7.544004440307617
10,0.2,-0.0208985632943969,-0.0437608997859506,0.7044306117145952,0.9960922252769443,0.0032081063155264193,0.011439426598372725,0.0875164345468581,0.00839558808435227,0.022229754544476597,0.1753627982278255,-0.4145518732699218,-0.15817398858247744,0.3887735809580056,-7.206300033182639,-1.7952261556131237,-3.361368659879248,-0.7266985870243278,0.0929629911480907,-0.10587803300357645,0.38622085327467215,8.272620984947894,-0.729357693734919,0.10601536260320336,-0.0008921325330666124,0.46751784604328656,5.4502527670337875,0.6416160899368263,7.755233273606523,-0.9646656121517585,0.4747335124307339,53.28460833294498,0.417151106645882,5.269533708205316,-0.7280245637856481,7.866569065733432,69.90106603293965,-7.6352362632751465,14.886016845703125,-23.088674545288086,10.219429016113281,15.0,-10.192192077636719,15.0,-11.906599044799805,28.242755889892578,15.0,-7.6352362632751465,14.886016845703125,-23.088674545288086,10.219429016113281,15.0,-10.192192077636719,15.0,-11.906599044799805,28.242755889892578,15.0
11,0.22,-0.02932620518621212,-0.05054945466743002,0.7097335821161794,0.9988351799272216,-0.006767255171611964,-0.003640753851656996,0.04763646196549073,-0.013866359293024396,-0.006628338405552313,0.09535776617189683,-0.4377574123157979,-0.454634815825141,0.16315685358182935,2.9448592045881545,-1.1512169289953975,-4.664595965277041,-0.7078652925294414,0.13003190466004624,0.0001923196516100817,0.44209413684894505,9.082869347323173,-0.7180725854760783,0.0977530467928058,0.044060025155922035,0.43688852402567074,6.419779569814389,1.030140762020134,-1.967426333362635,9.115762021701627,3.780122571242216,30.236787869664173,0.5616196917771549,-4.152931429582285,4.577520421928517,-7.147761767283664,31.195714378764055,-0.19377899169921875,-15.0,19.076244354248047,6.808399200439453,-8.61996078491211,2.664003372192383,-15.0,27.522525787353516,-30.0,-15.0,-0.19377899169921875,-15.0,19.076244354248047,6.808399200439453,-8.61996078491211,2.664003372192383,-15.0,27.522525787353516,-30.0,-15.0
12,0.24,-0.03537882296977945,-0.05752502295139641,0.7137772012414666,0.9995814478991877,-0.014393640422332947,0.0036728409349620415,0.024824632336116582,-0.02859770401805849,0.008057328162999923,0.04954462712808965,-0.1904608110970757,-0.27592727658410887,0.24371017135470396,-3.2932151954699496,2.2936073387780325,-0.4334493000900279,-0.6842277146600155,0.08541026999248763,0.09556002157419718,0.5465806266346137,10.060180521055198,-0.7082604326895452,0.07453794093829369,0.06856125754468725,0.393585254206737,7.323543733063022,1.196801777692063,-2.659676897527591,1.850761250163085,6.2838296757765395,63.868794304499716,0.35426669552504747,0.7562488307306976,-1.0262957065367104,0.7483946270871041,56.00332415911443,3.310626983642578,-15.0,-2.5883827209472656,13.026107788085938,14.768192291259766,-4.72031307220459,14.773239135742188,-21.526229858398438,15.351585388183594,14.595600128173828,3.310626983642578,-15.0,-2.5883827209472656,13.026107788085938,14.768192291259766,-4.72031307220459,14.773239135742188,-21.526229858398438,15.351585388183594,14.595600128173828
13,0.26,-0.040700040056874165,-0.06584022561862649,0.7164103675142853,0.9998931090322873,-0.012255242051256094,0.005574147015103046,0.005701617057185017,-0.02444829347757037,0.011287091430607823,0.011266346143545816,-0.288628765869936,-0.5447138320438595,0.10663816335034085,2.7028962722102903,-0.8239854245588405,-2.500241042912745,-0.6783211028842918,0.03764152854151524,0.16136143109637568,0.47154301116720443,10.911920085403876,-0.685645065287268,0.06074750153042177,0.1519865395182521,0.36365413312684175,8.030633206162626,-0.34131621426863507,-2.5278011910462768,4.375701486075272,-9.641013691757077,25.41890948566977,1.5682471352148641,-1.4885791832491917,6.605088228631641,0.31526149325810815,22.83708892289562,-2.812105178833008,10.51762580871582,18.469207763671875,-30.0,-15.0,6.001567840576172,-10.397812843322754,30.0,-16.220077514648438,-15.0,-2.812105178833008,10.51762580871582,18.469207763671875,-30.0,-15.0,6.001567840576172,-10.397812843322754,30.0,-16.220077514648438,-15.0
14,0.28,-0.045206750078499315,-0.07472237399953857,0.7188082890827966,0.9993679258111577,-0.03417341002720131,0.0053056214061665994,-0.008232696308781024,-0.06844786253647635,0.010042025882414225,-0.016819248598273998,-0.18009064869488636,-0.34626661341217346,0.039313223605577964,-5.372096126629266,0.6727019218187168,-0.9623203974168836,-0.6563767948288227,0.07113116824420182,0.17856900261909844,0.5515278787696387,11.417666169465184,-0.6549387228362151,0.10150108084467081,0.15167899510541336,0.36712490424126515,8.881606403569656,0.9611968631126943,3.2750994599209378,-1.4342140218148345,9.121716201548114,21.37844987041423,1.318408437669394,4.100929496838305,-4.034866122379867,0.17641723596012449,57.923725217461566,2.0093650817871094,4.147764205932617,-18.76491355895996,30.0,-3.04202938079834,-0.8834762573242188,15.0,-16.90911865234375,3.732177734375,15.0,2.0093650817871094,4.147764205932617,-18.76491355895996,30.0,-3.04202938079834,-0.8834762573242188,15.0,-16.90911865234375,3.732177734375,15.0
15,0.3,-0.05094540050052088,-0.08565335034009959,0.7173745521424677,0.9994745531378734,-0.016720999196937526,0.0016841289601999057,-0.02771623216367172,-0.03352416067280204,0.002439604308295169,-0.055488293093041194,-0.3126702157165595,-0.6995358569424601,-0.0685775156396087,6.470775954890411,-0.3709856151925047,-2.2652639028939583,-0.6329994298771295,0.0445677286570802,0.24446281572013742,0.5334397728970844,11.536768916490875,-0.6708002760476517,0.08483216658829454,0.2205459252467491,0.2933571836110524,9.62422965303322,1.1477477185882439,-4.677063924173061,6.427221080158377,-6.972134025033759,-6.4969693075195885,-1.8267576450350267,-4.294253387383523,7.4885973620071855,-3.574673785618134,23.482720226975896,0.9178838729858398,-12.571873664855957,30.0,-30.0,-11.423700332641602,-0.5662221908569336,-15.0,30.0,-21.313838958740234,-15.0,0.9178838729858398,-12.571873664855957,30.0,-30.0,-11.423700332641602,-0.5662221908569336,-15.0,30.0,-21.313838958740234,-15.0
16,0.32,-0.05493629183418384,-0.09531138112603811,0.7154250706057306,0.9986173150677642,-0.027404628401657943,0.006406579950737513,-0.044400451825998645,-0.05533358452784986,0.010362073004747304,-0.08915209102565323,-0.13462372498687156,-0.3435697628561435,-0.15744116722048263,-6.011830388237946,0.8618942488142344,-1.3178483550199525,-0.6276917462239832,0.05027774966213761,0.23828187404285106,0.5268174230513087,11.802446583464262,-0.6713613617488409,0.09917715705903002,0.2504385829472705,0.36090284904804415,10.109305920937059,-0.20223775150773904,3.621783956553821,-4.734827301771942,3.863951453186608,29.233753275502647,0.6994426601554704,4.2685807637576465,-2.4921688828795006,7.465921635076317,25.08221770048319,-0.6274051666259766,15.0,-30.0,22.368392944335938,15.0,-1.6588945388793945,15.0,-17.795442581176758,23.70337677001953,1.4392833709716797,-0.6274051666259766,15.0,-30.0,22.368392944335938,15.0,-1.6588945388793945,15.0,-17.795442581176758,23.70337677001953,1.4392833709716797
17,0.34,-0.06099795044232975,-0.10652394759971578,0.7125480967855007,0.9978326497994848,-0.013030175308089705,-0.0012869248240706893,-0.06448690836190814,-0.025840998148654214,-0.004248835440399888,-0.12901955535882909,-0.4663271089764284,-0.7061764023902881,-0.040464232843220815,6.438589717999619,-2.1425357031981727,-2.2298599172107756,-0.6248104360171828,0.045293155067081106,0.2736654534759207,0.5184541213365677,12.033312500863794,-0.6626620398137769,0.08852806745021702,0.31483911147286414,0.31561798589674045,10.20633101823939,0.8844179598620817,-1.984663823124333,5.804161775451535,-0.7278062599976162,0.0971261922433806,0.588688797932293,-3.2402083593918816,7.302738503015096,-8.2558270670498,-11.474091882217866,-2.64505672454834,-15.0,30.0,-30.0,-15.0,6.510669708251953,-15.0,30.0,-30.0,-15.0,-2.64505672454834,-15.0,30.0,-30.0,-15.0,6.510669708251953,-15.0,30.0,-30.0,-15.0
18,0.36,-0.06908470356758732,-0.11657302903751766,0.7133565846767215,0.9978068847493714,-0.006522312629394118,-0.006668380716095684,-0.065531770030608,-0.012143551626991714,-0.014162823231455497,-0.13107724708562105,-0.36451084798903743,-0.35423788527155053,0.11762190327936306,-3.182339405340666,0.6634880426772535,1.2478730028839078,-0.6724961096299887,0.04443225532511786,0.2816699523453083,0.492663630059857,12.356226934914892,-0.6851388213252175,0.08542308449884883,0.3463272985825352,0.339503682730174,10.394901178433036,-4.322287782152529,1.317802792282285,-2.567026718471922,-1.406342300239493,28.50547313569762,-2.427672270828798,1.8564463961045496,-2.5408319361036207,6.643348068534968,25.882451799725615,-4.949938774108887,-3.013120651245117,-17.21894073486328,2.142528533935547,15.0,-11.575775146484375,6.974855422973633,-30.0,30.0,15.0,-4.949938774108887,-3.013120651245117,-17.21894073486328,2.142528533935547,15.0,-11.575775146484375,6.974855422973633,-30.0,30.0,15.0
19,0.38,-0.07854374886477768,-0.12691247943932435,0.7145695763499593,0.9975368347941467,0.010358599181266914,-0.010220826698365644,-0.06861849133782368,0.022074608447918594,-0.018970857224934627,-0.13756887777752608,-0.5599057013933234,-0.6263867345970162,0.009263715182606913,5.033769107478411,-1.0222319297371276,-1.3393852782976536,-0.7137679344023633,0.022663863458568807,0.29898467685811914,0.46620397690179904,12.59083495045488,-0.684351687106345,0.05484179882355399,0.3518957970078772,0.2843679688883167,10.507227412843722,-0.6413017194770403,-2.747168921074031,2.82863326674313,-1.3635180525938415,-1.5396497657612702,1.7291035233442549,-3.73527801193062,2.644762775279266,-8.338255487845904,-10.733308711976722,-2.8182430267333984,-7.035573959350586,11.884315490722656,-13.525527954101562,-15.0,11.291736602783203,-15.0,21.961448669433594,-30.0,-15.0,-2.8182430267333984,-7.035573959350586,11.884315490722656,-13.525527954101562,-15.0,11.291736602783203,-15.0,21.961448669433594,-30.0,-15.0
20,0.4,-0.08597722582012708,-0.13585450718992703,0.7176382789115275,0.9977415687259212,-0.002964285832567121,-0.0032354849983161622,-0.0670261641649457,-0.005481614294449879,-0.006853778831742408,-0.13413541215228958,-0.2960298603923068,-0.3212381024027232,0.12190785670034371,-5.608858157837996,1.2454173260863384,1.2379729158348611,-0.7135705378245973,0.042493160506728495,0.2295012842064644,0.4801984133286926,12.922822124010327,-0.6850029040572135,0.07178575635521457,0.3083906429180035,0.3364270396937526,10.726775845111993,0.3192737415799435,3.7095608046589446,-7.424389671266411,2.2608476459794797,31.685663288841738,-1.4103444385657022,3.8071960437327106,-5.505172675645526,7.698055378297924,26.51204809907387,2.7529354095458984,9.766441345214844,-23.343334197998047,10.139839172363281,14.220088958740234,-10.643157958984375,15.0,-30.0,30.0,15.0,2.7529354095458984,9.766441345214844,-23.343334197998047,10.139839172363281,14.220088958740234,-10.643157958984375,15.0,-30.0,30.0,15.0
21,0.42,-0.09515896975443383,-0.1465929321926319,0.7179554859567262,0.9977580302980014,0.018490711448358243,-0.011189737868327092,-0.06333874274427019,0.03833304222960566,-0.01998827576220554,-0.12717516137037205,-0.614397166949218,-0.6758990857195651,0.04428236093594641,7.166367312151848,-2.4886113560882186,0.06777103232767047,-0.7094104734309734,0.025028605460907443,0.2259586845259511,0.4172804780428271,13.163614118134642,-0.7078973533887811,0.05325021688629514,0.3324144307446103,0.30897921002903017,10.85161753379292,0.16070227674269896,-3.146696307414874,4.685742108555644,-4.207429828892142,-1.843289910562369,-0.4454309331632891,-3.5004939045607752,5.782473894172154,-6.97614898065626,-10.113748870978835,-9.27965259552002,-11.832174301147461,30.0,-30.0,-15.0,5.096090316772461,-15.0,30.0,-28.423246383666992,-15.0,-9.27965259552002,-11.832174301147461,30.0,-30.0,-15.0,5.096090316772461,-15.0,30.0,-28.423246383666992,-15.0
22,0.44,-0.10434859792930766,-0.1555629022287996,0.7196803174923242,0.9984071052588673,0.013588941811976243,-0.016925556781814302,-0.0520780026178634,0.02891668285317159,-0.03238748424864789,-0.1046960639662742,-0.35968361605295096,-0.3051954381095538,0.08581420658779838,-5.404727848172589,0.8244292641286516,1.9599059418712812,-0.7061646833935548,0.04535975369259036,0.18957255311037985,0.4626812841810176,13.50198437824596,-0.710814254609532,0.0774090642659522,0.32845824360252224,0.3401087698012789,11.013749828218963,0.15359090101843437,3.5520217866564847,-6.501444679189179,6.46834814681394,32.79488902879237,-0.0066274218199413835,4.178912905453183,-4.4254950905036585,6.829251325678127,23.017410870419123,-1.253946304321289,9.121238708496094,-30.0,24.644729614257812,15.0,-10.088638305664062,13.665618896484375,-30.0,30.0,15.0,-1.253946304321289,9.121238708496094,-30.0,24.644729614257812,15.0,-10.088638305664062,13.665618896484375,-30.0,30.0,15.0
23,0.46,-0.11361064531584135,-0.16566215941114942,0.7184524394725922,0.9989626664205623,0.025034847926737196,-0.016026653967059278,-0.03449628747888926,0.05116927649634118,-0.03029747432178492,-0.06981216332850684,-0.5233478179755217,-0.6385838139916721,-0.18019500416108578,5.504630099459371,-0.31565016830573,1.7109934244770029,-0.7049479178269421,0.016672895652274047,0.15097034125462927,0.4188086085892863,13.768420277660475,-0.707919884619922,0.062218434902255995,0.31296793584791444,0.30853606579760484,11.154208396086966,0.016309428420845366,-4.651124185113097,1.4516753750627294,-7.436214381490847,-2.385578223950654,0.18787906076342178,-3.9196459408003053,1.8668093840920492,-6.553464760043338,-5.885488429664406,-6.912444114685059,-14.520946502685547,25.368045806884766,-30.0,-14.257377624511719,-2.069422721862793,-15.0,10.981700897216797,-22.105377197265625,-11.793367385864258,-6.912444114685059,-14.520946502685547,25.368045806884766,-30.0,-14.257377624511719,-2.069422721862793,-15.0,10.981700897216797,-22.105377197265625,-11.793367385864258
24,0.48,-0.11920018650557519,-0.17393138225036042,0.7186623584618661,0.9999570757868507,0.00447234106883053,0.0022745867999436594,-0.007789159393963302,0.008909076833295443,0.004618666306029788,-0.015558098224705276,-0.20460596368496056,-0.25403792750130344,-0.04378286665511909,-7.052481581503253,2.4882653863316833,3.2066200836655327,-0.7039023512554916,0.012340719488507398,0.0632177805365643,0.4437618504982873,14.113903895110454,-0.7048230441636202,0.07919791984784036,0.24585586476926072,0.3865403824574899,11.425968976602375,0.05920997644093232,3.1377588527659244,-8.031110568960719,6.42813455844945,33.13237004127625,0.043851855320026153,4.268140433085116,-7.181604112461978,8.787058712450866,29.024650471943445,-2.580354690551758,15.0,-30.0,26.24515151977539,15.0,-7.338834762573242,15.0,-30.0,30.0,15.0,-2.580354690551758,15.0,-30.0,26.24515151977539,15.0,-7.338834762573242,15.0,-30.0,30.0,15.0
25,0.5,-0.12554839959982972,-0.18384170621282206,0.714583443803344,0.9998145425866862,0.012195292721361994,0.0061695875565585916,0.013568030697108826,0.024557718441338708,0.012006242957258762,0.027286861143646344,-0.38242465152027233,-0.6576211759346146,-0.3249188412086325,5.890252676458053,-1.0913222691875748,1.4053664633318999,-0.7047388176098389,-0.0034300618680365783,0.03808814921522536,0.4000168792235066,14.565323991380211,-0.7036603983819633,0.06899734174257427,0.23963358956983313,0.3713750683900867,11.719334397930542,-0.0777979282548969,-3.1414429854717487,3.4679617220093997,-7.497218817415438,14.036117042119509,0.0547685766303753,-3.5056615316293915,4.515676596353179,-6.604812440827578,3.0735695670693315,-10.671384811401367,-4.080918312072754,30.0,-30.0,-7.49144172668457,-3.574528694152832,-15.0,30.0,-30.0,-10.470983505249023,-10.671384811401367,-4.080918312072754,30.0,-30.0,-7.49144172668457,-3.574528694152832,-15.0,30.0,-30.0,-10.470983505249023
26,0.52,-0.13365571589810413,-0.19088203975182363,0.715308823802029,0.9993315785173026,-0.009903156058543127,-0.0048883438410991875,0.0348486409015902,-0.020135968132686,-0.009080054446184259,0.06980707153679738,-0.3640481595597847,-0.17703906988366122,0.09815247505192776,-7.180205032645169,-0.3491060441309808,2.8432625486542014,-0.7054205346334944,0.03799756976359695,0.04021354542739658,0.39673093021301625,15.091484183977183,-0.7047228151799061,0.1237985236522126,0.2321771155814355,0.40589878411041014,12.127845989886989,0.019904054220858475,5.099761750322285,-3.3243827777093333,3.189311114600537,39.91981212069216,-0.08896619302855158,6.1098414582902825,-4.037274882875355,6.8361463667828515,34.81704900361925,-3.687326431274414,15.0,-19.209545135498047,15.606128692626953,15.0,-11.491300582885742,15.0,-30.0,30.0,15.0,-3.687326431274414,15.0,-19.209545135498047,15.606128692626953,15.0,-11.491300582885742,15.0,-30.0,30.0,15.0
27,0.54,-0.1419008217521402,-0.19874261383938666,0.7144312444838842,0.9985511171416631,-0.008384123331443383,-0.011599181072371947,0.051873229411227656,-0.01795275189586275,-0.02229677474293919,0.10400384192146375,-0.36557400872582874,-0.56737633285379,-0.0008971082021887455,4.946538675316348,-0.21210270770930062,1.2739693467351627,-0.7047437679009791,0.031572338005212655,0.12019350510147478,0.4439531481369013,15.474638632540525,-0.7044466902557411,0.129816527255527,0.2546505396098819,0.3746359366813181,12.425868734937618,0.03597794217743183,-4.36211049531056,8.247690225530471,1.5066618444904178,2.440406620638654,0.008111920369345708,-3.389606486941509,3.700454944138407,-2.134654674489756,3.563119925535353,-5.114679336547852,-14.288585662841797,28.11026382446289,-3.9952220916748047,-15.0,-2.67734432220459,-15.0,29.129032135009766,-30.0,-15.0,-5.114679336547852,-14.288585662841797,28.11026382446289,-3.9952220916748047,-15.0,-2.67734432220459,-15.0,29.129032135009766,-30.0,-15.0
28,0.56,-0.14732422278054338,-0.20541881988734323,0.7147637104713085,0.9973083024484596,-0.03180716017049714,0.0036784993864455687,0.06596152720732633,-0.06300367211480576,0.011533549381652608,0.13172327983162643,-0.23725993433050485,-0.1814275764719704,-0.05003727220170476,-6.881897572952864,2.6623626589221496,1.4202740363252915,-0.6895392271344551,0.03387071687690959,0.13411336253608455,0.5728186223054443,15.914805086620298,-0.7058539581515725,0.13773268137725952,0.18403835102519586,0.40412273388092135,12.874182593658531,1.2656138645172728,3.0791376193253948,-4.239167036923554,9.626243000032865,37.78004610094675,-0.09170112856039364,2.9171716923507303,-8.280643418461816,3.595616344600169,37.99504456312102,4.762636184692383,15.0,-30.0,29.117431640625,15.0,-11.365869522094727,6.9581451416015625,-30.0,15.760261535644531,15.0,4.762636184692383,15.0,-30.0,29.117431640625,15.0,-11.365869522094727,6.9581451416015625,-30.0,15.760261535644531,15.0
29,0.58,-0.15388479442197336,-0.21424523365824139,0.7114950015217464,0.9971171528185944,-0.024944202180819042,0.013171972934714168,0.07043911882972927,-0.047928539316430686,0.029786499954085895,0.14033721850982522,-0.38304797615090375,-0.6123020281994959,-0.25966724699842886,5.794078912820694,-0.40633432049822177,-0.1807757549680224,-0.7041319796537836,0.01293834919023661,0.1634945973588115,0.5642509781226852,16.25914539391478,-0.7043992180620295,0.10162279244546342,0.16421735214349636,0.3315735732730054,13.222182664206134,-1.5372154476221034,-3.696761984618914,5.528679149418542,-6.563710967776172,0.6272124604133444,0.13104410314735546,-4.8118691137392045,4.03795456385018,-8.226648846795245,0.7928624746421846,-8.414703369140625,-8.518688201904297,30.0,-30.0,-15.0,0.9201641082763672,-15.0,30.0,-30.0,-15.0,-8.414703369140625,-8.518688201904297,30.0,-30.0,-15.0,0.9201641082763672,-15.0,30.0,-30.0,-15.0
30,0.6,-0.15989589684026606,-0.22235345718688482,0.7142752439600356,0.9971457054756379,-0.024811637077273793,0.011375502222788773,0.07039476305960177,-0.04791483096713265,0.026182276277631228,0.14033125459278206,-0.3232770209994955,-0.2799228663162849,0.13423951453619068,-3.5167774684305737,-0.8403791061838606,-0.38922318489485985,-0.7143388150275448,0.018609730702548167,0.17839618074004707,0.5316267915270224,16.665988911310112,-0.7042581691681019,0.10617183883080594,0.22173299224244508,0.43104705859048487,13.675907465258232,-0.029933602050123326,3.5395120387447356,-2.062224873131264,-0.6299228184456995,35.47782512690136,-0.03262789400234138,3.5862474869903074,2.2049435434917766,9.585806399455,38.2299648092481,-5.258768081665039,15.0,-18.353002548217773,4.259864807128906,15.0,-7.573431015014648,15.0,0.2482147216796875,24.840538024902344,15.0,-5.258768081665039,15.0,-18.353002548217773,4.259864807128906,15.0,-7.573431015014648,15.0,0.2482147216796875,24.840538024902344,15.0
31,0.62,-0.1671863123577494,-0.23237307667310597,0.7154368611488162,0.9979369048578425,0.003961179606183897,-0.0008248581094097637,0.06407466416593059,0.007800406817592701,-0.0021539368687480817,0.12822982856944665,-0.4300064362646052,-0.6699873371451396,0.052327841148726045,7.015399939444256,-2.1918107220248393,-0.7388378495763297,-0.6927441848386395,-0.0016885512125068376,0.24191121761042594,0.4554573371256432,16.99879852491588,-0.7024119026374751,0.08356483630851538,0.3172119893690884,0.4019989937662024,14.028903064082272,2.2096867714456856,-3.2203536985477115,6.125860842819343,-2.7258205708173526,5.474796661803559,0.1322774011912423,-3.9508614039377097,6.982940555939978,-8.065988579060338,1.041824596881849,1.9938068389892578,-13.877197265625,30.0,-24.966936111450195,-15.0,3.170806884765625,-15.0,21.419620513916016,-28.916725158691406,-15.0,1.9938068389892578,-13.877197265625,30.0,-24.966936111450195,-15.0,3.170806884765625,-15.0,21.419620513916016,-28.916725158691406,-15.0
32,0.64,-0.1749701062542696,-0.24059699675653082,0.7158948225863775,0.9974255700492957,-0.0077068646121599,-0.010640629747099404,0.07049548530418716,-0.01687850503320401,-0.02014123581317218,0.1412901985081815,-0.35796733643853,-0.2459250176989255,-0.023555985448763722,-6.560893556842378,0.07922604314631196,1.5531969832416885,-0.6952372049451934,0.03474522673061546,0.22712477126396896,0.5301958645400351,17.481146439589118,-0.6933041223263021,0.11886132549594096,0.31772384159424594,0.4268757035490009,14.440393131213149,-1.1768021324901528,5.058629028934005,-5.59878463539757,7.909996673918768,39.833647792472995,0.34402225113307794,5.247593685433934,-4.7537290297577215,6.9557084624840835,36.33641652733591,-2.2609949111938477,15.0,-30.0,27.42139434814453,15.0,-5.580330848693848,15.0,-30.0,30.0,15.0,-2.2609949111938477,15.0,-30.0,27.42139434814453,15.0,-5.580330848693848,15.0,-30.0,30.0,15.0
33,0.66,-0.18293201509958235,-0.25043779124162235,0.7135923497994084,0.9968450948936144,0.006261311605860823,-0.017382730765906053,0.07719127822905758,0.009805905767965207,-0.03562995528106572,0.1543880076198423,-0.2874678021571626,-0.6657839311154469,0.05090985826628923,6.546795221493063,-0.21033476329778644,0.44849372300279755,-0.707100353194699,0.025230681535153204,0.22957790251422064,0.5033581386268149,17.86532135553274,-0.7095708741681339,0.10887534399069983,0.34288862335115716,0.399585218003948,14.774735469521028,-0.1534193438483469,-4.878918724328961,3.457841243475422,-6.933214137003527,2.5726350087730037,-0.3535700873869444,-4.426139996819419,4.6552227712125775,-1.6076094662244942,4.7469907910830065,-2.3490028381347656,-13.933099746704102,29.670166015625,-30.0,-15.0,-0.31967639923095703,-15.0,26.79759979248047,-30.0,-15.0,-2.3490028381347656,-13.933099746704102,29.670166015625,-30.0,-15.0,-0.31967639923095703,-15.0,26.79759979248047,-30.0,-15.0
34,0.68,-0.18668922717794204,-0.25855588757810244,0.7148616334790343,0.9958704420503135,-0.006548305324410794,-0.006267826414179964,0.0903321465478031,-0.014176279904921504,-0.011301081721525557,0.1809984590295609,-0.14704534212105103,-0.2481546970332808,0.011831796819377061,-6.162753655156609,1.9918113135867344,1.9042454704446814,-0.7062466145939181,0.03045704846786793,0.1845508046378012,0.54643197294109,18.30708143018022,-0.707962490728757,0.11801940359576599,0.2904478978366994,0.4223324910451258,15.21551161461565,0.11782275834907889,3.6579875746379322,-6.12195377048798,7.625727632613502,37.83195312026328,0.0912929861442474,3.8970457266955423,-7.690893214364316,3.410281158572808,37.574008895482805,-1.2022876739501953,15.0,-30.0,30.0,15.0,-6.107419967651367,14.552106857299805,-30.0,15.960502624511719,15.0,-1.2022876739501953,15.0,-30.0,30.0,15.0,-6.107419967651367,14.552106857299805,-30.0,15.960502624511719,15.0
35,0.7,-0.19088892390207465,-0.2684313625571651,0.7118672166338446,0.9951585577524569,0.008647664373419798,-0.0025177323294606987,0.0978689115953176,0.016719933668966215,-0.006703810960361589,0.1960035839969242,-0.2473413082148652,-0.6552930535799634,-0.2781116161466384,6.615440511840724,-1.0044878111140716,0.04375669150250161,-0.7049588997936074,0.014744872269584344,0.18580491830685497,0.5168925932735713,18.6522383727316,-0.7051893403649115,0.09671947817338951,0.29727279328280587,0.3799063880631215,15.554848198221604,0.0371344734147952,-3.582507904252088,4.4060527916332,-7.060083350172845,0.6618745719818961,0.13898643040350317,-4.216955686777359,5.6654141807838645,-5.757024032241639,0.3543239248745582,-5.418078422546387,-9.152299880981445,30.0,-30.0,-15.0,-1.9389724731445312,-15.0,30.0,-23.319644927978516,-15.0,-5.418078422546387,-9.152299880981445,30.0,-30.0,-15.0,-1.9389724731445312,-15.0,30.0,-23.319644927978516,-15.0
36,0.72,-0.195155289080192,-0.2751878879650329,0.7134420219261317,0.9941168890520815,-0.011509028659441832,-0.001986407627705491,0.10768104450396358,-0.023312573224827014,-0.0014708348182612542,0.2158123911838063,-0.2274985768615607,-0.14514001456959724,0.12509381188069416,-7.472343671469199,0.8242075018052039,1.4691674604228309,-0.7044271646682774,0.03909363692238295,0.1559442974990664,0.507919697104901,18.97694850815784,-0.7037356327755021,0.12701342573114546,0.28026120793963477,0.45648654202129985,15.955521350932395,0.03935508967603857,4.610952087080818,-5.646364818321871,2.657827960677618,29.829670731485344,-0.02285551973888075,5.235113049296909,-5.4273780888350265,8.228181671203926,35.334743189085714,-2.1975202560424805,15.0,-30.0,16.711105346679688,15.0,-8.047082901000977,15.0,-30.0,29.461013793945312,15.0,-2.1975202560424805,15.0,-30.0,16.711105346679688,15.0,-8.047082901000977,15.0,-30.0,29.461013793945312,15.0
37,0.74,-0.2004693673457981,-0.2829571430705492,0.7130887633461956,0.9938820224484639,-0.009207313023762462,-0.0039801414119166765,0.10999049647572202,-0.01917902923181786,-0.005886182120668309,0.22049455963200482,-0.31545398770141475,-0.5758599466781893,-0.060438219911309106,5.224656938324124,-1.2995664067563681,-0.39069560304268425,-0.7013636827343804,0.03015229958169958,0.18151344001874875,0.47747433179459625,19.17414565532263,-0.7025405507150102,0.12085608279318201,0.2933098479378464,0.4346006526468907,16.252289448685016,1.1915635633548503,-3.108653668772878,5.347605707847241,-0.8020528992269642,-2.417796652865368,0.08202981038470936,-3.5556480692363808,4.932323725408789,-6.886829229127441,-1.6989940125203518,-3.920248031616211,-12.429890632629395,27.72319793701172,-19.522464752197266,-15.0,0.35123538970947266,-15.0,30.0,-30.0,-15.0,-3.920248031616211,-12.429890632629395,27.72319793701172,-19.522464752197266,-15.0,0.35123538970947266,-15.0,30.0,-30.0,-15.0
38,0.76,-0.20669942870022642,-0.2903033142366708,0.7111604917576603,0.9926366541496678,-0.020744439991357756,-0.008520535546599504,0.11903588333774817,-0.04322844382593325,-0.011977212676015621,0.23895685008854414,-0.29509230369641054,-0.2337312711366326,-0.1581347241440592,-5.327477719759291,0.4740873799857721,1.7212889798621878,-0.7034545240680666,0.052547748628926826,0.18543209402466554,0.5471160912835686,19.50356199717777,-0.7035796531786496,0.13347931287284467,0.2814025212046387,0.4559806350729003,16.610924211292552,-0.15537930593333144,3.74844907271694,-3.4644865492920935,6.051253499489876,32.19823295608539,-0.09765366738557002,3.1413383141090563,-4.454261036400464,5.967487591703055,33.7665135383871,-2.9968109130859375,14.483692169189453,-17.40894889831543,18.092914581298828,15.0,-10.170656204223633,6.452465057373047,-30.0,27.529380798339844,15.0,-2.9968109130859375,14.483692169189453,-17.40894889831543,18.092914581298828,15.0,-10.170656204223633,6.452465057373047,-30.0,27.529380798339844,15.0
39,0.78,-0.21162446125942497,-0.30003154765655726,0.7098788065556111,0.9913944582133212,0.000763694935570786,-0.005418662983972301,0.13079404835629205,9.679391378870258e-05,-0.010944056875786411,0.26234315333604624,-0.23382121617392077,-0.6840423304951389,0.20659123618735148,7.002113490021471,-0.5737734831133994,1.2407521522025513,-0.7027632686329363,0.01795533772783993,0.21979606459996315,0.5162194877049829,19.75412454447585,-0.7021735181685718,0.09784830360297209,0.3109939878895971,0.46093490191595765,16.909365752521055,0.4385727297264933,-4.871852633944156,5.20118710652735,-1.8894860762428638,-0.19912138323152284,0.10156671790805379,-4.386579670948896,4.786407498321015,-1.6717117726175694,2.293913540797745,-4.091336250305176,-14.422430992126465,30.0,-30.0,-15.0,3.262096405029297,-15.0,30.0,-30.0,-15.0,-4.091336250305176,-14.422430992126465,30.0,-30.0,-15.0,3.262096405029297,-15.0,30.0,-30.0,-15.0
40,0.8,-0.21622409969361026,-0.30871737031616087,0.7137504076085496,0.9888095457469538,-0.00668395271137099,-0.003672533727909156,0.14898832005185578,-0.01431332932379856,-0.005271235453912029,0.29913667881951733,-0.22315739529423428,-0.2825141338715845,0.13902681645025525,-5.628744483804209,0.9329246509114046,2.2067424147191783,-0.7005881961334971,0.023014471753891874,0.20496390162035774,0.5974336709769936,20.10729290871229,-0.7032999895607346,0.11936205874018924,0.2429901665170023,0.46836268599554726,17.347586402465172,-0.0504001187540958,3.645766957914309,-5.1650237413731945,8.054943900396088,33.426727326815296,-0.10937014401796079,4.461721734459476,-8.61041784185653,1.9593851803241238,37.71416636299777,-5.431116104125977,15.0,-30.0,28.223846435546875,15.0,-9.682552337646484,15.0,-30.0,11.82977294921875,15.0,-5.431116104125977,15.0,-30.0,28.223846435546875,15.0,-9.682552337646484,15.0,-30.0,11.82977294921875,15.0
41,0.82,-0.2214706995157985,-0.31922714289521115,0.7137204411743028,0.9874419162130899,0.01176130165530466,-0.005914681135229235,0.15743300300719823,0.021369027380867964,-0.015384649110646586,0.31604464350620015,-0.2820041390936891,-0.6840093395652493,-0.11754024488074909,6.670264763649339,-1.5029582107993669,-0.020356676822308295,-0.702144969431127,0.005033196468415084,0.20306106298644191,0.5643596680545011,20.366626194710765,-0.7037241857839049,0.10673292933397235,0.2313293427847911,0.4152492393706887,17.689418186300134,-0.07644932695746706,-3.7966103740208466,3.5126880858479868,-7.547575609288598,-3.5388756518448203,0.014413279781402678,-3.9018827312625795,4.717618936124084,-5.763575818626697,0.47014276614998973,-6.146152496337891,-10.676412582397461,23.878684997558594,-30.0,-15.0,-4.352414131164551,-15.0,30.0,-22.959659576416016,-15.0,-6.146152496337891,-10.676412582397461,23.878684997558594,-30.0,-15.0,-4.352414131164551,-15.0,30.0,-22.959659576416016,-15.0
42,0.84,-0.22529720058355843,-0.327167009162398,0.7130079262491019,0.9859732147686626,2.477401854631672e-05,-0.004449099817566122,0.16684431262650015,-0.0014358168219622098,-0.008781766181775246,0.3352661499484585,-0.15487458163374188,-0.21476770284766403,-0.041166110201012254,-6.251991855962451,1.3583333310064243,1.618341450688416,-0.7028031966189324,0.02452521573109239,0.1401989991864931,0.5580105555703032,20.689942238342358,-0.7026447440231822,0.12162431395543478,0.20313772966432794,0.41916534930198196,18.021551865430066,-0.010732660294039326,4.21261185796135,-7.494760264305358,4.194565082188701,32.05572768992863,-0.01509405804544987,3.971482400934287,-5.748881052157554,3.7077091804698936,30.75359574218518,-3.9641799926757812,15.0,-30.0,22.030303955078125,15.0,-7.157449722290039,15.0,-30.0,20.590988159179688,15.0,-3.9641799926757812,15.0,-30.0,22.030303955078125,15.0,-7.157449722290039,15.0,-30.0,20.590988159179688,15.0
43,0.86,-0.22819067428940293,-0.3364737629329298,0.7099879014376399,0.9840950265623986,0.014010082684056801,-0.0006260791832930035,0.17708840815591112,0.027356699532031365,-0.00619432891468916,0.3560052804690447,-0.03780786152166637,-0.633224151898903,-0.05427718930300943,6.447892100358862,0.23330663023734077,1.1645160181094287,-0.7039307565736573,0.008303744846726694,0.12238612789992884,0.4915075883241515,21.02115619492355,-0.7025865815607719,0.09949312576766536,0.2392483435421656,0.4160047092692621,18.341632857146895,-0.06936429905191491,-4.6922902081677,3.0748380606492063,-8.003869535105704,4.059862875031975,-0.019853644258648124,-4.566266234581691,5.95570490320281,1.2912348632202928,6.929287599640901,-8.211301803588867,-11.46133041381836,30.0,-30.0,-11.247023582458496,-4.034768104553223,-15.0,30.0,-19.519731521606445,-11.204155921936035,-8.211301803588867,-11.46133041381836,30.0,-30.0,-11.247023582458496,-4.034768104553223,-15.0,30.0,-19.519731521606445,-11.204155921936035
44,0.88,-0.23027059855958612,-0.3433193141695862,0.7122570472466961,0.9814357305710668,-0.005288894100745181,0.004390889310178623,0.191668084063813,-0.008698835289878215,0.0106463768325894,0.3856858424518412,-0.14000407418654795,-0.1661782812556859,0.12930041359673503,-7.0558574013631885,1.411832110548004,1.6172683422429395,-0.7046172635108515,0.01833519792392566,0.09732761413123797,0.504018828795522,21.395867967280807,-0.7040496661310601,0.12092895060603173,0.1949825633481123,0.44446175280653233,18.82810432966027,0.006961763739595613,3.9158072691488277,-4.76794154814076,5.410163358327149,32.30017141813591,-0.0886264777023014,4.687435572220043,-7.730722716439429,2.3462624035012074,39.85437993875378,-3.983883857727051,15.0,-30.0,25.872268676757812,15.0,-8.61303424835205,15.0,-30.0,11.683876037597656,15.0,-3.983883857727051,15.0,-30.0,25.872268676757812,15.0,-8.61303424835205,15.0,-30.0,11.683876037597656,15.0
45,0.9,-0.23356906693260807,-0.3517446131382844,0.7126978762720413,0.980414754233479,-0.0016437047666045812,0.0036666828068024067,0.1969029287571468,-0.001779119218015994,0.007837120637225563,0.3963922702191969,-0.24356660320697712,-0.6294436967377839,0.08538593013529117,4.96812271439859,-1.8584299680563254,0.08947191548040452,-0.7004728407502888,0.01062151164623272,0.11397054043222196,0.4638952617542621,21.67241632250053,-0.7039836695995253,0.11665390723620521,0.19798667850638194,0.3991338218935953,19.211533872211167,1.0834232940306943,-2.3599027011888363,4.445554765533262,-2.0116517735825545,2.2013812617103308,0.037391292791434244,-2.752098384905258,5.328691776724138,-5.520737046276502,2.500284440975554,-5.011614799499512,-9.464090347290039,27.60645294189453,-30.0,-14.118217468261719,-3.725438117980957,-15.0,30.0,-21.90765380859375,-15.0,-5.011614799499512,-9.464090347290039,27.60645294189453,-30.0,-14.118217468261719,-3.725438117980957,-15.0,30.0,-21.90765380859375,-15.0
46,0.92,-0.23888381763242297,-0.360363955656409,0.7131730814398319,0.9775782907562302,-0.008691973057997895,-0.005753930206791538,0.2103141158687704,-0.019416213537602946,-0.007593818239747996,0.42388960298185246,-0.2672850874387521,-0.30460339222451716,-0.046295395897557046,-4.652198774679436,0.05372521208990272,2.193313860881361,-0.7067519483883588,0.03342840936642159,0.12069753268782203,0.5200885314687091,22.08330257308171,-0.7050026625389367,0.13378434212333873,0.19269290053069266,0.4199183038634691,19.652376284437658,-0.21850580798214667,3.4144253324637264,-2.697912173388227,5.968872005249954,36.31021602203809,-0.07945409060719709,3.033484427615873,-4.1346117933265845,5.132751757618469,37.799789027510236,-7.852596282958984,12.934942245483398,-13.69680404663086,18.29330825805664,15.0,-11.231138229370117,5.405612945556641,-30.0,24.769287109375,15.0,-7.852596282958984,12.934942245483398,-13.69680404663086,18.29330825805664,15.0,-11.231138229370117,5.405612945556641,-30.0,24.769287109375,15.0
47,0.94,-0.24247689464242075,-0.37130935371346596,0.7128017543806007,0.9738855169263824,0.01772035878921095,-0.004136468588265797,0.22630925397127147,0.03265298120655411,-0.016078148763737376,0.45638832940781454,-0.0176059342990904,-0.7013980269224204,0.1534924057904601,7.456370385225255,0.10518403086584054,1.7824245746681207,-0.7074563059478292,-0.003386349672158031,0.16409446407162936,0.4643238667287598,22.425913623567173,-0.704094966683619,0.0947295484168585,0.22423890239376743,0.4029567584149074,20.01264784552704,0.04587376883426247,-5.843360176998622,5.209420994793482,-8.105270056666772,1.6604294231688272,0.07045900437464941,-5.251878989212745,4.704949046586989,-1.547892541026921,4.189697911971889,-5.185222625732422,-13.030035018920898,29.283748626708984,-30.0,-13.96384334564209,-0.023366928100585938,-15.0,30.0,-30.0,-15.0,-5.185222625732422,-13.030035018920898,29.283748626708984,-30.0,-13.96384334564209,-0.023366928100585938,-15.0,30.0,-30.0,-15.0
48,0.96,-0.2431134835169506,-0.3804768165160396,0.714673030350208,0.9695996743160765,0.017495217227609473,0.004531325290723916,0.2440283918551835,0.03614612957763348,0.0002484836043480034,0.4931220373195739,-0.05453808085062153,-0.3049522397121717,0.03587352562029007,-4.570380527635898,1.3651103640895672,1.6484812829710838,-0.705656231072284,-0.009974681591089156,0.1638712546318616,0.4854186292680557,22.849727906408003,-0.7035303355203785,0.09466069065322796,0.18676563540700875,0.4204600458713866,20.47594622601688,0.09592138480398595,3.278476542124775,-3.740361674901896,6.613600245656355,36.94656457732345,-0.021814530656608537,3.420394196033819,-6.162470509490998,2.7218359736895392,38.9490339354311,-3.6174983978271484,15.0,-30.0,30.0,15.0,-5.743499755859375,15.0,-20.2664852142334,11.081005096435547,15.0,-3.6174983978271484,15.0,-30.0,30.0,15.0,-5.743499755859375,15.0,-20.2664852142334,11.081005096435547,15.0
49,0.98,-0.24530691608574043,-0.39056390614143655,0.7142760448086545,0.969742364048418,0.02552365859630273,0.006761379653455832,0.24269852485507148,0.052809256115260966,0.000724484061665509,0.4904868049612119,-0.2461560166538524,-0.6602449512768651,0.12882218620617258,3.904524837251267,-1.6986429454758452,-1.2244438051016642,-0.702288466810864,-0.007137397782814364,0.13196289730797778,0.43344800912451675,23.172776369698287,-0.7032863669821259,0.08520416459966647,0.20170350339896703,0.4224729208478769,20.84112335354444,0.24824297115278987,-1.4031167536910112,0.689296410668106,-4.855136054694412,-0.7251421006694039,0.022663392048422586,-2.223222313792655,5.284752799736135,-1.9488658961969518,1.5910078101088043,-2.3246307373046875,-4.803397178649902,7.897045135498047,-30.0,-15.0,-3.4399757385253906,-15.0,30.0,-14.198241233825684,-15.0,-2.3246307373046875,-4.803397178649902,7.897045135498047,-30.0,-15.0,-3.4399757385253906,-15.0,30.0,-14.198241233825684,-15.0
50,1.0,-0.25053041043422414,-0.4000748648407893,0.7159465390092876,0.9698237623436956,0.01428885343202906,-0.0034669072168285724,0.24336326595332397,0.026033279530266802,-0.013679768736376868,0.4915399091557607,-0.2595494622371208,-0.36176227006442996,0.013737622174430308,-4.699935040054332,0.03312915525193047,1.0520999184024462,-0.7016923419490871,0.023427970104758097,0.11110231875930028,0.4978446361997498,23.5154507387245,-0.7040246077596176,0.10969369854204775,0.17659293256009123,0.42577924350253,21.265594704771857,-0.05114122800967287,3.44185129975308,-2.7920188547182145,8.211297067147969,32.92356607073954,-0.055158629990392095,3.3582014814662298,-5.573993699135685,1.7681460058445477,37.0372284955575,-7.537738800048828,10.197650909423828,-11.545486450195312,24.990943908691406,15.0,-8.34281063079834,8.439949035644531,-30.0,13.688240051269531,15.0,-7.537738800048828,10.197650909423828,-11.545486450195312,24.990943908691406,15.0,-8.34281063079834,8.439949035644531,-30.0,13.688240051269531,15.0
51,1.02,-0.25571723105573757,-0.4118087360907477,0.7136110365606783,0.9700429636929119,0.034509235455901045,-0.006666674723425344,0.2403774463344143,0.0638169551257554,-0.029528696641923213,0.48487296070791336,-0.2576358694588187,-0.7309812591497646,-0.2332234962174926,6.245473317370126,-1.3920183477668153,-1.1581751726742227,-0.702589942365638,0.001767864084093504,0.11466050993163021,0.4494052664336686,24.112016186887047,-0.703829060399727,0.07858142010398994,0.20310636067601037,0.3833734760557898,21.654253145797263,-0.035554062702924306,-4.0458389489246525,2.47935509557385,-8.712172983592858,27.29838075889553,0.03449988038367526,-4.770557329868657,5.901930699542121,-4.761055055928427,5.244788136753528,-4.516979217529297,-13.786676406860352,15.935504913330078,-30.0,-1.8278474807739258,-3.4612903594970703,-15.0,30.0,-19.731847763061523,-12.708453178405762,-4.516979217529297,-13.786676406860352,15.935504913330078,-30.0,-1.8278474807739258,-3.4612903594970703,-15.0,30.0,-19.731847763061523,-12.708453178405762
52,1.04,-0.2575373686248951,-0.4207810392110045,0.714509334076357,0.9692677175345134,0.019446046333946063,0.002254153750450733,0.24522818316474687,0.03881267605534129,-0.005167703303770675,0.49550677947911664,-0.08891585710466508,-0.2867808097339345,-0.0005010609902594589,-6.02648403134463,1.8289106691597732,1.106700038083519,-0.7025622562878624,0.0014979742971263643,0.06148722212250922,0.483318209465224,24.942919333419585,-0.6812393471392307,0.08239762569591637,0.1711877191887325,0.41600628334532536,22.098331986123917,0.01726982389218999,3.3726725492401064,-5.5951876481928124,7.762881478809047,53.051538635771266,1.3106754926982846,3.6039995820248834,-6.534775537623469,3.4917129789572576,37.435883136431954,-2.888474464416504,15.0,-23.61090660095215,29.350711822509766,11.497976303100586,-1.9498329162597656,15.0,-30.0,15.909828186035156,15.0,-2.888474464416504,15.0,-23.61090660095215,29.350711822509766,11.497976303100586,-1.9498329162597656,15.0,-30.0,15.909828186035156,15.0
53,1.06,-0.25939237331218007,-0.430971968378552,0.711335180317321,0.9681283069770774,0.0300674587901279,0.005892581603514526,0.2485735437122138,0.06118634930980053,-0.003538406844357983,0.5025473986182913,-0.08557479065075921,-0.6597092231651519,-0.2814504385873583,5.775826053439277,-1.1289295016792993,-0.11526172415086527,-0.702738577209645,-0.007723552073432236,0.06414865032712991,0.4556190269189697,25.58447366882126,-0.7039525513159312,0.06750583451380647,0.21012099761635597,0.42334859857984836,22.5040170772571,-0.015057809435802667,-2.799475596555849,4.172426923468824,-6.959878583050183,15.159270071047262,-1.8341869300618896,-3.5939123288541683,7.294891659795211,-1.8451101772891811,6.460575843285774,-3.7039337158203125,-4.784317970275879,30.0,-30.0,-15.0,-2.43039608001709,-15.0,30.0,-13.69472885131836,-12.350481033325195,-3.7039337158203125,-4.784317970275879,30.0,-30.0,-15.0,-2.43039608001709,-15.0,30.0,-13.69472885131836,-12.350481033325195
54,1.08,-0.2598350716615347,-0.43875547756554556,0.7084125365367091,0.9665820617182764,0.009284441918599475,0.010656609801848425,0.2559674857676999,0.02340891870418023,0.015848608700099544,0.5179352126967409,0.007436248162315573,-0.21057659452160085,-0.10170564788285753,-6.912360172455106,2.2906432832128383,1.2968501233470417,-0.7030458532127442,0.024302140421286804,0.009957577840506123,0.45663816500773696,26.27193022221093,-0.7160590883054069,0.0845647824283864,0.19220766645443102,0.43456883461534707,22.966169241243367,-0.01518702211221256,4.558811275594992,-7.226454431804546,4.428771447749909,49.86753059299107,-0.0345232353472566,3.9233369384923273,-6.144255865229301,1.7946422463805396,36.871069899370355,-5.636090278625488,15.0,-30.0,21.978240966796875,15.0,-5.2653350830078125,15.0,-30.0,11.303192138671875,15.0,-5.636090278625488,15.0,-30.0,21.978240966796875,15.0,-5.2653350830078125,15.0,-30.0,11.303192138671875,15.0
55,1.1,-0.2616028176677491,-0.44856873717024953,0.7079349462176354,0.9648979719408054,0.007620873095131495,0.010978679334646461,0.2622847586838698,0.02047026417117228,0.017189779679011193,0.5310026880625486,-0.17875838059203897,-0.7192046554301877,0.0935155589159752,4.2281366524659205,-1.634904137453803,0.4090274680927465,-0.7042229644485509,0.03200848568262847,0.008961126381358774,0.45033188470659935,26.79172124732011,-0.7122355691515894,0.08056790388441909,0.24727874856732027,0.46949856993800315,23.424122522597425,-0.03167379390330366,-2.033714184177801,4.1039788021673065,-1.9566497459324994,8.815798103102663,0.2574719675187957,-2.6898932942813554,8.348361076139122,1.185764657353331,11.643671007571609,-8.899998664855957,-13.35334300994873,30.0,-30.0,-15.0,-4.097282409667969,-15.0,29.148109436035156,-3.6631240844726562,-9.90925407409668,-8.899998664855957,-13.35334300994873,30.0,-30.0,-15.0,-4.097282409667969,-15.0,29.148109436035156,-3.6631240844726562,-9.90925407409668
56,1.12,-0.265017917260848,-0.4601768635398544,0.708825633300557,0.9591259486846575,0.008413777115055322,0.004353618552151772,0.2828209131586916,0.01860352575069175,0.0035921605198058174,0.5735275284458204,-0.1643130655306448,-0.4914319680574786,-0.009345288488277537,-2.8926475268004372,0.08294092566943673,3.3473163855258496,-0.7047637702336988,0.03620418189929737,0.05030086321459713,0.5221879474922001,27.346686033748227,-0.7098115282101067,0.08676104981828818,0.2638801868910076,0.46020533183445417,24.045299684306727,-0.022675156160833085,1.635944022284085,0.5532239087981143,6.909490773725532,43.43307242280196,0.05404962242557697,2.173666310600216,-3.9477651270253076,-0.9414352081067147,46.68456803146127,-7.5906829833984375,7.628549575805664,-0.2936363220214844,17.24188232421875,15.0,-12.609094619750977,5.586694717407227,-30.0,6.176898956298828,15.0,-7.5906829833984375,7.628549575805664,-0.2936363220214844,17.24188232421875,15.0,-12.609094619750977,5.586694717407227,-30.0,6.176898956298828,15.0
57,1.14,-0.266579995252767,-0.4727359616325866,0.709004753477668,0.9506562650721828,0.024527573116170247,0.007187004121168164,0.30919154388146153,0.05110119903759054,-0.0015026959746703545,0.6288596986642413,-0.0022224894450079725,-0.7299154571283637,0.0038886604091608132,4.7586977773825545,-0.3409690751771069,2.527781621928585,-0.7047884712505813,0.012172972035416622,0.09426421880403431,0.46991670505218536,27.800591751575382,-0.7075106240054739,0.06907457774292677,0.29027861263821575,0.44821021416952284,24.559675995927282,0.017293121165729945,-3.060077807423254,3.7464842169896815,-8.275290127185595,5.967758708970672,0.1109508592996174,-2.8373370457904747,4.0475642437018235,0.14832451990735454,10.988406883743703,-4.144373893737793,-2.054838180541992,22.040985107421875,-30.0,-15.0,-4.893301010131836,-15.0,16.871639251708984,-10.01274299621582,-15.0,-4.144373893737793,-2.054838180541992,22.040985107421875,-30.0,-15.0,-4.893301010131836,-15.0,16.871639251708984,-10.01274299621582,-15.0
58,1.16,-0.26954997608731357,-0.4834359459743074,0.7117901055139322,0.9420408516956545,-0.002151454280212807,-0.000913073152758335,0.33549004646699265,-0.004666186665607604,-0.0002767214316210328,0.6842533449083498,-0.21383312463941598,-0.3955157646147047,0.11419891297082933,-7.465395798552642,0.8163220086570689,2.7976079680529877,-0.7046240090542822,0.04194837453201991,0.08345601775632176,0.515399184478818,28.254220292469636,-0.706588473781132,0.12011414777107729,0.19136830260295531,0.4170079611877795,25.168367431018904,0.0136939035995809,4.564698270295423,-4.125049171564807,7.4112410629652326,37.33921152622176,0.021433230707085006,5.571388662503708,-10.480526347506107,-2.033140806255605,46.08771296904051,-5.988044738769531,15.0,-30.0,30.0,15.0,-7.022734642028809,15.0,-30.0,0.4005603790283203,15.0,-5.988044738769531,15.0,-30.0,30.0,15.0,-7.022734642028809,15.0,-30.0,0.4005603790283203,15.0
59,1.18,-0.27278365378487673,-0.495915512494723,0.7112473787876317,0.9372101762376622,-0.0016256616143471728,-0.0031064008651386244,0.3487474631514217,-0.005213952996734843,-0.004688827457377172,0.7124854532394431,-0.04685960837766631,-0.7448561859976486,0.011339097992067504,4.767620543902736,-0.16857811524869504,0.9631233536642401,-0.7041977172052701,0.03366579720578014,0.09753986546511034,0.47812807763744253,28.622358473319608,-0.7061923772577313,0.12183351592011811,0.1718290845963802,0.38229758910191886,25.674951843698416,0.019941272631179733,-4.155512711088104,3.6135040515182197,-7.434724188500862,3.133180471423172,-0.004799473588764831,-3.4939701815784527,4.563087488253672,0.5928807184356839,9.840132760147323,-3.514918327331543,-13.291648864746094,23.475902557373047,-28.70684051513672,-13.754820823669434,-9.106563568115234,-15.0,30.0,-12.373605728149414,-15.0,-3.514918327331543,-13.291648864746094,23.475902557373047,-28.70684051513672,-13.754820823669434,-9.106563568115234,-15.0,30.0,-12.373605728149414,-15.0
