step,time_s,torso_x,torso_y,torso_z,quat_w,quat_x,quat_y,quat_z,roll_rad,pitch_rad,yaw_rad,body_vx,body_vy,body_vz,body_wx,body_wy,body_wz,l_hip_roll_pos,l_hip_yaw_pos,l_hip_pitch_pos,l_knee_pos,l_wheel_pos,r_hip_roll_pos,r_hip_yaw_pos,r_hip_pitch_pos,r_knee_pos,r_wheel_pos,l_hip_roll_vel,l_hip_yaw_vel,l_hip_pitch_vel,l_knee_vel,l_wheel_vel,r_hip_roll_vel,r_hip_yaw_vel,r_hip_pitch_vel,r_knee_vel,r_wheel_vel,l_hip_roll_torque,l_hip_yaw_torque,l_hip_pitch_torque,l_knee_torque,l_wheel_torque,r_hip_roll_torque,r_hip_yaw_torque,r_hip_pitch_torque,r_knee_torque,r_wheel_torque,l_hip_roll_ctrl,l_hip_yaw_ctrl,l_hip_pitch_ctrl,l_knee_ctrl,l_wheel_ctrl,r_hip_roll_ctrl,r_hip_yaw_ctrl,r_hip_pitch_ctrl,r_knee_ctrl,r_wheel_ctrl
0,0.0,-0.0004387530604152784,-0.0019162702459641643,0.7064782591402036,0.9992621568133844,0.037772321477696116,-0.00632078636058584,-0.0029054002534592183,0.07560345354546229,-0.012413076572679382,-0.006284540130146387,-0.04775639342919015,-0.4331159815797508,0.14702568598841886,9.578576092750364,-1.138463767442299,-0.3587059302576603,0.012375316747163276,0.012789450318801982,0.40105723283694444,0.5711437338102322,-0.30291407429533307,0.02751110688093117,0.018511803025492515,0.413683735736678,0.58410315970455,-0.2996195682403679,1.4786497901319589,1.434077475602587,6.866257335494044,-2.9233519697291754,-24.74318906499898,1.7013514469561084,1.6632908499365797,7.64031621326286,-2.073936298124331,-24.20946003707623,1.091684341430664,-1.7229909896850586,30.0,-30.0,-15.0,7.049230575561523,4.689546585083008,30.0,-22.244796752929688,-14.229690551757812,1.091684341430664,-1.7229909896850586,30.0,-30.0,-15.0,7.049230575561523,4.689546585083008,30.0,-22.244796752929688,-14.229690551757812
1,0.02,-0.001325102182690366,-0.005992225237035758,0.7091829260914113,0.9977103319927343,0.06665986564801486,-0.009738095993791152,-0.005977058904939684,0.13355064749450826,-0.018635816751526774,-0.013227709750221231,-0.04326640863027426,-0.06049893486449999,0.11528978409214533,-1.4718470513449322,0.12908625500721177,-0.32326188836466224,0.05185209728968308,0.014414281320314621,0.39782770408435064,0.6323262120265272,-0.3923197804579525,0.02886902876224034,0.028330615277308718,0.3950343135035504,0.5808800998131322,-0.37752211677309316,2.4838018969100037,-0.9718827007446025,-4.8373926070178,6.808907175175516,11.874000709229804,-1.0092459363442863,-0.24410104033770827,-6.380388771087997,1.359768197182082,12.468897318888558,8.33784294128418,-8.890929222106934,-26.720979690551758,25.098224639892578,15.0,-6.934676170349121,1.8268241882324219,-30.0,11.945423126220703,15.0,8.33784294128418,-8.890929222106934,-26.720979690551758,25.098224639892578,15.0,-6.934676170349121,1.8268241882324219,-30.0,11.945423126220703,15.0
2,0.04,-0.0032761811405370564,-0.007576803353898296,0.71131763017507,0.9993389697754308,0.03473478078549415,-0.0052838871692414725,-0.009338041997539657,0.06958187269422555,-0.009912241353070398,-0.019032891908019243,-0.12448992067686789,-0.08746393043867703,0.03709882776967928,-4.129858101068384,0.8014899012016906,-0.30673292773438754,0.02468434976978157,-0.028671454711835156,0.15439102712679864,0.5304632242381446,0.17099486460206964,-0.002817324351249538,0.014682220488416269,0.18713454536861374,0.534753793401527,-0.03134289745996934,-3.5609304490304883,-2.655843349874513,-16.179001491206364,-11.756059007595704,41.24648800513133,-1.9637253299886632,-1.0604361631772599,-12.586220738083338,-4.298994811336496,21.196342571597597,-9.70499038696289,-7.332064151763916,-30.0,-30.0,12.495521545410156,-4.060159683227539,-4.120419502258301,-24.727184295654297,-7.950431823730469,3.8994216918945312,-9.70499038696289,-7.332064151763916,-30.0,-30.0,12.495521545410156,-4.060159683227539,-4.120419502258301,-24.727184295654297,-7.950431823730469,3.8994216918945312
3,0.06,-0.005155452323952856,-0.013138337156148937,0.7055984396930965,0.9975723884060271,0.06779183328797092,-0.012676461752774877,-0.009638700471604431,0.13595633357579484,-0.023986826245407676,-0.020956886272846788,-0.07783215737637185,-0.40001132882147317,-0.500832197250546,7.980143065010338,-1.871350505695875,0.1445585171193357,-0.034210916362950476,-0.023444936288083786,0.0834085596319184,0.3914577972166229,1.1206607587405222,-0.012501688684716948,0.03703448289846732,0.15821554594920817,0.4878569273482262,0.5464387041059094,-2.8304569795861765,2.0496436098562363,4.093599707199998,-4.732290053598335,52.51234410247189,0.5524782113585234,2.6262505705659698,5.291741023988271,-1.7202282256247192,35.08217241352229,-6.7110137939453125,13.875373840332031,30.0,-9.167533874511719,5.551689147949219,5.797325134277344,8.779756546020508,30.0,-8.150857925415039,6.232444763183594,-6.7110137939453125,13.875373840332031,30.0,-9.167533874511719,5.551689147949219,5.797325134277344,8.779756546020508,30.0,-8.150857925415039,6.232444763183594
4,0.08,-0.0061980005502170425,-0.016613919566238124,0.6948028766311982,0.995617525645913,0.09129860776861301,-0.019530233920335385,-0.00537371465933139,0.18316018534981435,-0.037917145998191445,-0.01427724204599345,-0.039505337429845126,-0.02819922993201607,-0.5792166785496075,-1.3217453352314688,0.2212709163626173,0.5944486771193541,-0.004781817777679382,-0.020388963868073342,0.06109835517729725,0.40887199601760277,2.0037030443308184,-0.06905096681282047,0.06420196834635701,0.10837164865463078,0.4476892830034769,1.2547710704846662,4.162082387246049,-1.264748654025297,-4.692830885873002,4.347242358868131,37.44336897358806,-4.8778826847237955,0.6797239289120368,-7.408669097402363,-1.7672064856004785,35.68772753893337,15.0,-8.806416511535645,-23.74305534362793,19.030826568603516,-5.20477294921875,-14.460076332092285,-1.961989402770996,-30.0,4.377017974853516,0.9902801513671875,15.0,-8.806416511535645,-23.74305534362793,19.030826568603516,-5.20477294921875,-14.460076332092285,-1.961989402770996,-30.0,4.377017974853516,0.9902801513671875
5,0.1,-0.007048233143635402,-0.019119101325059874,0.6805604980225569,0.9959362600616086,0.0890872174452156,-0.013145650645247905,-0.0012749319500900492,0.17848995624635927,-0.0259602158082658,-0.004883385638696459,-0.046223178369546696,-0.18406184770864936,-0.8325938408707731,0.6202121689045331,0.9515502440186075,0.18894310097935313,0.026033967726041576,-0.06131892848751084,-0.046525793993338,0.4026463836895897,3.1166421279388326,-0.09613505549389872,0.058905730868882816,-0.05803254449760811,0.3031473695851121,2.216045368399305,0.03417293957811879,-2.415731985303772,-5.5261472814179475,-2.956674124069952,70.28558902619822,0.725018193776174,-1.0787919598710498,-8.526826503313663,-10.351155796117606,58.00824469881469,-4.148238182067871,-5.335508346557617,-6.532306671142578,-10.123804092407227,14.515993118286133,6.402790069580078,-4.950662612915039,-8.495738983154297,-22.91904067993164,10.04374885559082,-4.148238182067871,-5.335508346557617,-6.532306671142578,-10.123804092407227,14.515993118286133,6.402790069580078,-4.950662612915039,-8.495738983154297,-22.91904067993164,10.04374885559082
6,0.12,-0.005543905582085551,-0.022737912371969243,0.6680090243945134,0.9964840760048393,0.08313313086645342,-0.005843811638762471,0.008615026793447987,0.16636146945730151,-0.013079291686646798,0.016199939447576965,0.3513801506920985,-0.27419276418124383,0.001591444996955911,-2.5898836197166046,2.9501467656542006,2.5108339499927537,0.026570855846768597,-0.08667041101466597,-0.1717108603216865,0.347236515262677,4.7090559655765585,-0.13913629221857737,0.06106206229530423,-0.17239543491170084,0.20501531788457888,3.171379085818359,-0.5166566672699507,-2.557080632138139,-7.499773110687799,-2.5294136983187756,87.1394734857273,-4.087273628447046,-1.7926463617969304,-3.539796498715501,-2.4406817679723427,24.826499530114454,2.7213802337646484,15.0,-8.378368377685547,-3.343608856201172,8.487089157104492,-9.29690933227539,12.371976852416992,-11.582752227783203,6.839832305908203,2.3198165893554688,2.7213802337646484,15.0,-8.378368377685547,-3.343608856201172,8.487089157104492,-9.29690933227539,12.371976852416992,-11.582752227783203,6.839832305908203,2.3198165893554688
7,0.14,0.002638772272685861,-0.028529976819855182,0.6671929827732077,0.9963080686336482,0.05742022236274708,0.006790441881051298,0.06345896578388986,0.11553741508600576,0.006243128774885686,0.12757744985511535,0.41969631575612415,-0.2909655261781763,-0.14132116978374276,-2.4617244278005876,0.43568325220796655,7.4634667546030675,-0.03059711581826509,-0.0992332579843875,-0.2896170348679185,0.2562659959807924,6.802788111156923,-0.17086945045051927,0.03598219732187259,-0.21848765228614703,0.2815927429067774,3.970789990305261,-4.1866241754776885,1.0226461093902293,-4.504820459106805,-5.838973127740959,118.80323631885534,-0.19691984732198517,-0.5218825467028506,-2.213577355890784,7.838169032405017,55.15815734882613,-9.717931747436523,10.653390884399414,14.851070404052734,-19.616928100585938,15.0,2.089099884033203,4.077186584472656,-21.71630096435547,27.576152801513672,15.0,-9.717931747436523,10.653390884399414,14.851070404052734,-19.616928100585938,15.0,2.089099884033203,4.077186584472656,-21.71630096435547,27.576152801513672,15.0
8,0.16,0.011480771916009035,-0.03601358238285699,0.6615609995847765,0.9886668769571724,0.06643916650218085,0.003068441276347038,0.13458910888470896,0.13259579527379586,-0.011816918937850278,0.2698158230591036,0.46677926810470044,-0.42808968153217336,-0.3915497986733538,3.0218343200856608,-0.3683585802568619,6.974603475884901,-0.05773079795257852,-0.08171470176579525,-0.2665278148886532,0.19231489097069718,8.868887889630011,-0.17407583805224408,0.023316464534258546,-0.18276620356278686,0.3993726277751177,4.983877794964131,0.1940729570405266,0.9174280298697193,4.508512594132672,-1.973189115111107,90.835871828752,-0.031133184326447336,-0.6473633379393223,4.3648008392822755,4.5901916073808655,47.01948539453428,3.3907947540283203,4.307044982910156,15.971626281738281,-3.2223548889160156,-9.378488540649414,1.0577278137207031,-1.9754972457885742,18.09814453125,0.23629188537597656,-2.3584766387939453,3.3907947540283203,4.307044982910156,15.971626281738281,-3.2223548889160156,-9.378488540649414,1.0577278137207031,-1.9754972457885742,18.09814453125,0.23629188537597656,-2.3584766387939453
9,0.18,0.020628938375709584,-0.04208036118730812,0.6521387404994444,0.9784808606886133,0.07033405677778497,0.0025330296702526017,0.19396368083726395,0.1391064527764742,-0.02232931849226864,0.3898293270509703,0.4389058036968203,-0.22247086736376617,-0.545297918080018,-1.2401065944995562,0.796971854808824,5.13309746984244,-0.017181623154358783,-0.08203795647819012,-0.21031069196435417,0.30032683752274536,10.419488684634269,-0.1903283745118422,0.019476628577856998,-0.1831918792802392,0.40445853926723513,6.257807923717534,3.1686210818455858,-0.751012636827601,1.2649241970622138,9.664554566057145,66.84546882526074,-1.301916069841069,0.10095505132526747,-2.498681372475211,-2.00912377597954,77.10775418369623,9.972707748413086,-2.473154067993164,-15.953303337097168,29.590496063232422,-8.170994758605957,-3.9312191009521484,0.3367137908935547,-3.4497146606445312,-8.53756332397461,13.554464340209961,9.972707748413086,-2.473154067993164,-15.953303337097168,29.590496063232422,-8.170994758605957,-3.9312191009521484,0.3367137908935547,-3.4497146606445312,-8.53756332397461,13.554464340209961
10,0.2,0.032288214542051476,-0.049111385024569736,0.6442826488604407,0.9653374654748695,0.06840271505577881,0.020114310441877902,0.25107779837930944,0.1426486430542876,0.004485403764906694,0.5092313434648733,0.8134438433671572,-0.47391865625551644,0.013076679605281782,0.4994037590133976,4.526516129052968,7.111226563714441,0.01652221160997089,-0.12192005508363468,-0.1907266047437111,0.3737750211523116,11.9264029237467,-0.1920980824922268,-0.03458550796822038,-0.16309602695301675,0.4229331922533183,7.521988789936511,0.3037078686947701,-4.238739634282771,0.6496642100528386,0.3190182785315816,82.16981995873272,-0.14286685513643008,-6.160051864962378,3.124296692849484,4.432429149198206,43.76216583324553,0.1724681854248047,1.4604320526123047,8.348800659179688,-8.453502655029297,7.71751594543457,4.542530059814453,-5.831694602966309,12.846763610839844,-3.366302490234375,-2.0740814208984375,0.1724681854248047,1.4604320526123047,8.348800659179688,-8.453502655029297,7.71751594543457,4.542530059814453,-5.831694602966309,12.846763610839844,-3.366302490234375,-2.0740814208984375
11,0.22,0.046886925015409274,-0.058335625251059765,0.6449730339900819,0.9462526651113081,0.04351771339004592,0.02638752054981682,0.3193991251557856,0.09940174299853086,0.022141293156103914,0.6521668208832999,0.5095092750220951,-0.6258569010979521,0.41622556081889717,-5.656385918978584,-1.8980725255228095,5.2100563052623645,-0.027293588552311725,-0.13039999592478702,-0.2469888136964215,0.35339009134004445,13.799650499259414,-0.19571442198346223,-0.0634494251837891,-0.17019261449770326,0.5110880781521776,8.768764034554586,-3.952880114325325,2.73418266408847,-4.272590826912376,-1.146117739992735,88.21786749444614,0.5039876302634951,3.6734777274444377,-3.568494292861532,4.708007540833447,77.29864882476812,-5.137347221374512,15.0,-9.284692764282227,-3.327383041381836,13.864093780517578,0.7106227874755859,15.0,-15.968856811523438,11.322433471679688,15.0,-5.137347221374512,15.0,-9.284692764282227,-3.327383041381836,13.864093780517578,0.7106227874755859,15.0,-15.968856811523438,11.322433471679688,15.0
12,0.24,0.05818027891547707,-0.07231209971194638,0.6503493867672693,0.9296392857600921,0.0318793614330259,0.01045696097942186,0.36694026305812033,0.06699740684175107,-0.003953249365464811,0.7517473385745791,0.6071489039975739,-0.7475699306884956,0.1560841542000069,0.9469889295689635,-0.170833193863159,4.8939900538966095,-0.039661714696482886,-0.12005505959956699,-0.1803088817400023,0.43924853679202625,15.632773509255689,-0.19783322857741653,-0.0352369426518942,-0.15085224413531886,0.5517604923712409,10.20122435765212,1.1431868201079092,-0.8427434415955878,7.712114066292717,6.991579384836216,94.44009523263745,-0.4948559310086192,-0.15748997539007015,3.9906706828651592,0.24899593883884663,67.0425189541946,5.301473617553711,-2.76778507232666,18.212448120117188,14.488746643066406,4.410823822021484,-3.7504215240478516,-11.671830177307129,22.883445739746094,-9.16495132446289,-2.824411392211914,5.301473617553711,-2.76778507232666,18.212448120117188,14.488746643066406,4.410823822021484,-3.7504215240478516,-11.671830177307129,22.883445739746094,-9.16495132446289,-2.824411392211914
13,0.26,0.07146665208602646,-0.08630613224017811,0.6549466426087733,0.9148217967422239,0.02767247972814651,0.011144338545588252,0.40275441374292287,0.059643101053419835,-0.0019002602195240215,0.8293834665345841,0.7164061557695783,-0.6707500813436227,0.296445364910112,-1.2288876286901005,0.7338108845806447,3.249577722250681,-0.005859732774265412,-0.12167422949617415,-0.08725731420918688,0.5634341282143163,17.07611673131291,-0.20009633816085245,-0.05012129329534588,-0.04712316999997782,0.6454336602638004,11.462731754184825,2.1311210915399452,0.43317239929653434,2.652695127480122,5.97364044125007,54.23548448013046,-0.03234521427226875,-1.1996829959593305,5.779840576577513,6.922673938491184,59.904670234564094,8.745607376098633,12.298299789428711,-7.566383361816406,13.21807861328125,-15.0,-0.7378091812133789,-2.885188102722168,15.420055389404297,4.605876922607422,2.7730979919433594,8.745607376098633,12.298299789428711,-7.566383361816406,13.21807861328125,-15.0,-0.7378091812133789,-2.885188102722168,15.420055389404297,4.605876922607422,2.7730979919433594
14,0.28,0.08822829904154038,-0.10034370493566827,0.6630166140369405,0.8955503356112894,0.015612059088612506,0.017412593438934837,0.444345205428449,0.04345736325980286,0.017314285669832046,0.9215341117536955,0.9290083824690628,-0.7151380514340748,0.4884806204694232,-0.5344302557575963,1.5456248170926419,5.5055873676056075,0.031895720627335616,-0.12176621020424049,-0.03148944264673695,0.6235976585764744,18.336468473339643,-0.21321856878257503,-0.08467381259848662,0.025577711051977835,0.6974204214202057,12.710162724088098,1.74469035815591,-0.2624665399629363,3.102434222188213,1.251529478375656,70.07632199611504,-0.9771016096929304,-2.236596131050325,2.5292892494584303,0.18853324010270855,64.19053095217693,2.251384735107422,1.6883106231689453,12.155311584472656,-4.082176208496094,7.706180572509766,1.642364501953125,4.699748992919922,2.7477989196777344,-15.943146705627441,5.639949798583984,2.251384735107422,1.6883106231689453,12.155311584472656,-4.082176208496094,7.706180572509766,1.642364501953125,4.699748992919922,2.7477989196777344,-15.943146705627441,5.639949798583984
15,0.3,0.10689754501245156,-0.11506816222076037,0.6710168022761065,0.8760806038477124,0.016849288308083306,0.014990818734714053,0.48163695082395924,0.04397932386291723,0.010036019843347031,1.0055436339343402,0.939888367035961,-0.7520243044633237,0.3279481346441152,0.2790449734115276,-1.4062157301857419,3.321798945397456,0.04905620211764091,-0.06225669174028746,0.0008009448766978029,0.613577800026233,19.754250787659355,-0.24455257810893113,-0.07927086473625769,0.13278123405110756,0.7562928840944056,13.960036591435008,0.40929592495702155,5.132792551909002,0.6432644272230562,-1.4181016353723108,71.53871338536868,-1.9842791326959377,1.855932443047783,7.070401917641306,4.610166943578686,61.43037537834997,0.19995498657226562,15.0,-4.869197845458984,-0.7889270782470703,2.015378952026367,-1.4833698272705078,15.0,21.30370330810547,1.88983154296875,0.27175426483154297,0.19995498657226562,15.0,-4.869197845458984,-0.7889270782470703,2.015378952026367,-1.4833698272705078,15.0,21.30370330810547,1.88983154296875,0.27175426483154297
16,0.32,0.12707907722126716,-0.1303612697629041,0.6799274335241682,0.8520596963199093,0.011477876437888218,0.020715968023838478,0.5229085779833172,0.041247675448345,0.02330083114513628,1.1013442126345072,1.0127584557082645,-0.8484822879671731,0.5857346385876003,-0.7011485436504583,1.6558457372819766,5.049463593157172,0.07660930457656728,-0.05388029228345404,0.0429845872652017,0.6163613411042096,20.871137837531514,-0.26685032487043275,-0.10078317398927258,0.15329136996992523,0.7181332140709981,15.055356371559645,1.3598927419717775,-3.3680764263719816,3.6710937506300425,1.3655593088054694,40.122536264133046,-0.17495439652753172,-2.120574123380612,-2.755402199550835,-6.422556456097067,49.53416269658347,4.67237663269043,-15.0,13.826610565185547,-1.7363262176513672,-9.170286178588867,3.970186233520508,-4.947174072265625,-13.204635620117188,-23.27750015258789,-4.076748847961426,4.67237663269043,-15.0,13.826610565185547,-1.7363262176513672,-9.170286178588867,3.970186233520508,-4.947174072265625,-13.204635620117188,-23.27750015258789,-4.076748847961426
17,0.34,0.14698231050973962,-0.1471233894717039,0.6901902687939793,0.8374038905264228,0.002380914757318575,0.011663613640024693,0.5464549528488003,0.016738034441733225,0.01693299473419646,1.1564850203760388,0.9882024911220199,-0.8265794838145034,0.47233112372793234,-1.7229394399246485,-1.4776685493326025,1.069727294015206,0.06608282388617207,-0.047552732907915056,0.07463178932725749,0.6996946641969839,21.922666978754254,-0.25462722595523024,-0.0962665958343956,0.16539555427452632,0.685527378478148,16.163175318853956,-1.560917529284337,2.749702191292071,-0.09036054701240076,5.972679580664877,62.612297000187276,1.0889049297402331,1.8377630145390713,2.7159058077691753,0.9258563269046147,59.93066665129811,-3.1804885864257812,15.0,-19.620399475097656,22.09738540649414,10.323211669921875,2.8730106353759766,15.0,23.602035522460938,-7.693389892578125,5.836261749267578,-3.1804885864257812,15.0,-19.620399475097656,22.09738540649414,10.323211669921875,2.8730106353759766,15.0,23.602035522460938,-7.693389892578125,5.836261749267578
18,0.36,0.16849456394060075,-0.16452944341810674,0.6980265770572428,0.8226731718267395,0.010804861307251154,0.013243537609327121,0.5682576141507064,0.032836606607743984,0.009510460134886524,1.2091315677990924,1.1345573251681131,-0.8950800105572576,0.3134566787563961,2.4629394375219653,0.520850646478761,3.8597136905021854,0.059413692893072315,-0.03753371438098677,0.14002262174488903,0.720617591397624,22.819270949195598,-0.24978520910529928,-0.09982779652364342,0.23521476949849285,0.6677142690368919,17.202191172659063,0.24970646329637158,-1.0065847037373503,5.729665441625232,-2.088513180580282,30.497922001278816,-0.1707428110277515,-1.5412023674856736,3.987983127522512,-2.1342166194425003,45.37131544928954,-0.2477884292602539,-10.86025333404541,30.0,-19.157230377197266,-12.340073585510254,0.3975820541381836,-6.133033752441406,-0.4591503143310547,-2.1699466705322266,-5.016782760620117,-0.2477884292602539,-10.86025333404541,30.0,-19.157230377197266,-12.340073585510254,0.3975820541381836,-6.133033752441406,-0.4591503143310547,-2.1699466705322266,-5.016782760620117
19,0.38,0.189786582434295,-0.18084522878556322,0.7053822555875287,0.8107257321479777,0.004291162354772459,0.004240807941288533,0.5853950706204955,0.011923310575957042,0.0018522147258332785,1.250771851526198,1.0182727645686742,-0.7538557844986878,0.42751446495810647,-3.37395271389155,-0.8697453026428031,0.8364918177014113,0.09648750507719854,-0.02579993788871382,0.1438140314594209,0.7295064003016354,23.646096973993814,-0.23898361128678236,-0.09060351893942141,0.22958173287567293,0.6214296279686848,18.13800522507072,2.9174723485623693,1.5628957313218106,-3.528920170683533,2.301323937140447,50.0812871794259,1.0642256571292648,1.6875015543536651,-2.6361473775481463,-2.370758396779054,46.954126974840584,9.057868957519531,11.019067764282227,-28.315698623657227,17.744300842285156,8.916940689086914,2.583284378051758,15.0,-0.23104095458984375,-16.743515014648438,1.0997734069824219,9.057868957519531,11.019067764282227,-28.315698623657227,17.744300842285156,8.916940689086914,2.583284378051758,15.0,-0.23104095458984375,-16.743515014648438,1.0997734069824219
20,0.4,0.21306015180763183,-0.19760935043320157,0.7106372309049355,0.7993169335731225,0.014323572107508944,0.009831891954069591,0.6006584794090105,0.03471637761575926,-0.0014895551785361,1.2888498888110829,1.2614852656679252,-0.8882002480022594,0.13482507881090655,4.084337202706342,0.4051264964627169,2.668191707701655,0.07278385036178531,-0.014336555647062422,0.19829042393464205,0.7397930196853062,24.520442680159956,-0.2196328598358123,-0.0962496876996695,0.2924946587461572,0.6002115148794148,18.99661413917066,-3.798403050721214,-0.30259628349459344,6.805852263840721,-0.9426202290734542,38.586882100897185,1.0625730063081966,-1.445592530455099,6.77503051245,-0.7589262690686309,39.46015057009719,-14.650888442993164,-11.919203758239746,30.0,-12.342899322509766,-3.8896703720092773,3.3685131072998047,-1.9261932373046875,20.518646240234375,-2.564603805541992,-2.352292060852051,-14.650888442993164,-11.919203758239746,30.0,-12.342899322509766,-3.8896703720092773,3.3685131072998047,-1.9261932373046875,20.518646240234375,-2.564603805541992,-2.352292060852051
21,0.42,0.23535189896015116,-0.21325587829854553,0.7152329178361478,0.7879566275940807,0.007498104543330098,0.0001190879483956536,0.615685079628279,0.011963778500492113,-0.00904539325644316,1.3264999723710127,1.0099127269268446,-0.6965369897416214,0.3567814202961333,-4.605394514799235,-0.5568225822921986,1.3535393255714456,0.09222301813144179,-0.004426310040921094,0.17455429539853692,0.702021888093979,25.277464574298104,-0.19731033006023307,-0.07928402098719836,0.27655122925844183,0.5438614109670656,19.805382423819626,3.929948449664987,0.8238669452328693,-6.2760038802987035,-1.9994123030969473,37.259010877641884,1.0144957935254757,1.477794267901547,-5.227096880254882,-2.694826468134468,40.86394239144089,15.0,9.219917297363281,-27.26718521118164,4.099327087402344,0.24475860595703125,0.24307823181152344,15.0,-21.62251853942871,-9.676647186279297,1.470895767211914,15.0,9.219917297363281,-27.26718521118164,4.099327087402344,0.24475860595703125,0.24307823181152344,15.0,-21.62251853942871,-9.676647186279297,1.470895767211914
22,0.44,0.2589954870341849,-0.22852845601271482,0.7184706236462356,0.773984828278815,0.013791392382126112,0.0031656392306059255,0.6330460187211007,0.02536136676043974,-0.012561188929715692,1.3709679826435524,1.2979214366197263,-0.8002065538659189,0.0132989335500978,4.118698891292231,0.12448390275460333,2.810431911393228,0.0853320719942491,-0.0027354479191838395,0.21745376525831744,0.6952401697219657,26.12537766626437,-0.17075257889878306,-0.07419879960497189,0.31105761135340254,0.5051402768505298,20.421399588030244,-3.042268603515467,-0.5064510608210286,7.39715892330854,0.1426769566138016,46.53359715176861,1.7925350428744564,-0.17828889102621726,6.151393398874638,-2.3050872770892874,22.076666984114905,-13.684881210327148,-15.0,30.0,-5.108142852783203,4.618574142456055,4.966484069824219,7.422309875488281,26.80966567993164,-9.343929290771484,-7.464133262634277,-13.684881210327148,-15.0,30.0,-5.108142852783203,4.618574142456055,4.966484069824219,7.422309875488281,26.80966567993164,-9.343929290771484,-7.464133262634277
23,0.46,0.2809101000088765,-0.24287774313422444,0.7216920596052755,0.7598675305843223,0.004082407735744769,-0.013069460043711218,0.6499337344106154,-0.010788014411451212,-0.025171363670644115,1.4152906203840887,0.9454859603518659,-0.6349861017082064,0.2793210592746199,-5.720564806707515,-0.9883810852070024,2.144009150869355,0.10698872052166165,0.00393347708936173,0.17964188046406904,0.6516656475157944,26.784770150011784,-0.1635655126348942,-0.05304308293994051,0.28150021252375146,0.4708001523388523,21.144666483533953,3.63810712724119,0.8408707392039221,-7.659587437644285,-2.980782866669894,22.04813812740324,-0.014698701903241584,1.9252360510866122,-5.759500529137951,-1.9289243956421065,45.313329362124605,13.483465194702148,10.561054229736328,-29.47852325439453,0.4856147766113281,-9.34635066986084,-4.972856521606445,14.150758743286133,-27.63680648803711,-0.8055458068847656,11.080852508544922,13.483465194702148,10.561054229736328,-29.47852325439453,0.4856147766113281,-9.34635066986084,-4.972856521606445,14.150758743286133,-27.63680648803711,-0.8055458068847656,11.080852508544922
24,0.48,0.30389521711457107,-0.25638514372769206,0.7236262243244616,0.7433035817317281,0.00640805781264392,-0.014278189605208037,0.6687711532964411,-0.009575816261668072,-0.029801518452935348,1.4654724700753148,1.2870140261774976,-0.6964629411854724,-0.04780801807747129,3.9360263409410403,0.12175891416240088,2.6970594322808554,0.10992652390484531,0.0014868775457647948,0.22067182200393307,0.665664100181985,27.392210998740918,-0.15043548765795633,-0.045373365272939996,0.3025845280446345,0.42419886966484355,21.678474349136383,-2.0637731810354536,-0.7086025454508819,8.025517882664804,2.296485671960046,37.082334309664446,1.4816213299539671,-0.2503245512327691,5.474797076194496,-3.817625986873964,10.482998700036765,-10.919711112976074,-15.0,30.0,1.3283767700195312,6.756263732910156,6.029024124145508,6.768972396850586,30.0,-16.994192123413086,-15.0,-10.919711112976074,-15.0,30.0,1.3283767700195312,6.756263732910156,6.029024124145508,6.768972396850586,30.0,-16.994192123413086,-15.0
25,0.5,0.3262940076435371,-0.26930771879159016,0.7248215966434387,0.7268449797308784,0.002326706837894919,-0.021881556666485613,0.6864489488324396,-0.026678343976496023,-0.03501048196682771,1.5141131847242646,0.9888466429801679,-0.5894832540657067,0.1351710337453983,-3.9482629093829753,-0.5224729721014538,2.5949455904184977,0.11898054401688539,-0.0021041204403857666,0.22562910645003914,0.6476067990208876,27.861084354270925,-0.14429637192277595,-0.03741298173761778,0.2902794997909469,0.38979329416602293,22.30279585157494,2.037596482946669,0.264953018713122,-4.484770493511699,-2.2961373520035706,12.45830127607189,0.26981011488228707,0.9685093610317979,-3.920636646421048,-1.7887902799289446,44.9125547967026,8.23684310913086,9.057540893554688,-19.472414016723633,-2.092191696166992,-9.612361907958984,-3.769373893737793,7.113073348999023,-23.694976806640625,2.7887725830078125,15.0,8.23684310913086,9.057540893554688,-19.472414016723633,-2.092191696166992,-9.612361907958984,-3.769373893737793,7.113073348999023,-23.694976806640625,2.7887725830078125,15.0
26,0.52,0.3494432439405599,-0.2813383394814733,0.7243811202595813,0.7108789041856705,0.007260923803168017,-0.017094027758137183,0.7030691692744812,-0.013721898073575173,-0.034520286383612604,1.5599866014745096,1.2757232546156918,-0.6048454394096061,-0.1378343573451205,3.826064881240005,0.24024835955481402,1.9279427797249211,0.1069592101913724,-0.013036546232154448,0.2888227986283136,0.6795179033154788,28.22295725612851,-0.12691899040867602,-0.03588097436877562,0.32051195384987624,0.33688106265452483,22.83786042511664,-2.2867481656220927,-1.183160095264614,7.792991831462778,3.421690786649515,22.640832658578628,1.4711690474905963,-0.26020060656393673,4.966942662482355,-3.771865948486449,11.820568175673834,-9.04818344116211,-15.0,21.84067153930664,6.719940185546875,4.542392730712891,5.405529022216797,10.396896362304688,30.0,-19.619396209716797,-15.0,-9.04818344116211,-15.0,21.84067153930664,6.719940185546875,4.542392730712891,5.405529022216797,10.396896362304688,30.0,-19.619396209716797,-15.0
27,0.54,0.37118004820569767,-0.2924074923811204,0.7239487959907658,0.6959612318592192,0.0036832498391015764,-0.027184215917197704,0.7175551657012774,-0.03392360958507921,-0.04313756820200475,1.6020793209918502,0.9341173350505746,-0.49577736037067766,0.08983886098958528,-4.124226968319615,-0.7652623770285526,2.47703843808955,0.12459263732025593,-0.011483037459322332,0.2840289403573707,0.6570557330134941,28.422576464895467,-0.10735247410947286,-0.018056268935363003,0.3071977655480164,0.3007333289169671,23.439474381916728,2.8647240683372637,0.8786605924067563,-5.091191573583165,-3.335653675876035,-0.22114586083452936,1.0648914439974009,1.2639488230046365,-3.8411227919336106,-1.1132535069566074,43.255536767923665,9.840206146240234,13.031963348388672,-18.119754791259766,-6.304037094116211,-9.177511215209961,-2.895236015319824,6.974193572998047,-26.80588150024414,6.721916198730469,14.141672134399414,9.840206146240234,13.031963348388672,-18.119754791259766,-6.304037094116211,-9.177511215209961,-2.895236015319824,6.974193572998047,-26.80588150024414,6.721916198730469,14.141672134399414
28,0.56,0.3930904886803133,-0.30263084221165215,0.7214909049511207,0.6801038061509486,0.00794404544833049,-0.02595213203284983,0.7326132621266538,-0.027253612604573464,-0.04695736853443403,1.6457404055842149,1.2052844350803242,-0.5209199692736243,-0.2898297062435103,3.3672548939056366,-0.020705513289044075,1.843991400836035,0.119664140964457,-0.014474373018435172,0.3332395267078445,0.6762516625846083,28.585182389293447,-0.08624873775689416,-0.007029352525030635,0.3429984180630952,0.2348547870242578,23.903853751588212,-2.216485825549625,-0.8834807552923503,6.964375783105886,3.0577444935575078,14.865038877975625,1.2831011846366636,0.4419106327755955,5.5360381977384785,-5.188759109366613,6.436421529904121,-8.939802169799805,-15.0,19.534992218017578,6.896884918212891,6.355953216552734,3.032255172729492,8.604036331176758,30.0,-18.7626953125,-15.0,-8.939802169799805,-15.0,19.534992218017578,6.896884918212891,6.355953216552734,3.032255172729492,8.604036331176758,30.0,-18.7626953125,-15.0
29,0.58,0.4141927747031943,-0.3125499832173584,0.715836719371179,0.6562912814383468,0.007366137577638493,-0.03500884249881902,0.7536589911041283,-0.0431845397826041,-0.05708610838343734,1.7099256409306975,0.9529784503448485,-0.47633833838496337,-0.29776560271144037,-3.190088747490905,-0.9211651388462879,4.354970747979613,0.12198568524760386,-0.006444896702704253,0.349029685328411,0.644710244022935,28.511872006485127,-0.07637437925338887,0.03088893611948539,0.34572185974744346,0.1985710571666525,24.255490127213456,1.5863143850208479,1.3853631367462873,-2.7516992849196242,-3.966526510809402,-18.595534769923717,-0.019516456939608018,2.7323632108482885,-3.5452372447504006,0.4219821425801681,26.56748662848185,6.292730331420898,12.176839828491211,-5.613605499267578,-11.674331665039062,-13.808987617492676,-2.9222564697265625,1.9360065460205078,-30.0,13.622821807861328,8.669809341430664,6.292730331420898,12.176839828491211,-5.613605499267578,-11.674331665039062,-13.808987617492676,-2.9222564697265625,1.9360065460205078,-30.0,13.622821807861328,8.669809341430664
30,0.6,0.43491523169266544,-0.32101931113261645,0.7116407349988269,0.6450680381238144,0.0019170803411976012,-0.02510272241446522,0.7637102882123827,-0.03589921750328798,-0.03532145984200578,1.739466771018885,1.102971570604735,-0.37462991764813797,-0.10908585232485296,3.044581267557497,2.287904298044275,-0.8835041686174092,0.11329033108515002,-0.03703822607111669,0.3989222640110273,0.6564555814210686,28.315026028440908,-0.07908049122883233,0.0067981154167551005,0.3457845722026575,0.1702041153672168,24.560791912140914,-1.6758353163867106,-3.596572557291934,5.533286015820946,2.927483541805899,-2.7827873845489295,-0.2740725938565535,-3.845127942786244,1.9348767889726084,-2.0944374134724923,7.875183768716186,-6.396673202514648,-15.0,6.4243927001953125,12.28311538696289,6.32463264465332,4.612724304199219,3.3523788452148438,30.0,-29.451906204223633,-15.0,-6.396673202514648,-15.0,6.4243927001953125,12.28311538696289,6.32463264465332,4.612724304199219,3.3523788452148438,30.0,-29.451906204223633,-15.0
31,0.62,0.45418313113694986,-0.3273953644038628,0.7112368270647613,0.6498921164174962,-1.1164804874979196e-05,-0.021018207973602713,0.7597357908031672,-0.03196844142841289,-0.02730556373954302,1.7267663087348737,0.8539152278334121,-0.2727890340976874,0.04632451069779956,-1.7302647944808853,-0.7817357463449729,-0.2998183164303908,0.11119551669354888,-0.04713936388223126,0.3868162713168478,0.6183149468807312,28.095949697767946,-0.025644223327774544,-0.005825536918386035,0.3542005000369464,0.1965921025360057,24.806621892503898,0.8236469335858962,1.6450880546479558,-4.242353592574346,-4.388774839781306,-17.544865252923817,4.28228630295659,1.2399449207283961,-0.49387516355358096,3.2106818987191312,15.696283725560964,2.6784019470214844,15.0,-15.374464988708496,-8.297874450683594,-6.2867279052734375,4.431610107421875,15.0,-10.798036575317383,12.447883605957031,3.9183177947998047,2.6784019470214844,15.0,-15.374464988708496,-8.297874450683594,-6.2867279052734375,4.431610107421875,15.0,-10.798036575317383,12.447883605957031,3.9183177947998047
32,0.64,0.4728535960051231,-0.3321581606478119,0.7110460908085098,0.6479438498358935,0.007404772638948587,-0.0044613633345761666,0.7616390437990979,0.002800268007756517,-0.01706178155480385,1.7317414613652178,0.9856785773717578,-0.20294059048817978,-0.026531058096501522,4.070639572876549,1.3699928521645626,0.45808427165999566,0.0730015856874146,-0.05824915360519305,0.44990501263822325,0.6345635440374745,28.039472595469682,-0.009101247384253226,-0.024346877182033894,0.40152284120998266,0.25503643434240914,24.824883960904533,-3.559744438376052,-2.226185848728372,7.616749071239932,3.383692357156096,9.04115542463028,-1.020690407539583,-2.258020758728316,4.059028757190266,2.8620841546985822,-10.770997012979452,-9.378376960754395,-15.0,25.640289306640625,6.983863830566406,10.844123840332031,-5.1200714111328125,10.72395133972168,14.400672912597656,-7.038135528564453,-15.0,-9.378376960754395,-15.0,25.640289306640625,6.983863830566406,10.844123840332031,-5.1200714111328125,10.72395133972168,14.400672912597656,-7.038135528564453,-15.0
33,0.66,0.48847595688015816,-0.335604322012974,0.713883016138551,0.6469575349280652,0.005129535068052671,-0.011949376632515791,0.7624151416832442,-0.011586988941822411,-0.023285253076898726,1.7344087354053606,0.6380549836628753,-0.14889897000997773,0.2214660772317765,-3.844060170292699,-1.4576936199677415,0.1511095887897424,0.08061285013828239,-0.04010709926655724,0.39919121345222885,0.5391270444788917,28.05761099364311,0.01231322048836538,-0.02056796742878063,0.3851925168073994,0.30343234839466915,24.85625420739341,2.77788439802962,3.089753001070594,-8.620469245403843,-8.973578421883072,-5.663996923555449,2.1036056437987805,1.7544302572055506,-3.710956995479304,2.201266978530903,11.133843293073348,9.92728042602539,15.0,-30.0,-16.465534210205078,-6.039272308349609,-1.0729265213012695,13.250755310058594,-20.593873977661133,9.618545532226562,10.770513534545898,9.92728042602539,15.0,-30.0,-16.465534210205078,-6.039272308349609,-1.0729265213012695,13.250755310058594,-20.593873977661133,9.618545532226562,10.770513534545898
34,0.68,0.5034892247299348,-0.33772119770689835,0.7161986128992183,0.6438229074140034,0.000999670324998559,-0.010946709670690936,0.7650955718703427,-0.01546584142673462,-0.015625807445260428,1.7426439060246086,0.8283540762111553,-0.0697982405056787,0.07094612786192207,2.2464371977073667,1.6038970661356517,0.3810924819387573,0.05934374012813349,-0.04308779047353441,0.403904800658655,0.5387365079577819,28.077239676161025,0.01376603546975899,-0.03430483260329775,0.3607634616553388,0.323459500854625,24.784071015024686,-3.344706067167626,-2.3359581630826565,5.481692962098103,4.641882918251167,6.3587789794496,-1.0011459817851456,-2.2260840576424363,0.23253585450198683,0.40103564700055705,-15.308614730438059,-10.267057418823242,-15.0,22.414562225341797,12.848278045654297,4.9941864013671875,-0.8974685668945312,3.8326168060302734,10.480087280273438,-13.455680847167969,-15.0,-10.267057418823242,-15.0,22.414562225341797,12.848278045654297,4.9941864013671875,-0.8974685668945312,3.8326168060302734,10.480087280273438,-13.455680847167969,-15.0
35,0.7,0.5178871456600008,-0.3393786593345796,0.7179502974645001,0.6502267575765643,0.0027489634785943734,-0.015544316266132988,0.7595761852263929,-0.020046591766391373,-0.024393174141082292,1.725858128617819,0.6442164934257334,-0.08950343077658915,0.07583920679923017,-1.8920960175266122,-1.785746387252327,-1.600115802857641,0.05877262392156514,-0.024408618973773916,0.3669345294068293,0.497034474394997,28.116196651672734,0.01397192813193377,-0.029379410326567393,0.3561733176734234,0.3709883560588926,24.842740110917624,1.9155959973331949,3.142598281897484,-6.299181332683787,-5.531399441952544,-1.6236653067141464,0.4179100225309534,1.9189417127505881,-0.44786920426844334,3.474283475443368,17.652870212416904,6.95094108581543,15.0,-28.014537811279297,-8.616146087646484,-3.2536745071411133,-2.6739559173583984,11.31129264831543,0.6979904174804688,7.866588592529297,15.0,6.95094108581543,15.0,-28.014537811279297,-8.616146087646484,-3.2536745071411133,-2.6739559173583984,11.31129264831543,0.6979904174804688,7.866588592529297,15.0
36,0.72,0.5318631022488808,-0.3395999082974335,0.719046204199751,0.6522106219837384,0.0010908379646447563,-0.009282511176345187,0.7579801775972645,-0.012650542126317417,-0.013762406322091305,1.7206104737103831,0.739927097638757,0.050990976003059726,0.062434910122397755,1.9005774146121424,2.145092672272351,0.5411045542200213,0.0445927601734752,-0.028875419347941963,0.3827855690520911,0.5150266684740339,28.06169184431044,0.0016364422645737293,-0.0454499870125683,0.3394038472304939,0.3617179098201153,24.848017812381258,-2.2126624784409663,-2.540658436524864,5.1230911912221275,4.146602843166999,-3.5920756980987885,-1.312278669815683,-2.623570535119901,-1.3443932098199278,-2.0924553439184215,-12.63834634756357,-6.322320938110352,-15.0,27.251056671142578,6.400447845458984,-0.8397302627563477,-0.7952184677124023,0.12087249755859375,-6.14143180847168,-13.626422882080078,-15.0,-6.322320938110352,-15.0,27.251056671142578,6.400447845458984,-0.8397302627563477,-0.7952184677124023,0.12087249755859375,-6.14143180847168,-13.626422882080078,-15.0
37,0.74,0.5454553267624409,-0.3391751468042918,0.7192223735398106,0.6639130219415144,0.006411422882382585,-0.008112924545165101,0.7477383054307394,-0.003620192994232211,-0.020362092507761116,1.6894559136361822,0.6452462299193918,-0.0009615096876339144,-0.05516743535067509,-0.4957283470997802,-2.04318700108347,-3.017291036420726,0.05242032772445304,-0.009755545289375306,0.36785968372379785,0.5115045503037428,28.124803017832367,-0.0030762266116915863,-0.03439981121061609,0.3501185740078386,0.40286288861194924,24.98491896237583,1.8783286708562672,3.3575772496185072,-4.411716148483787,-2.279965103954988,8.57384903388533,0.14053776263515433,2.861777372913936,1.610537116895816,4.357922786821848,22.993685384442706,5.565792083740234,15.0,-30.0,1.4759407043457031,5.049043655395508,-2.0133190155029297,15.0,16.086071014404297,5.348453521728516,15.0,5.565792083740234,15.0,-30.0,1.4759407043457031,5.049043655395508,-2.0133190155029297,15.0,16.086071014404297,5.348453521728516,15.0
38,0.76,0.5580416246004984,-0.3374049032556404,0.719554415107718,0.6688282564430851,-0.0012845760436973035,-0.0038359493625671906,0.7434059447839904,-0.007421763271735263,-0.003221265284050046,1.6763268676622056,0.6330855635494795,0.15662868359967577,0.04685218160683459,0.09776960817992895,2.7794097591813016,1.0562499485209085,0.047073226971960265,-0.01853829268540907,0.3516014784321386,0.49945180110279463,28.07684412342443,-0.01530157138865277,-0.05290081559343765,0.3172154011988578,0.38358462100687907,25.032732041589544,-1.439220291415289,-2.908816570477816,1.67493080009299,0.0866437588286907,-11.225629082552683,-1.3795530251143089,-3.05318960551205,-4.244873159432938,-3.165381777306471,-12.374720658392082,-3.6682300567626953,-15.0,25.999160766601562,-7.6368560791015625,-8.181255340576172,-1.641153335571289,-6.741252899169922,-26.622514724731445,-7.6239013671875,-15.0,-3.6682300567626953,-15.0,25.999160766601562,-7.6368560791015625,-8.181255340576172,-1.641153335571289,-6.741252899169922,-26.622514724731445,-7.6239013671875,-15.0
39,0.78,0.5709291817344088,-0.33464198202825995,0.7179459366544374,0.6779338306792029,0.001755325752339506,0.004276239741117278,0.7351083959701452,0.00866714226437574,0.0032173113312266256,1.6516902221295764,0.6336282626866294,0.12402022728252711,-0.1344544641364292,1.1335299057661237,-1.2354990312662881,-2.93274400141984,0.042343983367991264,-0.009050480731884997,0.3565462167298059,0.5018554444143695,28.17731521160918,-0.005858927371844632,-0.05047340899481793,0.3330505477857788,0.395135290988206,25.179395935946932,0.3998375783377785,2.6215942608871154,-0.9699324286678317,0.29744601633036877,18.10428391025865,1.708176892398218,1.5787148133114448,4.446266042497685,2.2469901946699533,22.199559272435835,0.4260263442993164,15.0,-21.20745849609375,9.703510284423828,12.14315414428711,1.5662155151367188,15.0,30.0,-2.1358890533447266,15.0,0.4260263442993164,15.0,-21.20745849609375,9.703510284423828,12.14315414428711,1.5662155151367188,15.0,30.0,-2.1358890533447266,15.0
40,0.8,0.5822663531722897,-0.33199472930458446,0.7155267166268877,0.6837516937825142,-0.003683050672599898,0.001971975851635798,0.7297027940871031,-0.0021587436959554108,0.008071836042934056,1.6357842909515476,0.515766842324182,0.06383296028578561,0.059314964502897916,-1.9384612238342067,0.30483663990876475,0.8731821156215835,0.05170934855065718,-0.0009990616190423032,0.3055953525104762,0.4374722419358481,28.146564864580537,-0.029913589743607947,-0.056210461951701866,0.33929303078024553,0.4454946977084725,25.209336776803514,0.8506939786120483,-0.30498018744189126,-3.505437795747133,-0.3826028650818225,-13.214251637233573,-3.00198511572986,-0.4670407867408487,-2.995496706993226,3.00047137322796,-14.87802393806722,3.530925750732422,-14.72779369354248,11.899543762207031,-21.586261749267578,-15.0,-8.007031440734863,-1.6907730102539062,-30.0,14.620651245117188,-15.0,3.530925750732422,-14.72779369354248,11.899543762207031,-21.586261749267578,-15.0,-8.007031440734863,-1.6907730102539062,-30.0,14.620651245117188,-15.0
41,0.82,0.595198891312761,-0.3308388841021977,0.7159449609675413,0.6815670043982404,0.016082291546728616,0.007964964019190765,0.7315356025255276,0.0335846374048841,-0.012672563526460665,1.64127587328719,0.7228357500282663,0.09583478357308339,0.004516412314553788,4.26018723505177,-1.3574787831509079,-0.3210667845764342,0.04009495442979292,0.023186014359547102,0.32947587292317404,0.4396568457385948,28.288618462901326,-0.019943011571945172,-0.025362078764841013,0.3806253310832244,0.4544916747628962,25.32106030209436,-1.3760578835434507,1.597095166425516,3.889435887766775,-0.6582177905505135,23.189756786442015,2.556289906269426,1.8130432818036821,5.878772572957529,-0.37393138120242886,22.205599817567858,-5.5786590576171875,3.387521743774414,11.425071716308594,-2.8741016387939453,15.0,8.368070602416992,14.43345832824707,27.157222747802734,-14.41458797454834,15.0,-5.5786590576171875,3.387521743774414,11.425071716308594,-2.8741016387939453,15.0,8.368070602416992,14.43345832824707,27.157222747802734,-14.41458797454834,15.0
42,0.84,0.6058866887253445,-0.32919771885376203,0.7158778328488438,0.6793951332329858,0.012210009410489199,0.006649499797078472,0.7336408881475842,0.026351620432879568,-0.008880365413725238,1.6474206408982768,0.4145431376437399,0.07361253429350109,-0.03206847688697923,-3.368464313707916,1.2856372614062368,0.7973679789807866,0.07477230218882985,0.012803121396943557,0.30000724845562016,0.4266147293770041,28.344592146779842,-0.04803517017204422,-0.03685117876814882,0.3780364665398677,0.5053420222101984,25.347415427240268,3.724798603945957,-2.1160907528748027,-4.711693602463161,-0.42475972939680645,-13.613318440302962,-3.848781094401423,-2.132494911048376,-4.264251495400803,4.670284861028614,-15.142283019614547,13.41756820678711,-12.635854721069336,-11.281341552734375,-0.26490020751953125,-15.0,-11.908285140991211,-7.853954315185547,-30.0,19.71255874633789,-15.0,13.41756820678711,-12.635854721069336,-11.281341552734375,-0.26490020751953125,-15.0,-11.908285140991211,-7.853954315185547,-30.0,19.71255874633789,-15.0
43,0.86,0.6172258645331863,-0.32752660306626286,0.7171491850740558,0.6749544095931866,0.011098312411422352,0.00419915559016104,0.7377640134383482,0.02118047926472506,-0.010707598457736087,1.6595446073932576,0.6454588947078831,0.1570610300428595,0.2135710899909042,1.8311259729818352,0.06863729918649618,0.06872385263951297,0.06112540931035137,0.012824101897282104,0.27470032281669604,0.40689597179514203,28.454109312638852,-0.013358824470865949,-0.027807281487444702,0.3356145583465939,0.4592107813005392,25.45604949600108,-3.296913419960923,-0.11291398158473981,0.6988215911713798,-2.8945312220664268,20.080133733594877,4.956511428669826,0.4448845370669448,0.4776520082633663,-4.091172458040128,22.485087175810335,-12.3681058883667,0.021261215209960938,6.968940734863281,-9.519645690917969,13.925943374633789,15.0,14.038528442382812,16.166053771972656,-27.707813262939453,15.0,-12.3681058883667,0.021261215209960938,6.968940734863281,-9.519645690917969,13.925943374633789,15.0,14.038528442382812,16.166053771972656,-27.707813262939453,15.0
44,0.88,0.6266064178723426,-0.32462575175668695,0.7191604399113517,0.6674421201365021,0.000861012911324698,0.0025884221721013774,0.7446566826364451,0.005004357003963772,0.002172927638156996,1.6800543791198599,0.35929248703535516,0.13481722237537275,0.00747429050227259,-2.637912173107688,1.0600238819109553,1.7101127854166371,0.08804156529597693,-0.0012610694021820217,0.2843229190568448,0.4603614374222014,28.58958164384286,-0.028152611397359455,-0.03800344029588325,0.3170678677775298,0.5160723320158207,25.486405988816944,4.115380332787811,-1.2310989457146413,0.11690666338700381,5.834528811796146,-3.9191773860427537,-4.184537097416143,-1.0433004007648494,-2.4403349878169402,7.039433510722458,-14.959760132863474,14.647926330566406,-8.303367614746094,1.1775226593017578,14.249549865722656,-9.644227981567383,-15.0,0.6110467910766602,-19.998043060302734,25.28204345703125,-15.0,14.647926330566406,-8.303367614746094,1.1775226593017578,14.249549865722656,-9.644227981567383,-15.0,0.6110467910766602,-19.998043060302734,25.28204345703125,-15.0
45,0.9,0.6379183189126577,-0.32186880675286367,0.7175783825967947,0.6632527635222797,0.004020315470747464,0.012241583519301418,0.7482845397150161,0.02365678839154442,0.010222026390414965,1.6912529109308474,0.6991916965576469,0.1381075610550656,-0.16639952569415983,3.4286919769026265,-0.05115093306619603,-0.32014508445934864,0.07613816299044797,-0.021374208409202528,0.2889296167052487,0.40582657993322396,28.78965530812868,-0.02146481168270377,-0.033459799236439276,0.32201855352797587,0.49191205977321595,25.593620073741818,-3.418403143101263,-0.8617666100906877,0.6358559045839763,-7.645429274042526,21.181844645045285,2.983366714423613,1.0680073450536063,2.5388917027935447,-6.160007241727652,21.689873005973425,-13.088358879089355,-2.296571731567383,1.0857505798339844,-20.863872528076172,10.40048599243164,10.927719116210938,7.239032745361328,24.866931915283203,-27.052183151245117,15.0,-13.088358879089355,-2.296571731567383,1.0857505798339844,-20.863872528076172,10.40048599243164,10.927719116210938,7.239032745361328,24.866931915283203,-27.052183151245117,15.0
46,0.92,0.6464847634580628,-0.3206975981659466,0.7173955264499661,0.6553128569583697,0.003162539319621337,-0.009826561075263862,0.7552870292461957,-0.010700715129415422,-0.017657110968907628,1.7124012104884345,0.28445020681834193,0.05488933152062231,-0.0830973031828462,-4.754448400230029,-1.4770161503698958,1.9466097084372127,0.09174224787759883,0.013316693366956676,0.27493611542036983,0.45921008188913315,28.796393680776823,-0.04458341328684912,0.017203338622643415,0.27259133868638863,0.5071497700773575,25.61768404143123,3.386153610078592,2.088418043382002,-2.5035400914678902,6.907186317625274,-16.081318556051276,-3.550364441964208,2.8093532716647127,-5.613374057430524,4.949869004344024,-15.26091456566996,12.703380584716797,4.579866409301758,-9.070882797241211,20.106224060058594,-15.0,-12.78411865234375,4.758083343505859,-30.0,23.407146453857422,-15.0,12.703380584716797,4.579866409301758,-9.070882797241211,20.106224060058594,-15.0,-12.78411865234375,4.758083343505859,-30.0,23.407146453857422,-15.0
47,0.94,0.6564485937237352,-0.31945367712677436,0.714757877178431,0.6541534845344038,-4.231712311082432e-05,-0.00791706131057814,0.7563203931013374,-0.012031961423180885,-0.010294117689156562,1.7154746010112911,0.6219466054762922,0.11699403203294459,-0.02990762729413928,2.9228708190715484,2.299831109522235,-1.1112407643050752,0.0653158795762729,-0.009197876742640464,0.3037804362346163,0.5258738853520352,28.74640233711308,-0.06326756645645917,0.01736644488797355,0.25826210223795926,0.4796994608871851,25.72198025513989,-4.087145070695112,-3.9533467964437454,3.8612802799364347,1.049343918032847,8.420720415516481,0.7017117465850682,-2.778330970090619,3.010516901995892,-3.1791065767632616,22.217713915931235,-13.599352836608887,-15.0,10.726299285888672,-4.059778213500977,9.941665649414062,8.060983657836914,-6.84419059753418,30.0,-30.0,14.719367980957031,-13.599352836608887,-15.0,10.726299285888672,-4.059778213500977,9.941665649414062,8.060983657836914,-6.84419059753418,30.0,-30.0,14.719367980957031
48,0.96,0.6650229276903717,-0.31657474837286487,0.7138213477285523,0.6607175368156425,-0.014501954981797228,-0.019934902369961708,0.750229717828796,-0.0490951399453362,-0.004583100037667863,1.6976214302152342,0.30731827964476016,0.16283821167078313,-0.09705400896227587,-4.928444706925833,-1.130858054053474,-0.5727181573166972,0.09017755558612028,-0.020530028807597016,0.22592888228361707,0.4825080944148126,28.83364053756822,-0.04014914270478822,0.02572186334539317,0.23476156732300849,0.5257643752736108,26.03880470341849,4.374384246629675,1.6917327334608205,-8.501515524185036,-3.62172741294402,1.0866218816094704,1.213873225936607,2.664341722300848,-4.2833588429449865,5.771378955919531,11.394459471341008,14.48121452331543,15.0,-25.448383331298828,-4.06226921081543,-2.918257713317871,-0.9610004425048828,12.065860748291016,-23.747337341308594,20.987091064453125,-3.650836944580078,14.48121452331543,15.0,-25.448383331298828,-4.06226921081543,-2.918257713317871,-0.9610004425048828,12.065860748291016,-23.747337341308594,20.987091064453125,-3.650836944580078
49,0.98,0.675654824520931,-0.31420126047877156,0.7118272479192252,0.6646027173247182,-0.0067419069197105054,-0.01220589053084222,0.7470667915601885,-0.027202479518693617,-0.006150865269675219,1.6875793527518756,0.6767069441081157,0.11232477857780847,0.07842469011038397,4.789361613819687,1.05741980036347,-0.48150631058139454,0.07542505371182973,-0.01657653835216889,0.2524861847077531,0.4805524122328309,29.055585334914213,-0.020579262561660608,0.03984873531341957,0.25601653673478536,0.49618083380500694,26.146813980096503,-3.820384145759297,-0.8805590735319462,7.299460068299374,1.7325475706289248,19.22446790273549,0.7801769915014074,-1.236747057458322,4.198761395646005,-2.054632083844012,4.028418039646623,-15.0,-15.0,30.0,-7.263101577758789,7.754112243652344,5.450628280639648,-4.595114707946777,30.0,-28.259889602661133,-5.10468864440918,-15.0,-15.0,30.0,-7.263101577758789,7.754112243652344,5.450628280639648,-4.595114707946777,30.0,-28.259889602661133,-5.10468864440918
50,1.0,0.6851614504953051,-0.3126135172914215,0.7137642519195135,0.6733638309760857,-0.00826926746616676,-0.011591401292852221,0.7391741403518182,-0.028276509430588917,-0.003385609888425748,1.6639570981343252,0.3516680161845944,0.055863277528804024,0.07704645709867375,-3.16602473607101,-0.5054483424313647,-1.5405392863593903,0.09948076739981107,-0.017676169692823367,0.23828496219102835,0.45903864134128397,29.252480895774674,-0.038017989120895185,0.03436119148337862,0.25178251613189156,0.511489590783876,26.592801842743114,4.253615701577544,0.635144342487233,-5.6350286399547755,-2.2928073849135315,2.324966126918228,-2.0656604480115983,0.39368122022754787,-3.345878305720679,2.8759026558376393,38.024299248843846,15.0,11.75594711303711,-26.326406478881836,-0.6471462249755859,-6.618293762207031,-8.101806640625,-3.179701805114746,-17.99700355529785,12.659854888916016,15.0,15.0,11.75594711303711,-26.326406478881836,-0.6471462249755859,-6.618293762207031,-8.101806640625,-3.179701805114746,-17.99700355529785,12.659854888916016,15.0
51,1.02,0.6960573516334537,-0.31174448410782146,0.714112390690489,0.6901071427607158,0.0015452343284937148,-0.00033074696459539903,0.7237054886954742,0.0016540344597113154,-0.0026930940705215903,1.6183138663241117,0.6759467666725489,0.06666821881975807,0.09447246022070654,4.452523761063789,0.9495977680762016,-2.7647122808875055,0.09561084974368098,-0.019855848619658112,0.25530159602918834,0.4583687581852306,29.370028159224884,-0.03856233413542304,0.028536044134129433,0.2745188624039612,0.45399712716285345,26.95508179716311,-2.88032398074001,-0.8767532677283248,4.824474334234567,0.9738862503391733,8.664343359708631,1.2201185248569426,-1.2257656697248007,3.830581529205744,-3.2557849704012063,5.094703379943267,-12.193090438842773,-13.46265983581543,16.814067840576172,-3.0074501037597656,2.5561580657958984,7.820045471191406,2.259542465209961,29.226917266845703,-27.333576202392578,-15.0,-12.193090438842773,-13.46265983581543,16.814067840576172,-3.0074501037597656,2.5561580657958984,7.820045471191406,2.259542465209961,29.226917266845703,-27.333576202392578,-15.0
52,1.04,0.7054407157322771,-0.30966191597349496,0.7157087474359903,0.701088444149185,-0.0010018329080472056,-0.00012132626462265294,0.7130736112711205,-0.0015777779692677438,0.0012586406673835814,1.5877451312879822,0.3459071500201187,0.13295441581836015,0.03179911100751,-3.136077977424672,-0.39088698051095583,-0.4464645677972481,0.11257643037163877,-0.007336647402681026,0.24780878013836907,0.475779809186719,29.605408872469873,-0.045195271874595384,0.028178440528959618,0.2579242442953082,0.47455718189578816,27.410869285399126,3.1011764708520486,1.8392313042022024,-3.5786784061783075,1.0996058488453955,14.426469952363895,-1.467794906692663,0.8627909885073866,-4.426286467606449,4.149203162024122,38.43915304239304,10.61998176574707,13.426429748535156,-11.031030654907227,3.5799713134765625,2.6846752166748047,-7.224788188934326,0.3664894104003906,-30.0,20.786510467529297,15.0,10.61998176574707,13.426429748535156,-11.031030654907227,3.5799713134765625,2.6846752166748047,-7.224788188934326,0.3664894104003906,-30.0,20.786510467529297,15.0
53,1.06,0.7155467358047193,-0.30879122373443973,0.7150601755103857,0.715397761810149,0.0033380385188337895,0.006029449756626407,0.6986834373530753,0.013201891061125775,0.0039624556380770054,1.547183747079683,0.5778735610928788,-0.0649218550586219,0.0432116509333099,2.9441879756941978,-0.14391939760507383,-3.041216048492977,0.09334630253718385,-0.0017624492734708084,0.255110636071742,0.4751401035128713,29.919695143413023,-0.06275665720456841,0.026409697704390427,0.25919440399512034,0.44355705271322693,27.766974593742514,-2.994380575267641,0.033447080134502705,3.255026646504274,0.4424335639899189,16.03218313881238,-0.40725454199798095,-0.19405694653926875,2.893482671768708,-5.043914629404612,1.1712054510555006,-12.043935775756836,-15.0,5.924003601074219,-6.298320770263672,1.725189208984375,3.0278587341308594,-0.6419792175292969,30.0,-23.48806381225586,-15.0,-12.043935775756836,-15.0,5.924003601074219,-6.298320770263672,1.725189208984375,3.0278587341308594,-0.6419792175292969,30.0,-23.48806381225586,-15.0
54,1.08,0.723831111897396,-0.30835867105451314,0.7158819140522097,0.7261954389998706,-0.0027338806021316017,-0.00021149521108972764,0.68748284745324,-0.00426150019435552,0.0034518251813751475,1.5160340542026587,0.30072351736513636,0.08663448388184647,0.024350888956105477,-3.483801429113213,0.02843349937391914,-0.30568886021234215,0.07573955771440902,0.008086444551372637,0.24741273992260104,0.49259997813221346,30.22154363162662,-0.0493913476036387,0.028617549976889603,0.24723505640627597,0.4273038994415572,28.120599110530968,0.3861122891138057,0.9306527678091576,-2.650681240338265,1.293798924342849,14.318645436184884,1.1578085892532224,0.2636759468107393,-3.1220498083841193,1.8680340951324816,31.167145462647785,4.158245086669922,9.406076431274414,-2.51190185546875,1.484109878540039,-0.40669822692871094,0.3966522216796875,-2.995513916015625,-30.0,19.423912048339844,15.0,4.158245086669922,9.406076431274414,-2.51190185546875,1.484109878540039,-0.40669822692871094,0.3966522216796875,-2.995513916015625,-30.0,19.423912048339844,15.0
55,1.1,0.7325566126440294,-0.30828504230363746,0.7139308428313539,0.7351717980882085,-0.0007776185806254918,0.006302733170580039,0.6778510884845393,0.007401724429045644,0.01032158582598852,1.4897469530368834,0.5179467989900579,-0.08081406854025162,-0.10717316492466937,3.0998028722385658,0.17038499824014688,-1.9968616831654065,0.045477516803895154,0.004388681134891461,0.2850982138345638,0.5152536603755961,30.475252536555654,-0.051593752034718006,0.0211017614501609,0.2984636424361481,0.41720303250359575,28.334032214510597,-2.4604387161240293,-0.33422978739318054,4.5812714139585005,2.4578696192998803,12.316361492535961,-0.6779826759287361,-0.43138283059617366,6.103680011234114,-2.1808039855117167,-5.839327822143073,-8.109598159790039,-15.0,13.552009582519531,-5.285932540893555,-1.5661754608154297,-0.4457731246948242,3.43280029296875,30.0,-13.353694915771484,-15.0,-8.109598159790039,-15.0,13.552009582519531,-5.285932540893555,-1.5661754608154297,-0.4457731246948242,3.43280029296875,30.0,-13.353694915771484,-15.0
