step,time_s,torso_x,torso_y,torso_z,quat_w,quat_x,quat_y,quat_z,roll_rad,pitch_rad,yaw_rad,body_vx,body_vy,body_vz,body_wx,body_wy,body_wz,l_hip_roll_pos,l_hip_yaw_pos,l_hip_pitch_pos,l_knee_pos,l_wheel_pos,r_hip_roll_pos,r_hip_yaw_pos,r_hip_pitch_pos,r_knee_pos,r_wheel_pos,l_hip_roll_vel,l_hip_yaw_vel,l_hip_pitch_vel,l_knee_vel,l_wheel_vel,r_hip_roll_vel,r_hip_yaw_vel,r_hip_pitch_vel,r_knee_vel,r_wheel_vel,l_hip_roll_torque,l_hip_yaw_torque,l_hip_pitch_torque,l_knee_torque,l_wheel_torque,r_hip_roll_torque,r_hip_yaw_torque,r_hip_pitch_torque,r_knee_torque,r_wheel_torque,l_hip_roll_ctrl,l_hip_yaw_ctrl,l_hip_pitch_ctrl,l_knee_ctrl,l_wheel_ctrl,r_hip_roll_ctrl,r_hip_yaw_ctrl,r_hip_pitch_ctrl,r_knee_ctrl,r_wheel_ctrl
0,0.0,-3.231342329545095e-05,0.0025764124546383033,0.7021820276398874,0.9999279030518199,-0.011047076809634276,-0.004626552324016285,-0.0008636005708121862,-0.022087314816352142,-0.009271650887808434,-0.0016249274146932385,-0.014496057598660036,-0.042140943740374914,-0.20102303928914056,1.102742595650864,-0.9361482814835087,-0.01738177798933912,-0.007114636139613284,0.008747831242462258,0.33147030657744286,0.6204144593363853,-0.1486371533948669,0.01782068682910497,0.017375961897626576,0.35874965218526483,0.6597364700627419,-0.08347489586688883,0.050206847970718504,1.0482852338104989,1.0930354473419388,1.521507941450373,-10.701597135847644,0.8993691790235723,1.5461722897897676,3.010812908399246,4.101031400690133,-4.763403984594668,-0.3385334014892578,0.03992176055908203,5.176586151123047,-0.9622325897216797,-5.499103546142578,2.019420623779297,6.010974884033203,6.085605621337891,8.976490020751953,-1.9739665985107422,-0.3385334014892578,0.03992176055908203,5.176586151123047,-0.9622325897216797,-5.499103546142578,2.019420623779297,6.010974884033203,6.085605621337891,8.976490020751953,-1.9739665985107422
1,0.02,-0.00039582838960030794,0.0023659177314248638,0.6980746062018243,0.9999261156140594,-0.010166289503964048,-0.006405613990371631,-0.0018379282104487738,-0.02031060323518425,-0.012848004721310254,-0.0035456422461148194,-0.0020184762151603383,0.014517851458918062,-0.16997116285226954,-0.6329096190643906,0.6302600409685327,-0.19716985194568792,-0.015831166669570757,0.011720828349666134,0.3315128266453129,0.6667121267610447,-0.4098285529915663,0.029615099054976394,0.025866421375695673,0.3729346638437584,0.6935872907017888,-0.19661398489547102,-0.6844061260782411,-0.7500814547660551,-0.8633165058047506,2.6983654166356343,-14.895434317764852,0.3914919990251362,-0.7416826816073254,-0.3743292048255433,1.6572880397134162,-6.073973017005543,-1.156041145324707,-6.628533363342285,-5.06468391418457,4.3757476806640625,-1.769439697265625,0.2877674102783203,-2.5428781509399414,-2.269754409790039,-3.660482406616211,-0.9144325256347656,-1.156041145324707,-6.628533363342285,-5.06468391418457,4.3757476806640625,-1.769439697265625,0.2877674102783203,-2.5428781509399414,-2.269754409790039,-3.660482406616211,-0.9144325256347656
2,0.04,-0.0013056311711623957,0.00260727709282206,0.6962480631536748,0.9998873984890724,-0.012990765115663312,-0.007178796399645633,-0.002212520444553109,-0.025952447015820196,-0.014413959887046222,-0.00423847948668488,-0.07763593189919889,0.013550581906386295,-0.02960803226708595,-0.07445776064192294,-0.5735584166770435,0.07246800849286536,-0.031856273310379796,0.011903595843774066,0.317618951456631,0.6821933580210787,-0.5519565523798392,0.021194251872958602,0.02634917158749743,0.3704980610672913,0.7193946422716405,-0.3075984548328132,-0.8783604692732802,0.5337688555936391,-0.45233699705443314,-0.4459395641170429,-1.0134244564568287,-0.8903989488862629,0.5655009398594575,0.03836439763762769,1.069375692355792,-5.17704750128706,-1.587660789489746,-2.1812143325805664,2.4276809692382812,-11.285360336303711,5.94792366027832,-2.2951202392578125,3.5047531127929688,1.190603256225586,-1.5377120971679688,0.1406688690185547,-1.587660789489746,-2.1812143325805664,2.4276809692382812,-11.285360336303711,5.94792366027832,-2.2951202392578125,3.5047531127929688,1.190603256225586,-1.5377120971679688,0.1406688690185547
3,0.06,-0.002402038389556491,0.0028972699231319078,0.6939184962081931,0.9998741062206146,-0.010738886118425132,-0.011497636946571625,-0.0020621297504913455,-0.02143497841926317,-0.02303870691877298,-0.003877835468219532,-0.036933687299348844,0.017606801739510382,-0.17780772197926184,0.36984005420506333,-0.3068540541485093,-0.022393616920693485,-0.039355902402536225,0.018871416735536828,0.3302393738329383,0.7022417874348966,-0.6196573785799702,0.020450109991696344,0.035091759940327746,0.3909471397070596,0.7531478762527273,-0.3505896492420598,-0.09594719948586958,0.17094140088708504,1.2067492412599365,1.7817905974437958,-5.271519080230314,0.4783287125664565,0.3146447827303982,1.6538348294797034,2.0876661237527507,0.2430682956346052,0.4917888641357422,-1.5399084091186523,3.8503646850585938,3.9578208923339844,-1.7925128936767578,1.9903202056884766,3.7690372467041016,2.5527915954589844,1.982900619506836,2.722705841064453,0.4917888641357422,-1.5399084091186523,3.8503646850585938,3.9578208923339844,-1.7925128936767578,1.9903202056884766,3.7690372467041016,2.5527915954589844,1.982900619506836,2.722705841064453
4,0.08,-0.0025687529142298217,0.003133843826783037,0.6910145962299896,0.9998827396868535,-0.012181082836305798,-0.009090963705910808,-0.0018661393692312957,-0.024331820733800073,-0.018226267691110215,-0.003510955886378974,0.008180712356198088,-0.0011540119625553197,-0.12312994552749551,-0.37053010646675255,0.5505036503724493,0.03856892236300024,-0.040172173512180935,0.011391802165743425,0.3259971605663125,0.7309063499931122,-0.8434906089827421,0.0349514781800122,0.02896658912492489,0.3880757131313313,0.7781870855561525,-0.4753659290513287,0.048287693485567766,-0.6230791881407767,-1.1378591216752727,1.6704358427335544,-15.526343040158624,0.8440255850953783,-0.6627762411035647,-1.292449828015076,0.7276451366959658,-11.389779632006501,0.18029403686523438,-3.2817001342773438,-2.1444625854492188,-1.4904365539550781,-5.342954635620117,1.6703777313232422,-0.04158306121826172,-3.245351791381836,-6.241189956665039,-5.844403266906738,0.18029403686523438,-3.2817001342773438,-2.1444625854492188,-1.4904365539550781,-5.342954635620117,1.6703777313232422,-0.04158306121826172,-3.245351791381836,-6.241189956665039,-5.844403266906738
5,0.1,-0.003045290790717393,0.0030697296934265768,0.6888271274721156,0.9999289453006562,-0.00963675950672822,-0.006940601405530562,-0.0010321183347245261,-0.019260874078028536,-0.013900556691340375,-0.001930507890235188,-0.04755454952575495,-4.017275418292596e-05,-0.08934784968739401,0.5824409578370173,-0.03414610908924101,0.0931987596351313,-0.03786347557943612,0.00483454759185829,0.3248428991324897,0.7540336545703891,-1.0341899565786405,0.019181902519681382,0.024092127091496596,0.38757722226343067,0.7947701557215748,-0.6348256448019988,0.14035162640083576,-0.09593862708424974,0.663802496114683,0.8176799800215503,-4.892996894662794,-1.7232139218415885,0.053729471750783846,0.742158292077445,0.8437939676522811,-5.296766767682107,0.04471397399902344,-3.9542980194091797,3.2497024536132812,-5.225929260253906,4.809993743896484,-4.597204208374023,3.345294952392578,4.055744171142578,-1.6218738555908203,2.587574005126953,0.04471397399902344,-3.9542980194091797,3.2497024536132812,-5.225929260253906,4.809993743896484,-4.597204208374023,3.345294952392578,4.055744171142578,-1.6218738555908203,2.587574005126953
6,0.12,-0.003690967182470634,0.0031779266735597173,0.6873365459516567,0.9999324182480022,-0.007310907377856416,-0.009032645241770798,0.00034769232286927746,-0.014630015370714504,-0.018059967437938796,0.0008275463639407284,-0.018389421068951358,0.009255374711274782,-0.06760511322886648,0.014477001330933749,-0.302788805848957,0.20252181106660172,-0.043100023041338836,0.008344421187864182,0.32368200718810464,0.7623245038422006,-1.1508027699161647,0.0050394077810813715,0.029002912328875013,0.39812137314845697,0.8124078201054122,-0.6862738060593739,-0.500392904267945,0.3246451104818619,-0.5293404291347528,0.15276883956931658,-6.5191290723522455,-0.12143696486272354,0.34731058626936695,0.4551825276550453,0.9336338295072987,-0.4063020015301607,-1.5091304779052734,-1.2152700424194336,0.6006431579589844,-3.171060562133789,-1.0406017303466797,1.1524906158447266,6.571186065673828,-1.6310977935791016,-1.8873138427734375,2.6754112243652344,-1.5091304779052734,-1.2152700424194336,0.6006431579589844,-3.171060562133789,-1.0406017303466797,1.1524906158447266,6.571186065673828,-1.6310977935791016,-1.8873138427734375,2.6754112243652344
7,0.14,-0.003472296356628595,0.0032669611190240433,0.6851064715957935,0.9999288803243945,-0.007965239958741254,-0.008651629702921966,0.00198457781048416,-0.015966746276589044,-0.0172712721748795,0.004107322081273435,0.03196185698844599,-0.002510871372077019,-0.14639687158874107,-0.0885301726979406,0.26081222377903585,0.12488143973907917,-0.04656496949577757,0.007011006916027078,0.3145490729929364,0.7798597474415607,-1.3511125396503898,0.014790742985191698,0.028218242461792227,0.39767824116827927,0.831893517362748,-0.7650983740745497,0.04386285748775059,-0.31684414293404944,-0.46536910539424114,1.4855652779617317,-12.621004964159123,0.8434240434211551,-0.28523046796002827,-0.3561110111206398,1.0248898312065744,-6.740882441435525,0.577174186706543,-1.7554101943969727,-0.7407112121582031,2.9299049377441406,-2.84918212890625,2.386049270629883,2.218423843383789,-0.320037841796875,-3.8004837036132812,-3.1218814849853516,0.577174186706543,-1.7554101943969727,-0.7407112121582031,2.9299049377441406,-2.84918212890625,2.386049270629883,2.218423843383789,-0.320037841796875,-3.8004837036132812,-3.1218814849853516
8,0.16,-0.003184778863104697,0.003176962796292579,0.6826091818848574,0.9999393414023546,-0.007093901751000848,-0.007878192046465485,0.0029873339036442133,-0.01423625085674704,-0.015713691289385948,0.0060868686843289855,-0.001656437020490279,-0.004533509979663468,-0.10123021298744646,0.1606232262712,-0.09533173576899848,0.060250260509328836,-0.03758715677762355,0.0042688542590411304,0.30590368310141314,0.7968169451374081,-1.5491696867571478,0.004256385695150516,0.02768739226121418,0.39735405272345997,0.8512591544002761,-0.8917420069939478,0.6791936450480527,0.027758155757130393,-0.3330342263179045,0.5273097822177559,-7.972554295627499,-1.3301839090035181,0.19615850412163915,0.1458489874470275,0.8954408983357519,-6.008499707150333,1.31488037109375,-3.9117860794067383,0.15293502807617188,-5.26930046081543,2.0530452728271484,-3.751495361328125,4.021913528442383,2.024097442626953,-2.8141841888427734,0.14018821716308594,1.31488037109375,-3.9117860794067383,0.15293502807617188,-5.26930046081543,2.0530452728271484,-3.751495361328125,4.021913528442383,2.024097442626953,-2.8141841888427734,0.14018821716308594
9,0.18,-0.0030366303055718562,0.0030190290243914046,0.6810729600946773,0.9999379344701599,-0.0040678702233525234,-0.009157066384794731,0.004871116362869712,-0.00822591201833897,-0.018274383068912634,0.009817924602256405,0.015570204145038027,-0.007692243143652792,-0.05570321480147526,0.35341813395239846,-0.14496281584495485,0.2876271493280637,-0.03267628303327981,0.0063600713661700736,0.3079332301211173,0.8054869936275114,-1.652535471030943,-0.01729657620410265,0.03242150753905381,0.4104908965356284,0.8659008653472182,-0.9178547763093496,-0.023198749067136648,0.1475010412732017,0.365261762498739,0.33783713705664453,-2.9158569842688338,-0.9150934382758508,0.24786265827297643,1.0127960559525153,0.6133103604136874,2.419922530246588,-1.046743392944336,-3.1051206588745117,3.2110023498535156,-3.6344356536865234,2.291463851928711,-0.7600479125976562,5.7202606201171875,1.3235588073730469,-3.7048091888427734,4.253986358642578,-1.046743392944336,-3.1051206588745117,3.2110023498535156,-3.6344356536865234,2.291463851928711,-0.7600479125976562,5.7202606201171875,1.3235588073730469,-3.7048091888427734,4.253986358642578
10,0.2,-0.002199073752004687,0.002876047905031264,0.679456594975608,0.999893204233435,-0.006321671118392723,-0.010067533828872046,0.008500668483706932,-0.012816074284592544,-0.02002677912636539,0.01713108159575878,0.06115122334716856,-0.009684934985487621,-0.10859875683786847,-0.5378490286192669,-0.05389957476143869,0.4505138579401419,-0.032987648178459235,0.00926598535979385,0.29601589111904963,0.8131798749940932,-1.7756920270064878,-0.006593626539390655,0.035585224057014087,0.4065373336256974,0.8808408965717106,-0.950167358431964,-0.0012161623606088772,0.12605977762082268,-1.1642864928969834,0.39297846649402846,-8.761270811662039,1.35899544386687,0.09108121209998882,-0.9698405257301385,0.8843129866783894,-4.79056187026696,0.049567222595214844,-0.9037885665893555,-1.265157699584961,-0.5921440124511719,-2.8811073303222656,4.151527404785156,4.17420768737793,-4.450469970703125,-2.178689956665039,-3.0960617065429688,0.049567222595214844,-0.9037885665893555,-1.265157699584961,-0.5921440124511719,-2.8811073303222656,4.151527404785156,4.17420768737793,-4.450469970703125,-2.178689956665039,-3.0960617065429688
11,0.22,-0.0006842674554337958,0.002293869274462971,0.675923776364426,0.9999056772899115,-0.0033447684236220833,-0.0056968364443459475,0.01204139120374535,-0.006826591351011859,-0.011312288143117192,0.02412250273102707,0.08903010186575586,-0.04352484243779267,-0.22555913789931495,0.8393376640537555,0.7896002778448242,0.24125582227616252,-0.023640003518924254,-0.002962284959695291,0.30157766217969456,0.8455571491239477,-1.9622985954775172,-0.011620775221046032,0.028191741653634316,0.4112087797225639,0.8996151216593942,-1.0486615811711233,0.7208372948328676,-1.1736763870001599,1.0961300712839033,2.2003948752677607,-9.83598528277728,-1.1698582322089022,-0.7045168155877677,0.9819102640594539,0.9774023375584904,-5.093282885927183,1.518655776977539,-4.534432411193848,1.9799880981445312,4.916683197021484,-0.6445636749267578,-3.3434696197509766,1.8594799041748047,6.543849945068359,-5.782186508178711,-0.6175222396850586,1.518655776977539,-4.534432411193848,1.9799880981445312,4.916683197021484,-0.6445636749267578,-3.3434696197509766,1.8594799041748047,6.543849945068359,-5.782186508178711,-0.6175222396850586
12,0.24,0.00035470806187293323,0.0015691594409764304,0.6733844078211237,0.9998699890022246,-0.0034632898365157924,-0.008218196778208474,0.013433985183651834,-0.00714750063791423,-0.01634193244210203,0.026928250727268187,0.024019714827095612,-0.03486870712924313,-0.06528145777970629,-0.5163977090962983,-0.9474575969377155,0.08836571938854894,-0.016286411761165288,0.002444318594842472,0.28621231587555146,0.8513249493330606,-2.126839850950687,-0.024345462053526792,0.03730046689105316,0.4137416856039471,0.9225656889341504,-1.1288505661530848,0.13167451240295022,1.1183593946554313,-1.9456135613556471,-0.9953399939037242,-6.746721379185904,-0.35716096533465985,1.2230883277262319,-0.31988158652534254,1.2664971688863986,-3.1381146262229884,-0.8153791427612305,-0.5127830505371094,-2.3495140075683594,-12.943450927734375,1.6356925964355469,-0.051792144775390625,7.767354965209961,-2.8413562774658203,0.46797752380371094,1.2977237701416016,-0.8153791427612305,-0.5127830505371094,-2.3495140075683594,-12.943450927734375,1.6356925964355469,-0.051792144775390625,7.767354965209961,-2.8413562774658203,0.46797752380371094,1.2977237701416016
13,0.26,0.0014558850431907915,0.0008701075776950627,0.6707135609446119,0.9998021601909709,-0.005792653843851324,-0.010697461283272463,0.015736898074488984,-0.011922669451491629,-0.021209963218457795,0.03160387076139826,0.07962047553761828,-0.03433516505845958,-0.18274228884907667,-0.09266217491053341,0.2556630459649387,0.33093237409056653,-0.013886131555220671,0.00531306967634243,0.277028543836807,0.8775489797560672,-2.222659534567884,-0.023324650101603995,0.045087694563556595,0.41844541006163466,0.9473185259361906,-1.1321352630528012,0.1114459641785761,-0.5512737431735761,0.32738427620300276,2.597963147805423,-3.083135535014332,0.3140917827216524,-0.19173664797604756,0.5999728135153477,1.247802761997057,2.1852571468296746,0.09380531311035156,-4.011852264404297,2.5714492797851562,6.50634765625,1.4914665222167969,1.4557838439941406,0.8319978713989258,1.2182693481445312,-2.2643890380859375,2.781667709350586,0.09380531311035156,-4.011852264404297,2.5714492797851562,6.50634765625,1.4914665222167969,1.4557838439941406,0.8319978713989258,1.2182693481445312,-2.2643890380859375,2.781667709350586
14,0.28,0.002909613486556971,-0.0004001879636373961,0.6672757526352845,0.9996762942421414,-0.006281314776435373,-0.012818399633939992,0.02106039994406399,-0.013103074495546927,-0.025366646830476916,0.042294409051687916,0.045666507946296134,-0.09044505535895919,-0.11880206924260889,-0.1217599038035084,-0.8343286389677056,0.5572916609028971,-0.008207640636563008,0.006035348589226441,0.26570753250142276,0.874064009888883,-2.3291294865689705,-0.008392332597777268,0.051082088378774745,0.41704420868233916,0.974561879216096,-1.2124398542825419,0.4846615365641906,0.8836671476731814,-0.923068828433271,-0.00712561582410573,-7.174044645406089,1.0373597721264551,0.951640722079233,-0.795482915287089,1.2820551867100387,-8.834428882137797,0.41173839569091797,-0.1905803680419922,2.4659805297851562,-12.875101089477539,-1.7819204330444336,2.32489013671875,3.735828399658203,-2.575735092163086,-0.9465160369873047,-5.110856056213379,0.41173839569091797,-0.1905803680419922,2.4659805297851562,-12.875101089477539,-1.7819204330444336,2.32489013671875,3.735828399658203,-2.575735092163086,-0.9465160369873047,-5.110856056213379
15,0.3,0.004074247589738313,-0.00204281746362334,0.663268935754972,0.999588774428476,-0.004450801531074441,-0.011340273362132681,0.02595901774684874,-0.009489239086121632,-0.02244202678498027,0.05203420675882718,0.07264191290497524,-0.07540290625465579,-0.257786977680897,0.32915348001151934,0.8637635726407729,0.39535534633795005,-0.001187636878076423,-0.005663990657664248,0.2745901540127919,0.926176218767627,-2.4156021919959154,-0.01563216874787698,0.04972286353365678,0.42315944124812166,0.9991510178456001,-1.2699081634902916,0.2711279472135415,-1.6575421478680556,1.0430813971162867,4.074124204630946,-1.8010307999178885,-1.1485810143744648,-0.8100624203160172,1.1054221969974123,1.2374837121980968,1.6935262632649424,0.11153316497802734,-7.3462443351745605,0.294158935546875,10.318897247314453,2.263315200805664,-3.430718421936035,-1.387918472290039,5.263160705566406,-2.835803985595703,4.883333206176758,0.11153316497802734,-7.3462443351745605,0.294158935546875,10.318897247314453,2.263315200805664,-3.430718421936035,-1.387918472290039,5.263160705566406,-2.835803985595703,4.883333206176758
16,0.32,0.005641830348833423,-0.003780455449494349,0.6582768079708214,0.9994068821957749,-0.005057906073672304,-0.008839272876100292,0.032896332027950385,-0.010693182178379708,-0.017336155538425886,0.06590064279910897,0.06356627261596043,-0.09178501602552736,-0.18608390978934636,-0.5601377167751214,-0.49028077277269205,0.8437599774487619,-0.003004064392199819,-0.023618626361373875,0.26032004604271125,0.9212358878284431,-2.463387513265501,-0.022738611355965034,0.04688460946165499,0.4296693038675673,1.0297627493356987,-1.2866311702791402,-0.11584801594555619,0.30968664454874506,-1.2278238172220324,-0.3787862191210758,-3.7732449214768766,0.13841250347213604,0.6366729447473021,-0.5604459100255353,1.6119711820880214,-2.7205176567173397,-1.22998046875,-0.2948780059814453,0.8341712951660156,-12.379682540893555,-0.45307350158691406,1.521341323852539,7.426347732543945,-4.665563583374023,-0.12618064880371094,-1.400186538696289,-1.22998046875,-0.2948780059814453,0.8341712951660156,-12.379682540893555,-0.45307350158691406,1.521341323852539,7.426347732543945,-4.665563583374023,-0.12618064880371094,-1.400186538696289
17,0.34,0.0070497001425790075,-0.005699217540857188,0.6529821663469729,0.9992248260537971,-0.005200369577847029,-0.010905570963000237,0.03746694110792563,-0.011212677304259754,-0.02140618538556783,0.07507691483254819,0.08609567887701336,-0.10238643184062474,-0.338596385503056,0.37726361524610424,0.1334137042200057,0.16973696774968905,-0.004360941444921267,-0.021991039364869788,0.27820135424902354,0.9868222083873568,-2.491082804739766,-0.02287517321567595,0.05371974114615751,0.44787751423386035,1.0704217931637598,-1.261185940789467,-0.1024426516585206,-0.3668550740864904,1.7643596256074372,4.874464967094258,1.4249320700248118,-0.06843755282695789,-0.005268988797846208,2.0348632487987794,2.4217712875144164,4.290704305895297,-0.5475864410400391,-2.727304458618164,1.4502849578857422,12.240409851074219,2.6285934448242188,0.40650272369384766,1.5880813598632812,9.073646545410156,-1.7734107971191406,3.0577392578125,-0.5475864410400391,-2.727304458618164,1.4502849578857422,12.240409851074219,2.6285934448242188,0.40650272369384766,1.5880813598632812,9.073646545410156,-1.7734107971191406,3.0577392578125
18,0.36,0.00906270546860048,-0.008095005790685937,0.6468734318257989,0.9989538200378585,-0.005922111474478235,-0.011071890895025896,0.043972801360194054,-0.012808894398001005,-0.021601471666395422,0.08811926241341175,0.09446289923752751,-0.1444045046405793,-0.24643784130219984,-0.44586177544181244,-0.3659586900388717,0.8599480866557145,-0.0008915551395504565,-0.02842205839671441,0.27573590488381355,0.990219842488809,-2.5814455864410135,-0.01071985729188099,0.05556368346186924,0.45371740799860644,1.1097373960566275,-1.2912363106327749,0.5367212287389278,0.1590149360780156,-1.1231575504672002,0.11669723974317758,-8.816977693632007,1.0393396934859616,0.39660716581461664,-1.069696007817102,1.595652730121857,-6.018112735792524,0.8266658782958984,-1.702448844909668,2.728008270263672,-13.808847427368164,-4.589361190795898,2.667236328125,4.213031768798828,-6.946100234985352,-2.1514244079589844,-4.259472846984863,0.8266658782958984,-1.702448844909668,2.728008270263672,-13.808847427368164,-4.589361190795898,2.667236328125,4.213031768798828,-6.946100234985352,-2.1514244079589844,-4.259472846984863
19,0.38,0.011148202641482828,-0.0110953099567416,0.6412838822431867,0.9986365164989736,-0.006063389305646817,-0.007263062099085836,0.05133800886155502,-0.01285757973229984,-0.013884199473876662,0.10281503655355106,0.12266470640430376,-0.1558571966779853,-0.32074515238605183,0.3542685646872443,1.0266150995065875,0.638406043458643,0.006280110146846511,-0.044122128907506296,0.2850722288937009,1.0452409028014533,-2.650959639440875,-0.021958682870849584,0.05006790647105049,0.4553844979242703,1.136966165003096,-1.3198053245170072,0.1857278481597668,-1.710756107022499,1.1087688138825136,3.644183643023487,1.5056608850144135,-1.4991427631176082,-0.8818241244714228,1.006420761480261,1.3224299321641044,2.0562826214409564,-0.34996986389160156,-6.306547164916992,0.4241676330566406,8.439281463623047,4.630092620849609,-4.109428405761719,-0.7673377990722656,7.1502685546875,-6.294700622558594,3.6390647888183594,-0.34996986389160156,-6.306547164916992,0.4241676330566406,8.439281463623047,4.630092620849609,-4.109428405761719,-0.7673377990722656,7.1502685546875,-6.294700622558594,3.6390647888183594
20,0.4,0.013468943913319587,-0.014399773639035732,0.6350354309648951,0.9982639888881775,-0.006782191641998186,-0.006321116782830385,0.05816402537836107,-0.014277642933849886,-0.011831603417002817,0.1164832158824656,0.08719974687572109,-0.175197157334438,-0.2532069479459504,-0.5998449407963511,-0.8379127944403597,0.5697064044001651,0.011285067829458711,-0.054122501173977156,0.28015140179731546,1.0598852398999536,-2.6705449350621278,-0.034367670466395106,0.052964397587867786,0.4655827251824851,1.1738055215246501,-1.3014695167890713,0.4065128120327009,0.8344331291170615,-0.7267773263855345,1.1929687061451386,-3.9618567315573925,-0.052176463541438026,1.1518144499487288,-0.15592495006977247,2.019333021446668,0.17558532850560524,0.01963520050048828,0.7951087951660156,1.2491226196289062,-10.390064239501953,-1.5168638229370117,1.5759296417236328,8.883899688720703,-3.0397396087646484,1.1998348236083984,-0.22057723999023438,0.01963520050048828,0.7951087951660156,1.2491226196289062,-10.390064239501953,-1.5168638229370117,1.5759296417236328,8.883899688720703,-3.0397396087646484,1.1998348236083984,-0.22057723999023438
21,0.42,0.015930592306710175,-0.018508148804058957,0.6290814601535346,0.9979455330270778,-0.004566425992202654,-0.005825662697830814,0.06363900155637184,-0.00985632847573747,-0.011046407202255833,0.12742200461730024,0.1531496789207779,-0.22705572332717036,-0.329269919340864,0.7622697817454342,0.6606232782903836,0.5008724842704242,0.015469478602976044,-0.06041764770428757,0.2944004768581684,1.1053689013162176,-2.6964600861223316,-0.04030933663564996,0.0560047943463309,0.4830717899831292,1.2086667504222064,-1.2623999333705018,0.06816345228713372,-1.1254806493932343,1.5284440181743242,2.8292418031912754,0.917756230100893,-0.4124596276982338,-0.5499165495543052,1.5610850270122312,1.5731185567457135,3.3041529376514576,-0.5799636840820312,-4.312970161437988,3.099773406982422,5.717704772949219,2.0145339965820312,-0.06841754913330078,-0.8700323104858398,7.717124938964844,-8.333251953125,1.3953895568847656,-0.5799636840820312,-4.312970161437988,3.099773406982422,5.717704772949219,2.0145339965820312,-0.06841754913330078,-0.8700323104858398,7.717124938964844,-8.333251953125,1.3953895568847656
22,0.44,0.018498006952146658,-0.023031032014480278,0.6232365347006564,0.9976212377129245,-0.007593169576143169,-0.007418402335031781,0.06811150524483438,-0.01616300702450128,-0.013767581948109791,0.13644751896626217,0.09472150032172391,-0.23450913451437524,-0.2440537774416704,-1.0853602393620105,-0.8553109552501227,0.3154822858451526,0.020938612897498033,-0.06275901807249794,0.2825595762384493,1.1180717978847405,-2.7162926870791777,-0.034118480278687885,0.06331922763457462,0.4813164407392788,1.2423658718814614,-1.2523557034867407,0.5124186369096608,0.842386011961855,-1.8088130401317248,0.4320855327269421,-2.855498675889967,0.7164966270977439,1.1338319929526965,-1.2950902071342676,1.7125025588923706,-1.5512484590845064,0.49226951599121094,-0.7509956359863281,-2.0282230377197266,-11.875864028930664,-0.6701936721801758,2.0048751831054688,6.715301513671875,-6.0944976806640625,1.9955024719238281,-1.6978588104248047,0.49226951599121094,-0.7509956359863281,-2.0282230377197266,-11.875864028930664,-0.6701936721801758,2.0048751831054688,6.715301513671875,-6.0944976806640625,1.9955024719238281,-1.6978588104248047
23,0.46,0.021100340179371666,-0.028401339162716248,0.6169466509529887,0.9972114834428414,-0.004653739316733403,-0.006491360513361121,0.07419880213848905,-0.010245775694219732,-0.012256221570998354,0.14860164437903262,0.16060603715097185,-0.29065601717950573,-0.3588180219381289,1.1399124781427201,0.7344084649940932,0.7866515084011426,0.027342832107610845,-0.07192527683215665,0.3026957916367087,1.1642329813192565,-2.6875553040764233,-0.04201401670782605,0.06558423833042755,0.4986647169925995,1.2764301073513873,-1.1974530267534818,0.1594155827654158,-1.368528054263844,2.6371299392249274,3.2918795990843366,4.919430013286128,-0.9978569472489621,-0.6084322684894816,2.246940360852089,1.7024158084650067,6.046008246135648,-0.7980899810791016,-5.455728530883789,7.776336669921875,6.548820495605469,3.2301559448242188,-2.034473419189453,-0.7250833511352539,9.084709167480469,-7.161760330200195,3.714620590209961,-0.7980899810791016,-5.455728530883789,7.776336669921875,6.548820495605469,3.2301559448242188,-2.034473419189453,-0.7250833511352539,9.084709167480469,-7.161760330200195,3.714620590209961
24,0.48,0.024142432244109287,-0.034086121492783186,0.6102415198609229,0.9966832418070799,-0.006337446117411108,-0.005656349638367868,0.08093428189839795,-0.013549564147702284,-0.010249523943382192,0.16212110242688804,0.13593365599084803,-0.2887827797629993,-0.3076129576084717,-1.027501701544863,-0.46517604589399675,0.5400685720214358,0.029894462936715376,-0.08110520422636827,0.30322069198501544,1.1884234499715387,-2.6680169511719933,-0.0394690053120129,0.06718726558349229,0.5016349756677815,1.3109750560675257,-1.144828050198397,0.23090518094678844,0.39444495337180785,-1.502090731906901,0.9702257014119798,-2.3998115627625025,0.7708928906748141,0.673199330122305,-1.3005699701021753,1.6932160038236392,0.09354818758419436,-0.08978557586669922,-0.5552530288696289,-3.222982406616211,-7.849029541015625,-2.446579933166504,2.898996353149414,6.571723937988281,-6.315319061279297,0.38010406494140625,-2.120663642883301,-0.08978557586669922,-0.5552530288696289,-3.222982406616211,-7.849029541015625,-2.446579933166504,2.898996353149414,6.571723937988281,-6.315319061279297,0.38010406494140625,-2.120663642883301
25,0.5,0.027402590796937566,-0.040613998035902515,0.6024956547527808,0.9961160930228393,-0.0027091902866375043,-0.004094911199031965,0.08791257709326067,-0.00611754313123505,-0.007681745638583492,0.17607805107319222,0.18778270396561342,-0.3520575184219997,-0.44194559342009604,1.2514396056924821,0.5622729295176419,0.7864101678623628,0.0318073072838608,-0.08959296392769485,0.32481203426085864,1.2337019994844178,-2.62268919412503,-0.04605123176689485,0.06855995367912157,0.5201587401802946,1.3498851333268664,-1.0849032361510826,-0.03994405174473906,-1.035528934871058,2.5570769659450123,2.876270479089026,6.156156630897837,-0.9345263751120463,-0.3797195176950512,2.3511772837029343,2.1164264787501454,5.177427349251919,-1.123291015625,-4.238703727722168,7.159557342529297,5.179317474365234,3.6264286041259766,-1.809061050415039,0.6985960006713867,9.909988403320312,-5.7916717529296875,2.389751434326172,-1.123291015625,-4.238703727722168,7.159557342529297,5.179317474365234,3.6264286041259766,-1.809061050415039,0.6985960006713867,9.909988403320312,-5.7916717529296875,2.389751434326172
26,0.52,0.030891542810600355,-0.04737057190637042,0.5943323270813867,0.9955547636944886,-0.005580111992772759,-0.004626374857833997,0.09390511962100583,-0.011980180499389856,-0.008163707567951465,0.18814122231815364,0.16737958106589546,-0.3377935677119318,-0.40825396568423894,-1.1257065171291105,-0.40346993355629773,0.5243268050723537,0.03438517734939462,-0.0922496602651056,0.3260920667404911,1.2724526995079042,-2.608944964030063,-0.04268785497517859,0.07400288076958732,0.5211840043295068,1.390987048824116,-1.0256735614368513,0.2510800036775846,0.29977350296077676,-1.7037878154438517,1.2009901554174032,-2.6950605517512516,0.755235914527263,0.6652615286964741,-1.2633793186703544,2.0773407489808884,1.245544036175686,0.31125450134277344,-1.205831527709961,-3.7179908752441406,-5.340694427490234,-3.123119354248047,2.8349456787109375,6.692264556884766,-6.925371170043945,1.2010040283203125,-1.047943115234375,0.31125450134277344,-1.205831527709961,-3.7179908752441406,-5.340694427490234,-3.123119354248047,2.8349456787109375,6.692264556884766,-6.925371170043945,1.2010040283203125,-1.047943115234375
27,0.54,0.03467121736869284,-0.05478251229959209,0.5850050508925826,0.9948793448014622,-0.005980507194384449,-0.0036600419444965293,0.10082622136168651,-0.01263839234097506,-0.006076653776302222,0.20203906187193368,0.20406562259424088,-0.3928927931193003,-0.4973104939305985,0.5820116516966248,0.4287600148913797,0.7446100980649392,0.03866171916759019,-0.09850788865972493,0.340903510044143,1.3225281854823292,-2.5777082881488522,-0.046993824578628524,0.0768606075105225,0.5276560961811837,1.4343840199353335,-0.9726043558154213,0.15745348667715842,-0.6672701296432973,2.288559070496246,3.389702660285609,4.641156067236483,-0.7411164046430624,-0.18258862019163916,1.2344703788497018,2.2083374034075454,3.7329318781098526,-0.8696756362915039,-4.469104766845703,6.0096893310546875,4.047542572021484,3.9287681579589844,-1.3940114974975586,0.8798427581787109,7.683601379394531,-5.481098175048828,1.1467132568359375,-0.8696756362915039,-4.469104766845703,6.0096893310546875,4.047542572021484,3.9287681579589844,-1.3940114974975586,0.8798427581787109,7.683601379394531,-5.481098175048828,1.1467132568359375
28,0.56,0.0385049792898402,-0.06274830728813195,0.5754314218147267,0.9942466646410311,-0.010262424422579287,-0.0043375233459045206,0.10653374294738352,-0.02133300791265421,-0.006438591753741314,0.21355457224102772,0.18415181203969755,-0.40719295933007105,-0.47731991474427127,-1.0122312832591134,-0.3380676606324683,0.5145946243472559,0.044344401446523345,-0.10215682430343564,0.34211768831730477,1.3678717629800865,-2.547899909907715,-0.04999723522610738,0.08403051169660308,0.5239289310481091,1.4783818816806054,-0.9097330444919348,0.40105054921543415,0.09914798562652,-1.3453587266451572,1.5664785426115115,-0.790411756461599,0.14827848995693832,0.7122046422030645,-1.0136390872403858,2.2261083001518513,2.689668906934588,0.34059715270996094,-1.8764333724975586,-1.8916797637939453,-6.105371475219727,-2.0760717391967773,1.3087787628173828,6.037256240844727,-5.017660140991211,0.5816917419433594,0.31156349182128906,0.34059715270996094,-1.8764333724975586,-1.8916797637939453,-6.105371475219727,-2.0760717391967773,1.3087787628173828,6.037256240844727,-5.017660140991211,0.5816917419433594,0.31156349182128906
29,0.58,0.04248733815561372,-0.07145810585511059,0.5645099658493143,0.9935068248843199,-0.011091449061276449,-0.004465786173376754,0.11314250050203112,-0.023051909382852755,-0.0063637924747170374,0.22686022487123692,0.20894889978900658,-0.45441531814477415,-0.5867728260411994,0.4102774399290235,0.20224774175475219,0.7104914081994793,0.05107167625483239,-0.10853240434484601,0.3605645389469595,1.4238406239671717,-2.4681577431313984,-0.057746589577784294,0.09077343009325048,0.5335229461971465,1.5287745096286522,-0.8225571687096646,0.2660787657016314,-0.542282868505463,2.3691178388486214,3.653047193874464,7.489536810627711,-0.6567817987652468,0.11022218867509215,1.3246690665939085,2.697792584025737,5.6638971882796305,-0.9038867950439453,-4.373907089233398,6.408733367919922,3.933765411376953,4.448879241943359,-0.5136785507202148,1.9534549713134766,6.675060272216797,-2.580110549926758,1.5428333282470703,-0.9038867950439453,-4.373907089233398,6.408733367919922,3.933765411376953,4.448879241943359,-0.5136785507202148,1.9534549713134766,6.675060272216797,-2.580110549926758,1.5428333282470703
30,0.6,0.046680344082081916,-0.08068369838684691,0.5525809746178267,0.9926590395107473,-0.015032482817401558,-0.005049784118350094,0.11990227445008365,-0.03106085546238272,-0.006420614058552487,0.240512992867527,0.21171062739300364,-0.4713134261768128,-0.6159707228971293,-0.8304513709106635,-0.17551819534148685,0.7168289764825131,0.05842137212997548,-0.11560217332965715,0.370924949237709,1.4811795184942682,-2.39789081464187,-0.05875009039673249,0.09768217258323941,0.532746024087639,1.5811807095294272,-0.7313203644684109,0.4587654332867773,-0.27611689302198145,-0.6665455115955631,2.3738955077455066,0.58299127076793,0.2606747845933412,0.4905750466787775,-0.8362130988826549,2.6050675502982665,3.701261337429618,0.3197517395019531,-2.4355621337890625,-0.28916358947753906,-2.7964344024658203,-3.0374345779418945,1.8081245422363281,4.994474411010742,-4.517856597900391,0.555908203125,-0.10224437713623047,0.3197517395019531,-2.4355621337890625,-0.28916358947753906,-2.7964344024658203,-3.0374345779418945,1.8081245422363281,4.994474411010742,-4.517856597900391,0.555908203125,-0.10224437713623047
31,0.62,0.05105376060465099,-0.09072648446607005,0.5388595554890011,0.991796467906699,-0.015708819003226973,-0.004588995213344507,0.12677515677865062,-0.032329498697703796,-0.005119744870036718,0.25435145091263806,0.22290007604564385,-0.5246344524376784,-0.7321415469888402,0.368150424495266,0.18735759546943895,0.6163802146981731,0.06874199855308694,-0.12701612719815825,0.39091387743144185,1.5459858910742692,-2.3186034806617917,-0.06392576296254107,0.10311736314056086,0.5395509678470976,1.6389172530495193,-0.6511348405988715,0.5277661951187148,-0.7274201005565262,2.065794035349248,3.862881248318878,6.395613693834927,-0.5267031729005431,0.1550920195249065,0.995498008220776,3.0539257910849065,4.245921782954814,-0.32203197479248047,-4.364833831787109,4.9968109130859375,3.079784393310547,3.3639755249023438,-0.43568897247314453,1.7027320861816406,6.2606353759765625,-1.1311492919921875,0.20034313201904297,-0.32203197479248047,-4.364833831787109,4.9968109130859375,3.079784393310547,3.3639755249023438,-0.43568897247314453,1.7027320861816406,6.2606353759765625,-1.1311492919921875,0.20034313201904297
32,0.64,0.055524928008915446,-0.10136946292505084,0.5237138346224633,0.9909636170543943,-0.01794639591922175,-0.004530328395323569,0.13284770480746547,-0.036780756665493734,-0.004210518652274829,0.26660657777905694,0.22555584730747225,-0.5410333912764933,-0.7829921689530049,-0.5699971165207448,-0.08166435022811298,0.6580297668175088,0.07958288955622149,-0.1394055276986072,0.40656120988888755,1.6136045447275065,-2.238393363893846,-0.06941819248020097,0.11141162327766498,0.5438493222251681,1.700900246635958,-0.5500957598380491,0.5653545200858495,-0.6003542897566188,-0.06928885783930813,3.0861860024628327,2.283882072087481,-0.16954797836414892,0.5584773597461352,-0.19654594752561858,3.2334755050819926,5.6026010092075245,0.17104244232177734,-3.2931604385375977,0.6946887969970703,-1.0676841735839844,-1.6114683151245117,0.7520303726196289,4.908348083496094,-2.2853851318359375,1.3976669311523438,1.4777336120605469,0.17104244232177734,-3.2931604385375977,0.6946887969970703,-1.0676841735839844,-1.6114683151245117,0.7520303726196289,4.908348083496094,-2.2853851318359375,1.3976669311523438,1.4777336120605469
33,0.66,0.06024551651805688,-0.11256960917807485,0.5067682334403097,0.9899258027084525,-0.021084541876705606,-0.004237577753309537,0.1399442394693682,-0.042943644114334045,-0.0024884573312389424,0.28092903193953966,0.24382734896261682,-0.5752845333224038,-0.8946741598272662,-0.1693310022249151,0.1444026084273298,0.7274683700451312,0.09030469615828637,-0.15653038851396325,0.4202965175234794,1.6855480711448445,-2.1500752313690663,-0.07530207624735681,0.11914007735181385,0.5458928766126527,1.7679583546931326,-0.44095838045933533,0.5147564358230631,-1.0024785257333744,1.1887741344394673,4.008034646369661,5.9493805158878965,-0.34929917986148407,0.30523848820052507,0.2197627450990734,3.4478373506415325,5.3839839745613975,-0.24202632904052734,-4.248680114746094,3.4571151733398438,3.5475997924804688,2.142791748046875,0.5325422286987305,2.970579147338867,2.2773475646972656,-0.055789947509765625,0.2517108917236328,-0.24202632904052734,-4.248680114746094,3.4571151733398438,3.5475997924804688,2.142791748046875,0.5325422286987305,2.970579147338867,2.2773475646972656,-0.055789947509765625,0.2517108917236328
34,0.68,0.06517773003078171,-0.12446538838901983,0.4877847535072434,0.98897772024969,-0.022989168978337807,-0.0047172677321913456,0.14619273013578332,-0.04686812849147192,-0.0026088495815337594,0.29357967031904475,0.24975187449773337,-0.6119618287095117,-0.9945954091888224,-0.1869119222398949,-0.15773576597870068,0.5852610701579957,0.10400083054578688,-0.17388060614156814,0.43793323724042066,1.7634731424414951,-2.052835514862993,-0.07983023764968147,0.13044151789007938,0.5506042076521056,1.8416320095181313,-0.32672771938834183,0.7853154261812061,-0.8111398045828243,0.6507084012447654,3.8312399133871855,4.090363214614792,-0.16091941545852292,0.7442635938674946,0.25886940423231164,3.8570241333941335,5.943038169241639,0.6019983291625977,-2.825410842895508,2.6246376037597656,1.001260757446289,-0.5795402526855469,0.971282958984375,4.3646392822265625,0.7507896423339844,2.270366668701172,0.7626876831054688,0.6019983291625977,-2.825410842895508,2.6246376037597656,1.001260757446289,-0.5795402526855469,0.971282958984375,4.3646392822265625,0.7507896423339844,2.270366668701172,0.7626876831054688
35,0.7,0.07038848966003196,-0.13710980727398125,0.46662733977562787,0.9879819963656042,-0.0235118496046071,-0.004930878789661948,0.15269071425586825,-0.047982934816502246,-0.002563159528253699,0.3067313984396253,0.26932713746101455,-0.6493231653505879,-1.1077694945524357,0.03394527493702651,0.05441563433751691,0.6903072925261904,0.11821679610652416,-0.19566555332986482,0.45603136886717127,1.8452499780122498,-1.9601060627798712,-0.08347936799682584,0.1422973325135498,0.5559238174367976,1.920456539163159,-0.20844383058432553,0.6716896993596057,-1.268096418916178,1.0665598821813835,4.327302090538393,5.005423195348965,-0.19077984420303423,0.511429676977196,0.23854965321669186,4.005375791409231,5.911049432148581,-0.023331642150878906,-4.090667724609375,3.2491722106933594,3.404693603515625,0.7003421783447266,0.7940120697021484,2.739419937133789,1.564596176147461,1.1414871215820312,0.4272727966308594,-0.023331642150878906,-4.090667724609375,3.2491722106933594,3.404693603515625,0.7003421783447266,0.7940120697021484,2.739419937133789,1.564596176147461,1.1414871215820312,0.4272727966308594
36,0.72,0.07588584866775053,-0.150486306194545,0.4433052097758543,0.9869950006826337,-0.023608480137352002,-0.004688629720634634,0.15893874620253834,-0.04811194641441674,-0.0017507046173886884,0.31936671373297554,0.2798267976506493,-0.686069154562647,-1.2140638942012851,-0.011280336347728799,-0.023264159812653534,0.5888611560996407,0.13179799760460437,-0.22237418369565187,0.4731824032774382,1.9316432030878057,-1.8577772177777874,-0.08629464282657134,0.15499493668516526,0.5575760336442095,2.002982253994861,-0.08688756555947832,0.6873442701531124,-1.3979039332603065,0.71786830182879,4.352465356776849,5.210899814790924,-0.11321655348489315,0.7369335218512162,-0.023743955095745586,4.2195577301512275,6.216069500276834,0.32083892822265625,-3.5683460235595703,2.2339019775390625,2.4437522888183594,0.4877204895019531,0.8378276824951172,3.3634872436523438,0.6859378814697266,2.2546615600585938,0.6054410934448242,0.32083892822265625,-3.5683460235595703,2.2339019775390625,2.4437522888183594,0.4877204895019531,0.8378276824951172,3.3634872436523438,0.6859378814697266,2.2546615600585938,0.6054410934448242
37,0.74,0.08166708123566221,-0.1646272775435963,0.41767676421090283,0.9860453251029053,-0.02273875928752351,-0.004648078688241744,0.1648513300925336,-0.04639208236346913,-0.0016694038715107783,0.3313433516195162,0.2970263410047059,-0.7252416527314582,-1.3353438656951362,0.16634712257644377,-0.028950356038393982,0.5976569269433638,0.14462548069068656,-0.2533613171684368,0.48879959250395805,2.021287707367368,-1.7449830559130213,-0.08902838227853595,0.1713927993613829,0.557135706261916,2.09025435253865,0.046117346409368196,0.6165556871184061,-1.661544326899547,0.8061099568078529,4.6191725041097635,5.965802748220924,-0.14684816073331067,0.8986737017979869,-0.03927370305462536,4.470660842615118,6.998187476285995,0.13284587860107422,-3.7036962509155273,2.77911376953125,3.5249595642089844,0.6483469009399414,0.7572917938232422,3.2711639404296875,0.9347286224365234,2.473369598388672,0.8457345962524414,0.13284587860107422,-3.7036962509155273,2.77911376953125,3.5249595642089844,0.6483469009399414,0.7572917938232422,3.2711639404296875,0.9347286224365234,2.473369598388672,0.8457345962524414
38,0.76,0.08780103959424733,-0.1795422036244233,0.38956007980052126,0.9851048529696852,-0.020415647622977658,-0.004633991923219396,0.17067558731864613,-0.04181720971608745,-0.0021610322493118266,0.3431516845251905,0.3150587121680405,-0.764138386198938,-1.4630364463665608,0.3061006271035287,-0.07124699267178612,0.5757651532197635,0.15585121080556907,-0.2896581207145891,0.5029546894479467,2.114598527324243,-1.6201753929100668,-0.09069151800719501,0.19167400023570672,0.5534230943792171,2.1821313562455718,0.19324245112433336,0.5279976704374334,-1.939816821240964,0.6316835107098163,4.7555229473021905,6.459326270458571,-0.03949972340102889,1.1216330617791352,-0.29295074476355426,4.688047721524827,7.658485165519239,0.14056968688964844,-3.6189355850219727,2.3419456481933594,3.9061813354492188,0.4877634048461914,0.9624948501586914,3.2629432678222656,0.30505943298339844,3.1236000061035156,0.7817459106445312,0.14056968688964844,-3.6189355850219727,2.3419456481933594,3.9061813354492188,0.4877634048461914,0.9624948501586914,3.2629432678222656,0.30505943298339844,3.1236000061035156,0.7817459106445312
39,0.78,0.0950505729822778,-0.19388248949249362,0.3607800438750834,0.9851688953764232,-0.015504409234783599,0.00030084394786066747,0.17088525498122212,-0.03045133824486416,0.0058917481367788465,0.34340814188862356,0.7058071953428465,-0.12470277980153421,-0.5934841140081376,2.0088443888737357,4.780036140797599,-4.8416497572215595,0.16950512078634944,-0.33720698469589055,0.515055766143079,2.208589924299079,-1.4827582747719075,-0.0829339184924021,0.20569274774734306,0.5536146850810871,2.274051958094417,0.3536493301201954,2.7086964766017445,-4.724312872608194,1.0471621704825382,3.7744549179393223,7.243071243765697,3.7418459402623214,-4.248527778245764,3.8742900439522803,2.6231192315041625,7.018462371233658,0.07672882080078125,-3.6730308532714844,2.0395355224609375,4.555652618408203,0.5580406188964844,0.9566650390625,3.159757614135742,0.016757965087890625,3.8660354614257812,0.8708419799804688,0.07672882080078125,-3.6730308532714844,2.0395355224609375,4.555652618408203,0.5580406188964844,0.9566650390625,3.159757614135742,0.016757965087890625,3.8660354614257812,0.8708419799804688
40,0.8,0.0976924071030318,-0.18863144274747454,0.36584844832066293,0.9880641319679125,-0.023709116447457265,0.024366021968880002,0.1502446201672077,-0.03960140527515267,0.055302904609868836,0.3007117391301369,0.13140951421817074,0.2384397858173418,0.2143987596184297,-1.0393115979266287,1.993052699803346,-1.2459229226967645,0.20254667258379563,-0.40844385148486695,0.5317755917691458,2.2065443020230933,-1.3708852612228886,-0.11339447486310708,0.2607563817850826,0.6317159118801084,2.300916301943137,0.48745422543127837,0.7187803872159442,-2.265536199845446,-0.13238565373771619,0.468049702251226,4.036917245397475,-0.29995306882473816,3.44144645430125,0.9129931887524207,1.428627011125721,6.324722301285998,-2.8069334030151367,-1.0243167877197266,3.927234649658203,-10.06546401977539,-1.1484365463256836,1.922861099243164,5.046773910522461,-8.15781021118164,5.364048004150391,-0.15802574157714844,-2.8069334030151367,-1.0243167877197266,3.927234649658203,-10.06546401977539,-1.1484365463256836,1.922861099243164,5.046773910522461,-8.15781021118164,5.364048004150391,-0.15802574157714844
41,0.82,0.10020923805897788,-0.18511115373178896,0.36930230485661414,0.9892483643417952,-0.028097070598203783,0.03635915969408076,0.13883889864595947,-0.04565501276296625,0.07982315285695575,0.2770507637237854,0.11452644841709395,0.1279148642562367,0.1341208731205173,0.3641361224358757,0.9294609354388274,-1.040982145607469,0.20013927745756588,-0.419926357485358,0.5239330821021835,2.20735423532744,-1.34112006351207,-0.09403686964764814,0.32419865780878965,0.6547908307379273,2.314595196533885,0.5564600134342027,-0.5090764167712774,0.1641300565196825,-0.5043725648478071,-0.1560584160418618,-0.560289573865715,1.7142689286092343,2.7166577013771134,1.2546194187496535,0.16587573174243034,1.1335955056773592,-2.059178352355957,4.023576736450195,4.228702545166016,-9.472528457641602,-2.605372428894043,4.599479675292969,-1.6813297271728516,1.2441082000732422,-1.5268840789794922,-2.0631847381591797,-2.059178352355957,4.023576736450195,4.228702545166016,-9.472528457641602,-2.605372428894043,4.599479675292969,-1.6813297271728516,1.2441082000732422,-1.5268840789794922,-2.0631847381591797
42,0.84,0.10113252066917337,-0.1835090003011478,0.37209716347897204,0.9903082943789072,-0.024557457910764073,0.04065091187045905,0.13051404793891314,-0.038181639475966776,0.08703389409043209,0.2604095188880078,-0.010476782773469926,0.04902331795334731,0.14530193740937059,0.47794028505708497,0.015863165702030564,-0.5160090627247867,0.1972264803696422,-0.41318801467209026,0.5100154610665851,2.194013576396387,-1.4134434905944244,-0.05715440848367969,0.3612398573953904,0.6647983597421036,2.3205884964523356,0.48584733875918884,0.32560754323705243,0.3736917896612314,-0.82960723011241,-1.074358294665103,-5.518591219692883,1.8386395460015268,1.1440807795559116,-0.0656149334598114,0.40877338657728673,-7.283088122093446,-1.14129638671875,2.0440139770507812,2.4918670654296875,-15.234705924987793,-3.3382949829101562,2.6480464935302734,-4.376569747924805,-1.80474853515625,1.800638198852539,-3.5024423599243164,-1.14129638671875,2.0440139770507812,2.4918670654296875,-15.234705924987793,-3.3382949829101562,2.6480464935302734,-4.376569747924805,-1.80474853515625,1.800638198852539,-3.5024423599243164
43,0.86,0.099547045136808,-0.18320629046316686,0.37518197554273247,0.9909197476089799,-0.019778806070251398,0.039675598499887506,0.126935808630454,-0.02923251829909739,0.08374981523310121,0.2535853375471269,-0.11561790691293514,-0.025896403878659265,0.13114832072393018,0.6055621429376031,-0.09501992160494736,-0.3436276548426797,0.20068753355632366,-0.4068841036918601,0.49449547623422163,2.169014526332878,-1.5228252520038374,-0.03221857974569725,0.3617930806102754,0.6646363673118112,2.317061782064911,0.32858805965971677,-0.07758428657864935,0.2628227020993833,-1.1483299822341368,-1.4171582748180724,-6.2457663981752125,0.9432779399556122,-0.918841897183806,0.1491898167897409,-0.5589371038736128,-8.331815201524101,-2.4326581954956055,0.9494819641113281,1.3587150573730469,-14.006272315979004,-0.7212057113647461,0.768463134765625,-5.4913129806518555,0.7914276123046875,-2.201578140258789,-0.5942354202270508,-2.4326581954956055,0.9494819641113281,1.3587150573730469,-14.006272315979004,-0.7212057113647461,0.768463134765625,-5.4913129806518555,0.7914276123046875,-2.201578140258789,-0.5942354202270508
44,0.88,0.09608686233223918,-0.18427230128780298,0.37789676645845366,0.9914783890040147,-0.015259223317898554,0.03468149391791544,0.1246392964572573,-0.0216718689664663,0.07263956482362537,0.2493216144848092,-0.2058665254400396,-0.08782473641523167,0.11448839416368749,0.36871167409880123,-0.7469878442600172,-0.25209150428298027,0.19978735830030583,-0.39721530126947113,0.47305862247855224,2.138318384092479,-1.625413742804096,-0.013246979061589163,0.34111572666374523,0.6580909462061567,2.297739156377136,0.15977796664591973,-0.19998371009675175,0.7171206557240459,-1.399500222609922,-1.660663114860838,-4.783323747246419,0.990825606984478,-1.2450233680733251,-0.49464681410567823,-1.2298477434847717,-8.528150059623291,-2.396834373474121,1.7145099639892578,0.4913368225097656,-14.22872543334961,0.6124343872070312,1.5738487243652344,-3.19950008392334,-0.8482875823974609,-2.5737781524658203,-0.2517681121826172,-2.396834373474121,1.7145099639892578,0.4913368225097656,-14.22872543334961,0.6124343872070312,1.5738487243652344,-3.19950008392334,-0.8482875823974609,-2.5737781524658203,-0.2517681121826172
45,0.9,0.09158811757799018,-0.186849370828619,0.3789834458265694,0.991951207285806,-0.008430736195339334,0.027365568381690717,0.12334038559443627,-0.009991251140496668,0.05640021430433683,0.24713068797421076,-0.241693663893385,-0.16303541824410558,0.0036956494081853124,0.7712442733064855,-0.876743194409286,-0.036526631291358164,0.19419180781198953,-0.38218906939670905,0.4487968458124043,2.107458973525585,-1.7335862072533281,0.0042457918465374275,0.312662059122516,0.6477144274248383,2.263846781976364,-0.01701078703689623,-0.33758035975562745,0.7738897568937155,-1.115210826774,-1.4802463728187834,-5.887813477632027,0.8124984172669446,-1.533395600591815,-0.5239555177484932,-2.0054945121674117,-9.09116487367069,-1.9514760971069336,0.9131031036376953,2.1558189392089844,-10.978466033935547,-0.23743438720703125,1.0855655670166016,-2.567850112915039,-1.0001983642578125,-3.894390106201172,-0.410736083984375,-1.9514760971069336,0.9131031036376953,2.1558189392089844,-10.978466033935547,-0.23743438720703125,1.0855655670166016,-2.567850112915039,-1.0001983642578125,-3.894390106201172,-0.410736083984375
46,0.92,0.08589933941854497,-0.1904516691979316,0.3782258729180266,0.9920079860490225,-0.0019862625057286685,0.01691485581567964,0.12502039045273894,0.00028879474710126154,0.0340625772528746,0.25073824257277627,-0.3154478820415177,-0.1963538221447996,-0.07763503441831238,0.34005504936099146,-1.2856113555634554,0.31980887710207184,0.18691957964384354,-0.3700582771386877,0.43021326696980683,2.080530198963267,-1.831875534288517,0.016616036990251246,0.28464458342987986,0.6247739567840713,2.220716836940318,-0.19493580870493146,-0.3218515222334663,0.5917069136899132,-0.9877694943677539,-1.2151962169370216,-3.996385351560648,0.48656671337498514,-1.321375444971238,-1.5195084063269857,-2.249004049282289,-8.738014746026561,-2.2426462173461914,-0.29106807708740234,0.23921775817871094,-9.280414581298828,0.6332387924194336,0.39429569244384766,-1.506993293762207,-2.904886245727539,-3.062715530395508,-0.030135154724121094,-2.2426462173461914,-0.29106807708740234,0.23921775817871094,-9.280414581298828,0.6332387924194336,0.39429569244384766,-1.506993293762207,-2.904886245727539,-3.062715530395508,-0.030135154724121094
47,0.94,0.07952976117886275,-0.19485125781691037,0.3751136896941645,0.9913950276950163,0.0038981665669150893,0.004939582615617296,0.13075283508436095,0.009021444447071134,0.008774875235690158,0.2623013955124861,-0.31290921968663876,-0.24648134577702674,-0.13762080362341364,0.36391592105584314,-1.266246816152914,1.2387634469028166,0.17706177742283463,-0.36051242737661726,0.41668814166637447,2.061801873787973,-1.9108155488066414,0.02224425006064213,0.2651333671965546,0.5916458882540081,2.185343679063322,-0.34496406777590266,-0.8600289183509257,0.2674580681375655,0.3245395523431002,-0.38071079075514747,-3.0479086172286847,0.5825383037832511,0.10580520859739956,-2.6845919119731345,1.2493961241732876,-7.293252499983758,-2.093942642211914,-0.9576473236083984,0.9584140777587891,-5.726085662841797,0.16934776306152344,-0.38646697998046875,-0.4905843734741211,-1.9214458465576172,-4.170011520385742,0.91552734375,-2.093942642211914,-0.9576473236083984,0.9584140777587891,-5.726085662841797,0.16934776306152344,-0.38646697998046875,-0.4905843734741211,-1.9214458465576172,-4.170011520385742,0.91552734375
